,BottleneckSummaryIndex,Id,StartDate,EndDate,FromIntersectionName,ToIntersectionName,Direction,MaxDurationMinutes,StartSegmentOffsetMiles,EndSegmentOffsetMiles,MaxLengthMiles,FromPointLat,FromPointLon,ToPointLat,ToPointLon,label
0,28,ec73557c-8f79-4959-8cc6-8e881e605a4f,2024-01-09T10:45:03.000Z,2024-01-09T11:21:55.000Z,I-80,I-80,Eastbound,37,0.902,0.422,19.45,41.1598399,-80.64399048,41.184826222015054,-80.28337456,Yes
1,3,b1c454e4-533d-4da2-b2bf-bedb8cdb4556,2024-01-09T11:26:58.000Z,2024-01-09T12:06:11.000Z,OH-11,OH-11,Northbound,39,0.769,0.129,29.42,41.32458897091589,-80.70520712,41.74959609266028,-80.71051653,Yes
2,82,acfac15f-55ee-4336-85a1-185ad12bf3d9,2024-01-09T07:50:54.000Z,2024-01-09T08:54:43.000Z,I-70,I-70,Westbound,64,0.381,0.324,22.41,39.94651107136019,-82.46577211,39.936827619451016,-82.87920927,Yes
3,74,142cfe45-afe5-475f-8fd9-15a6c90451ac,2024-01-09T07:48:57.000Z,2024-01-09T08:38:57.000Z,"I-70  Exits 110,110A,110B / CR-117 Brice Rd / Brice Rd",I-70,Eastbound,50,0.412,0.327,15.37,39.931989417391655,-82.81834488,39.94218998102758,-82.53363951,Yes
4,301,70812e2c-91e0-4db5-8874-f9152c7db4cd,2024-01-09T10:43:56.000Z,2024-01-09T10:56:08.000Z,I-680  Exit 3A / OH-711 / Elberen St,I-680  Exit 16 / OH-164 South Ave,Southbound,12,0.442,0.879,12.25,41.11247544651766,-80.69181866,40.969881794875896,-80.63759373,Yes
5,464,b02c3d24-e742-4f84-8401-d32cb0924bba,2024-01-09T10:21:02.000Z,2024-01-09T11:03:58.000Z,OH-21 / Grill Rd,I-77  Exit 138 / Ghent Rd,Northbound,43,0.978,0.112,11.66,40.97195769,-81.66122723,41.13876065054793,-81.64972963,Yes
6,237,ed0ea182-e6dd-46f3-8018-296e1f651501,2024-01-09T20:53:52.000Z,2024-01-09T22:49:51.000Z,"I-71  Exits 3,3A-B / Essex Pl / William Howard Taft Rd",I-71  Exit 188 / US-127 Dixie Hwy,Southbound,116,0.427,0.141,7.11,39.13806,-84.48782,39.059873792866725,-84.53576083,Yes
7,115,d3f98891-da49-41f7-8a05-6574e2f2b7c2,2024-01-09T08:52:55.000Z,2024-01-09T09:27:58.000Z,I-70  Exit 198 / CR-114 Oxford Rd,I-70  Exit 215 / US-40 National Rd,Eastbound,35,0.559,0.308,15.71,40.05574,-81.22318,40.07790000073976,-80.93734132,Yes
8,81,6459e66b-4e08-45ed-9226-55986d7a4304,2024-01-09T13:20:52.000Z,2024-01-09T13:29:52.000Z,I-71  Exit 19 / Fields Ertel Rd / Escort Dr,I-71  Exit 8 / Highland Ave,Southbound,9,0.035,0.223,10.85,39.29705079663051,-84.31149893,39.17089089383309,-84.40622116,Yes
9,465,601a0817-e3d3-4c88-a559-394b1aacb991,2024-01-09T09:24:42.000Z,2024-01-09T10:48:49.000Z,I-71,I-71 / CR-92 Crider Rd / CR-291 Koogle Rd,Northbound,84,0,0.325,21.38,40.54802,-82.65441,40.787770335542135,-82.4079897,Yes
10,143,55236085-0c25-405f-9617-03630a758384,2024-01-09T09:37:56.000Z,2024-01-09T09:52:56.000Z,I-70  Exit 225 / Marion St,I-70,Westbound,15,0.101,0.267,14.46,40.07115939251209,-80.75067185,40.06400629206483,-81.01068358,Yes
11,197,afa843dc-c941-41aa-b94e-2847db9e951c,2024-01-09T09:43:54.000Z,2024-01-09T10:18:55.000Z,US-22 Cadiz-Piedmont Rd / CR-2 Deersville Ridge Rd / US-250,US-22 / CR-22 A,Eastbound,35,0.041,0,12.23,40.27764,-81.01313,40.34962771459087,-80.81320507,Yes
12,81,1fee7ce8-0fdd-4f08-bbec-78c5375188e5,2024-01-09T13:27:52.000Z,2024-01-09T13:37:03.000Z,I-71,I-71  Exit 8 / Highland Ave,Southbound,9,1.264,0.378,11.1,39.29828541566533,-84.3098363,39.170832680830266,-84.40891003,Yes
13,69,22cdd2e1-5e11-4592-8c83-472f5c7827c9,2024-01-09T09:16:03.000Z,2024-01-09T09:43:54.000Z,I-77,I-77,Southbound,28,0.761,0.755,11.89,40.203316439431084,-81.55694283,40.03737996395498,-81.56187002,Yes
14,81,074a370f-30f5-48a0-bb7a-8a4159933a00,2024-01-09T12:50:58.000Z,2024-01-09T13:26:41.000Z,I-71,I-71  Exit 8 / Highland Ave,Southbound,36,0.595,0.378,11.77,39.30540734703128,-84.30098313,39.170832680830266,-84.40891003,Yes
15,81,09d50272-a73b-408d-b976-d34b119f2f46,2024-01-09T12:37:53.000Z,2024-01-09T12:51:51.000Z,I-71,I-71  Exit 8 / Highland Ave,Southbound,14,0.595,0.223,11.62,39.30540734703128,-84.30098313,39.17089089383309,-84.40622116,Yes
16,45,de703c49-32a9-430a-b9e5-c003ad11b877,2024-01-09T11:20:04.000Z,2024-01-09T11:39:01.000Z,OH-11,OH-11,Southbound,19,0.813,0.322,16.07,41.43017637,-80.71240996,41.20088030824908,-80.70604624,Yes
17,415,bb611ebc-7066-49dc-84b2-54331a7d8161,2024-01-09T09:06:03.000Z,2024-01-09T09:56:55.000Z,US-250 Cadiz Dennison Rd,US-250 Cadiz Dennison Rd / US-250 / Deersville Ridge Rd,Eastbound,51,0.304,0.535,14.32,40.36458790194689,-81.23762134,40.28075997,-81.01514998,Yes
18,148,f080c070-ad5d-4d47-8780-268a4b40e2d4,2024-01-09T22:01:45.000Z,2024-01-09T23:17:52.000Z,"I-71  Exits 109A,109B,110A / I-670  Exits 4A,4A-B,4B,4C,5,5A-5B / Goodale St",I-71  Exit 116 / Morse Rd / Sinclair Rd,Northbound,76,0.104,0.455,6.61,39.96391253983678,-82.98290649,40.05641021096597,-82.99799001,Yes
19,75,9eedb93f-7d4c-4b0c-a64c-0c1745bd6a42,2024-01-09T08:48:50.000Z,2024-01-09T11:57:49.000Z,OH-37 / OH-161 / OH-37 Johnstown-Alexandria Rd,"I-270  Exits 30,33 / OH-161  Exits 40,41,42 / OH-161 Dublin Granville Rd Exits 40A,40B",Westbound,189,0,0.198,14.34,40.07353,-82.6001,40.08109812886156,-82.86187486,Yes
20,25,84cbc73a-5bfc-42f7-ad57-15060ea13430,2024-01-09T09:42:38.000Z,2024-01-09T09:58:52.000Z,I-71,I-71,Northbound,16,0,0,17.05,40.54802,-82.65441,40.73804389702666,-82.45859299,No
21,50,c9194eed-c1ad-4e2c-8120-808cad7da4db,2024-01-09T10:26:05.000Z,2024-01-09T10:40:01.000Z,I-76,I-76,Westbound,14,0,0.716,13.48,40.94359195,-80.60948759,41.073182597664896,-80.79451339,Yes
22,168,e9ef2e10-9d16-49d1-a56f-529460f0c4d9,2024-01-09T10:11:56.000Z,2024-01-09T10:51:07.000Z,US-36 / CR-10,US-36 / CR-15 St,Eastbound,39,0.678,0.981,14.07,40.30040998927378,-81.82792995,40.28256425263336,-81.57433158,Yes
23,142,3d39cb24-58ec-4736-8638-b1b5633ce7c8,2024-01-09T11:08:41.000Z,2024-01-09T11:20:43.000Z,US-30,US-30 / OH-13 Main St,Westbound,12,0.184,0,7.03,40.78125783857352,-82.3803001,40.77856081528069,-82.50923478,Yes
24,3,4b99fefd-f247-4c18-b1ac-402541b330f0,2024-01-09T11:12:59.000Z,2024-01-09T11:26:58.000Z,OH-11,OH-11,Northbound,14,0.295,0.46,16.85,41.33482003121824,-80.70445999,41.57526375075945,-80.71322332,Yes
25,210,d79a28c9-8bad-4c41-ba02-60add0ddbad9,2024-01-09T12:31:42.000Z,2024-01-09T12:41:04.000Z,I-71  Exit 117 / OH-161 Dublin Granville Rd,"I-71  Exits 109A,109B,110A / I-670  Exits 4A,4A-B,4B,4C,5,5A-5B / Goodale St",Southbound,9,0.112,0.177,6.46,40.08215746074113,-82.98776696,39.99424494237035,-82.98515852,Yes
26,45,0dc6820c-26a1-41b1-8971-52f89b89215d,2024-01-09T11:01:57.000Z,2024-01-09T11:26:05.000Z,OH-11,OH-11,Southbound,24,0.813,0.477,14.61,41.43017637,-80.71240996,41.22136978932907,-80.71055005,Yes
27,25,c15753f4-d6f9-4f42-9d93-dc966b812159,2024-01-09T10:33:49.000Z,2024-01-09T11:25:45.000Z,I-71,I-71,Northbound,52,0.159,0.133,15.97,40.549930902277325,-82.65272627,40.73011954,-82.47187552,Yes
28,125,3735ef85-4dbe-491b-b73f-8a62f2f6372a,2024-01-09T11:15:36.000Z,2024-01-09T12:02:31.000Z,US-6,US-6 / OH-191 / County Road 22/A,Eastbound,47,0,0.298,16.31,41.4480173,-84.72283001,41.44191054814327,-84.40950345,Yes
29,47,f1477833-1880-4967-b6d0-60d484d010ae,2024-01-09T07:53:55.000Z,2024-01-09T08:26:53.000Z,I-270,I-270,Northbound,33,0.7,0.05,10.24,39.92433929221537,-82.86930208,40.03748781031376,-82.90273012,Yes
30,254,00d13282-fdae-4bee-86ca-ede8c3b28fa1,2024-01-09T10:21:02.000Z,2024-01-09T10:43:56.000Z,I-76  Exit 2 / OH-3 Wooster Pike / OH-3 Center St,I-76  Exit 14 / CR-17 Cleveland Massillon Rd,Eastbound,23,0.091,0.928,11.82,41.03303908346631,-81.86024146,41.03944887997886,-81.643634,Yes
31,47,9ec8d70c-f4a2-4a19-90f7-d66c8dbed50c,2024-01-09T08:00:53.000Z,2024-01-09T08:21:00.000Z,"I-270  Exits 35,35A,35B / I-670  Exits 10A-B,10C,10D / US-62",I-270,Northbound,20,0.723,0.797,10.89,40.00800169456098,-82.88669297,39.89023331,-82.91020935,Yes
32,82,ba4a7714-cef7-446c-a38c-a90250d1aea1,2024-01-09T07:59:44.000Z,2024-01-09T08:28:45.000Z,I-70,I-70,Westbound,29,0.31,0,11.37,39.94050141211468,-82.34739946,39.94345508,-82.55983626,Yes
33,174,3769b24a-daae-4777-9f1d-22b3322ebb64,2024-01-09T10:22:58.000Z,2024-01-09T10:54:03.000Z,US-22,US-22 / Lovers Ln,Eastbound,31,0.307,1.024,9.83,40.33523057618918,-80.85646179,40.39083995,-80.70337057,Yes
34,127,5da5a7b8-d38e-4b88-a764-4ecb6dcf8c1c,2024-01-09T10:32:57.000Z,2024-01-09T10:54:03.000Z,I-77,I-77,Northbound,21,0.437,0.299,8.46,40.37371632758548,-81.56006797,40.47728739357232,-81.48421296,Yes
35,127,18359989-c90d-44d6-9369-37aca413b582,2024-01-09T09:03:56.000Z,2024-01-09T09:31:02.000Z,I-77,I-77,Northbound,27,0.431,0.58,14.8,39.636942285166405,-81.46384184,39.83060930374695,-81.54768154,Yes
36,301,d8d6f835-a23c-4f7d-837e-f91cac5e9508,2024-01-09T10:51:57.000Z,2024-01-09T11:06:05.000Z,"I-680  Exits 6,6A,6B / Market St",I-680  Exit 16 / OH-164 South Ave,Southbound,14,0.124,0.879,9.56,41.092162079228416,-80.65376006,40.969881794875896,-80.63759373,Yes
37,24,924001d7-a5b6-42f6-b569-2b4387ce90b0,2024-01-09T10:16:56.000Z,2024-01-09T10:46:59.000Z,US-30 / CR-16 Funk Rd,US-30 / Township Road 1255,Westbound,30,0.983,0.86,11.89,40.784490000000496,-82.11711632,40.78738981802862,-82.34391183,Yes
38,210,5dde0886-38c7-4c1d-8db7-42c7470d9cf3,2024-01-09T13:11:48.000Z,2024-01-09T13:14:59.000Z,I-71  Exit 116 / Morse Rd / Sinclair Rd,"I-71  Exits 109A,109B,110A / I-670  Exits 4A,4A-B,4B,4C,5,5A-5B / Goodale St",Southbound,3,0.086,0.132,5.39,40.06480999199651,-82.99630259,39.99019982274856,-82.98556002,Yes
39,77,5bc4e75e-c5bc-4b60-9b8c-5a0f33536e1c,2024-01-09T09:39:39.000Z,2024-01-09T10:33:49.000Z,I-71  Exit 176 / US-30 / CR-92 Crider Rd,I-71,Southbound,54,0.122,0.041,12.07,40.78394934067666,-82.41140049,40.646199503977485,-82.54737026,Yes
40,3,f3165f37-4f1a-403d-b57b-ecc7e924511b,2024-01-09T11:54:59.000Z,2024-01-09T12:04:03.000Z,OH-11,OH-11,Northbound,9,1.436,0.601,12.72,41.36565190452213,-80.69832038,41.54863584411699,-80.71324104,No
41,417,bc575502-c7e1-49e5-852c-12a6a0b6022c,2024-01-09T13:41:53.000Z,2024-01-09T14:31:45.000Z,I-71  Exit 117 / OH-161 Dublin Granville Rd,I-71  Exit 110B / 11th Ave / Kingry St,Southbound,50,1.287,0,5.11,40.06691353715451,-82.99411037,39.99680476815755,-82.98489852,Yes
42,416,83a618b6-c9f5-4b2b-bd69-b154fcf9377a,2024-01-09T10:55:00.000Z,2024-01-09T11:14:55.000Z,I-77  Exit 143 / OH-176 Wheatley Rd / Wheatley Rd,I-77  Exit 135 / CR-17 Cleveland Massillon Rd,Southbound,20,0.408,0.648,7.59,41.21954748545688,-81.62668783,41.11947756353613,-81.6480269,Yes
43,81,08b66cd8-8d1f-4997-b9e1-dffebbe91fd6,2024-01-09T13:43:45.000Z,2024-01-09T14:02:54.000Z,"I-71  Exits 17,17A,17B / I-275  Exits 49,49A,49B",I-71  Exit 8 / Highland Ave,Southbound,19,0.286,0.378,8.35,39.272697068225256,-84.34908487,39.170832680830266,-84.40891003,Yes
44,45,933ff1a8-d81e-4752-880a-843af989a97e,2024-01-09T10:11:03.000Z,2024-01-09T11:16:09.000Z,OH-11  Exit 39 / CR-18 Mahoning Ave / Marcia Dr,OH-11,Southbound,65,0.582,0.048,12.21,41.096079858852775,-80.75166,40.92434934,-80.72153993,Yes
45,163,b3ccab3f-fdd2-46c1-847d-c60ecfcdefe9,2024-01-09T10:51:57.000Z,2024-01-09T11:44:01.000Z,US-30 / County Road 1095,US-30 / CR-157 Jefferson Rd,Eastbound,52,1.011,0.303,14.1,40.78468192,-82.31519456,40.79539394591377,-82.04942364,Yes
46,127,359874a7-7fdf-478f-bd81-084a581a528a,2024-01-09T09:16:52.000Z,2024-01-09T09:46:52.000Z,I-77,I-77,Northbound,30,0.53,0.239,13.78,40.10652061895238,-81.56250991,40.29546001089924,-81.55797,Yes
47,135,a718c7a0-17af-457c-b4f5-cffa42d1df5f,2024-01-09T20:18:48.000Z,2024-01-09T22:33:42.000Z,I-75  Exit 14 / Glendale Milford Rd / Vision Way,"I-75  Exits 3,4 / I-74 / US-52 Hopple St",Southbound,135,0.086,0.69,7.98,39.243139514575645,-84.44960045,39.15832309329275,-84.53015072,Yes
48,444,fedba82b-b762-4eac-a47d-79b853463f2b,2024-01-09T10:12:56.000Z,2024-01-09T10:46:59.000Z,US-250 / CR-175 / County Road 175,US-250 / US-30,Eastbound,34,0.862,0.557,9.1,40.858378259813165,-82.15030902,40.79505676517672,-82.00090631,Yes
49,47,def236a9-264b-4155-9175-d2ebe8daf32d,2024-01-09T08:29:39.000Z,2024-01-09T08:54:43.000Z,"I-270  Exits 22,23 / OH-315  Exits 12A,12B / US-23 High St",I-270,Northbound,25,0.118,1.329,9.42,40.11136996931168,-83.00338914,40.03449386520988,-82.90332594,Yes
50,230,7017be09-9a7a-4324-b856-883e0a61e0ce,2024-01-09T21:19:43.000Z,2024-01-09T21:41:46.000Z,OH-315  Exit 5 / Ackerman Rd,"I-71  Exits 99A,99B,106 / I-70  Exits 99A,99C / OH-315",Southbound,22,0.395,0,4.21,40.01087293301082,-83.03192306,39.952631754321786,-83.01774018,Yes
51,247,2d201fe3-2c12-4878-af81-df22b6e60e22,2024-01-09T22:40:39.000Z,2024-01-09T22:42:49.000Z,I-75  Exit 2A / Western Ave / Findlay St,I-71  Exit 189 / KY-1072 Kyles Ln / KY-1072,Southbound,2,0.22,0.88,4.54,39.1197,-84.53553,39.06119198887707,-84.52695115,No
52,143,06c8861f-2263-4dc5-be05-a9a2354b2d8d,2024-01-09T09:16:52.000Z,2024-01-09T09:19:52.000Z,I-70  Exit 208 / OH-149 Belmont Morristown Rd,I-70,Westbound,3,0.484,0.456,12.21,40.05875,-81.0572,40.05597010600875,-81.28262346,Yes
53,255,82e7b958-edbe-4b90-99dd-61404b6744bd,2024-01-09T13:26:03.000Z,2024-01-09T13:37:49.000Z,"I-270  Exits 22,23 / OH-315  Exits 12A,12B / US-23 High St",OH-315  Exit 3 / Kinnear Rd / Lennox Entrance Rd,Southbound,12,0.225,0.209,7.63,40.11185,-83.03536,40.00735856964463,-83.03114735,Yes
54,266,92d333e3-82f2-43eb-a851-6d2eedf9d7c8,2024-01-09T09:59:57.000Z,2024-01-09T10:26:06.000Z,US-30,OH-39 / US-30 / US-30 Lincoln Hwy,Eastbound,26,1.031,0.37,9.41,40.70069337,-80.67048501,40.61911672446754,-80.56826668,Yes
55,66,8cc0a3f4-3aec-4275-8289-056855c64847,2024-01-09T11:28:45.000Z,2024-01-09T11:57:49.000Z,OH-314 / CR-98,OH-314 / CR-59,Northbound,29,0.969,0.413,9.63,40.486,-82.68145,40.62289056958413,-82.66314,Yes
56,403,d2f9c351-b98c-4afd-b5f7-876b6c1d5c73,2024-01-09T10:32:57.000Z,2024-01-09T10:33:54.000Z,OH-585 Akron Rd / Steiner Rd,Wooster Rd,Eastbound,1,0,0,6.29,40.93764398,-81.74930478,40.99311,-81.6623,Yes
57,385,971e9e26-4620-4e99-8145-851966fbe316,2024-01-09T12:39:08.000Z,2024-01-09T13:06:09.000Z,I-71  Exit 234 / US-42 Pearl Rd,"I-71  Exits 242,242A-B / Bellaire Rd / 130th St",Northbound,27,0.136,0.652,7.31,41.35372702589595,-81.8184605,41.44185010120169,-81.78573985,Yes
58,127,44704b83-c2bf-40b1-a778-134d2cc1e357,2024-01-09T09:11:50.000Z,2024-01-09T09:19:03.000Z,I-77,I-77,Northbound,7,0.296,1.089,10.35,40.03731018866817,-81.56165996,40.17959361,-81.55390223,Yes
59,329,15312f95-424d-4fcf-b81b-2c962144652c,2024-01-09T12:43:00.000Z,2024-01-09T13:16:11.000Z,I-90  Exit 164 / Marginal Dr / Mckinley Ave,I-90 / Clark Ave,Eastbound,33,0,0.601,4.58,41.47171,-81.82144,41.47068504333491,-81.73579414,Yes
60,252,49663e88-87be-4c44-85fa-56612e6d9ac3,2024-01-09T10:46:10.000Z,2024-01-09T11:10:01.000Z,US-224 / Westview Rd,US-224 Center Rd / Poland Way,Westbound,24,1.099,0.705,9.65,41.01888,-80.41387,41.02376918002018,-80.57975812,Yes
61,63,d7d5ff53-dcc9-4dc7-afcf-a2eaf9aabfc4,2024-01-09T21:14:46.000Z,2024-01-09T23:19:45.000Z,"I-71  Exits 109A,109B,110A / I-670  Exits 4A,4A-B,4B,4C,5,5A-5B / Goodale St",I-70 / I-670,Westbound,125,0.59,1.061,4.92,39.97950909492903,-82.98640026,39.970346128266286,-83.07067032,Yes
62,166,13deeedc-fa47-41c0-925a-27a9eb642c75,2024-01-09T10:21:53.000Z,2024-01-09T11:07:33.000Z,US-30 / Lare Rd,US-30 Lincoln Hwy / US-30 / Lincoln Hwy,Westbound,46,0.468,0.853,12.31,40.96809982585422,-84.750102,41.04921999,-84.95715999,Yes
63,74,1235200d-9632-4d93-bc8b-faa49d26232e,2024-01-09T08:58:51.000Z,2024-01-09T09:10:59.000Z,I-70,I-70,Eastbound,12,1.008,0.282,7.75,39.95121807,-82.74467626,39.94489995206809,-82.59867945,Yes
64,18,d1b43358-2c42-43d4-99bf-4186c8f5731b,2024-01-09T08:17:48.000Z,2024-01-09T08:39:46.000Z,"I-270  Exits 35,35A,35B / I-670  Exits 10A-B,10C,10D / US-62","I-670  Exits 2A,2B,3 / OH-315  Exits 1C,1D,1E,1F,2 / Goodale St",Westbound,22,0,0.295,5.64,40.00851,-82.91107,39.97597946399837,-82.99813608,Yes
65,396,f0ec6e3d-e455-4cc2-9aa7-4d5e02cbb7b9,2024-01-09T12:38:10.000Z,2024-01-09T13:40:12.000Z,I-90 / Clark Ave,I-90  Exit 173A / Prospect Ave,Eastbound,62,0.457,0.066,4.02,41.47301001340706,-81.72698997,41.4990291,-81.67209625,Yes
66,25,79c9defc-a2d2-414e-9c1e-067ccd7881e4,2024-01-09T10:22:44.000Z,2024-01-09T10:40:40.000Z,I-71,I-71,Northbound,18,0.159,0,12.63,40.549930902277325,-82.65272627,40.69381,-82.51284,No
67,151,9ce875da-0031-40cd-97d9-75d70d8954bc,2024-01-09T11:18:57.000Z,2024-01-09T11:40:47.000Z,I-71,I-71 / Kocheiser Rd,Northbound,22,0.159,0.39,9.26,40.549930902277325,-82.65272627,40.65172227082135,-82.54396878,Yes
68,333,2c5137e4-d393-471f-8973-3b3e211afeee,2024-01-09T12:09:38.000Z,2024-01-09T12:23:48.000Z,US-20 / County Road 23,US-20 / County Road 12,Eastbound,14,0.424,0.491,10.47,41.67428547458253,-84.29269124,41.66980257786507,-84.1025781,Yes
69,143,29477a92-8333-46ba-815f-87de3078f95d,2024-01-09T09:26:03.000Z,2024-01-09T09:37:56.000Z,I-70  Exit 225 / Marion St,I-70,Westbound,12,0,0.42,10.49,40.07165,-80.74886,40.07807998906094,-80.94030082,Yes
70,459,48cd720a-82ff-4880-8437-a8fd5453e72b,2024-01-09T10:09:00.000Z,2024-01-09T10:11:03.000Z,OH-11,US-30 / OH-39 8th St / OH-267 Lisbon St,Southbound,2,0.799,1.022,10.82,40.73919839795338,-80.71018814,40.63234941190285,-80.58345966,Yes
71,77,2350bfb7-d784-4d75-b0ac-b66d2a9378ab,2024-01-09T10:37:37.000Z,2024-01-09T10:51:35.000Z,I-71,I-71,Southbound,14,0.836,0.127,10.59,40.77230486,-82.42033589,40.65202787215102,-82.54409497,Yes
72,387,7e30406f-cab9-4f6f-8545-fb4fe5e95439,2024-01-09T10:32:57.000Z,2024-01-09T10:41:07.000Z,I-77  Exit 138 / Ghent Rd,I-80  Exit 173 / I-77  Exit 146 / OH-21,Northbound,8,0,0.874,8.49,41.14871,-81.63344,41.268259697825165,-81.63626,Yes
73,10,37b7d32c-3aab-4742-9b7e-50b72b1bd987,2024-01-09T10:59:33.000Z,2024-01-09T11:25:45.000Z,US-24 / Webster Rd,US-24,Eastbound,26,0.845,0.082,10.8,41.11651,-84.91668,41.16953005994701,-84.7291596,Yes
74,16,90095589-9763-4781-ab2b-0fa08a1749dd,2024-01-09T10:29:01.000Z,2024-01-09T11:06:59.000Z,I-76,I-76,Eastbound,38,1.143,0.424,8.93,41.01578,-80.71129,40.93885536470481,-80.58348959,Yes
75,247,4dda68ba-956b-4f58-b74a-8e728b44e0eb,2024-01-09T21:47:49.000Z,2024-01-09T22:36:53.000Z,I-75  Exit 2A / Western Ave / Findlay St,I-71  Exit 189 / KY-1072 Kyles Ln / KY-1072,Southbound,49,0.137,0.591,4.11,39.11786169889253,-84.53464006,39.06340169872408,-84.5232565,No
76,291,03fa54e5-df65-40e2-8f0e-3b3dff9da523,2024-01-09T10:03:44.000Z,2024-01-09T11:06:39.000Z,US-36 Columbus Rd / Colonial Trace Mhp,US-36 Columbus Rd / US-36 Main St / OH-314 Johnsville Rd,Westbound,63,1.149,1.147,10.55,40.36541,-82.518,40.30831842,-82.69056673,Yes
77,97,0c0034b4-d43c-4b7c-83ff-14b11102adf2,2024-01-09T12:20:47.000Z,2024-01-09T12:39:47.000Z,I-71  Exit 19 / Fields Ertel Rd / Escort Dr,I-71  Exit 12 / US-22 Montgomery Rd,Southbound,19,0.035,1.039,7.35,39.29705079663051,-84.31149893,39.20944049001774,-84.37108094,Yes
78,342,f3a97d40-2c55-4dc6-85e1-85b8b262f9bc,2024-01-09T12:27:59.000Z,2024-01-09T13:51:42.000Z,"I-275  Exits 74A,74B / I-471  Exits 1A,1B","I-471  Exit 6B / I-71  Exits 1A,2 / Columbia Pkwy",Northbound,84,0.426,0.403,5.26,39.04986,-84.46316,39.107458488971865,-84.50296605,Yes
79,360,0d509ac4-1ae3-48ff-b8c8-a7b1fb29163f,2024-01-09T08:37:44.000Z,2024-01-09T08:52:51.000Z,I-70,I-70  Exit 126 / OH-37 Lancaster Rd,Eastbound,15,1.008,0.709,10.81,39.95121807,-82.74467626,39.94254499890347,-82.54226597,Yes
80,74,02a9b803-21a3-4f7d-8faa-4ea6612f15a9,2024-01-09T21:25:57.000Z,2024-01-09T23:05:51.000Z,"I-70  Exits 105A,105B / James Rd",I-70,Eastbound,100,0.036,0.73,5.59,39.93153999962846,-82.91456997,39.93160536,-82.81144722,Yes
81,443,e07f05a8-6f66-40a0-b619-06c06edd540f,2024-01-09T10:49:06.000Z,2024-01-09T11:03:00.000Z,I-480,I-480  Exit 42 / I-80  Exit 187,Southbound,14,0.579,0.432,9.03,41.34244537132047,-81.49601461,41.25549084,-81.37082628,Yes
82,200,0f03a8df-6ca8-4dbb-a359-4dd7e766597b,2024-01-09T09:41:58.000Z,2024-01-09T10:16:04.000Z,US-30,US-30 / OH-603,Westbound,34,1.083,0.154,10.26,40.78528,-82.18126,40.78072003840174,-82.37554038,Yes
83,108,92338a62-4edd-4f58-9651-37a22ee53a89,2024-01-09T20:56:44.000Z,2024-01-09T23:12:44.000Z,OH-315  Exit 8 / Bethel Rd,OH-315 Olentangy River Rd / Retreat Ln,Northbound,136,0.277,0.706,6.21,40.06911539,-83.03391787,40.157217623849554,-83.04576027,Yes
84,147,eb176621-364d-447e-8a1b-cc46cd0133e3,2024-01-09T07:54:56.000Z,2024-01-09T08:17:48.000Z,"I-270  Exits 55A,55A-B,55B / I-71  Exits 100,101 / CR-135 Stringtown Rd",I-270  Exit 10 / CR-28 Roberts Rd,Northbound,23,0.971,0.736,9.65,39.89554,-83.04454,39.99581004,-83.11821751,Yes
85,318,a497e7ca-1496-45c0-9bf9-a19382d28394,2024-01-09T11:12:59.000Z,2024-01-09T11:14:55.000Z,OH-21 / OH-162 Copley Rd,I-77,Northbound,2,0.765,0.281,6.75,41.111777424197285,-81.65502922,41.20145366603364,-81.62543692,Yes
86,98,86a2d26d-8ddf-4047-9e6c-c8104b7f2cf0,2024-01-09T08:34:54.000Z,2024-01-09T08:59:50.000Z,I-70  Exit 142 / CR-30 Mt Perry Rd,I-70  Exit 153 / Liberty St,Eastbound,25,0.214,0,10.64,39.94754641263357,-82.21964488,39.94863674046733,-82.02171615,Yes
87,308,493f3308-f151-4bc6-892c-ec4908334da9,2024-01-09T10:48:01.000Z,2024-01-09T10:50:00.000Z,I-680  Exit 3A / OH-711 / Elberen St,I-680  Exit 8 / Cooper St / Caledonia St,Southbound,2,0.401,0.296,3.83,41.11288990942667,-80.69195997,41.08156,-80.64296,No
88,307,6e632c01-57ed-4579-b43b-a61de6636bfe,2024-01-09T21:43:51.000Z,2024-01-09T22:32:56.000Z,I-670  Exit 3 / Spruce St,I-670  Exit 7 / 5th Ave / US-62 5th Ave,Eastbound,49,0,0.354,3.67,39.97319,-83.00548,39.98097198952427,-82.94376359,Yes
89,340,77bb4605-e1e2-4685-a4a7-87468071e7c9,2024-01-09T10:16:43.000Z,2024-01-09T10:23:55.000Z,US-30 / Lortie Rd,US-30 / CR-168 Convoy Rd,Eastbound,7,0.241,0.29,10.45,41.00634338659726,-84.84209548,40.92173562963581,-84.67971414,Yes
90,205,d7978089-dcd2-4672-b9b5-5f3b5e963431,2024-01-09T13:20:52.000Z,2024-01-09T13:29:52.000Z,I-71  Exit 117 / OH-161 Dublin Granville Rd,I-71  Exit 111 / 17th Ave,Southbound,9,0.112,0.263,5.32,40.08215746074113,-82.98776696,40.00998216038193,-82.98817592,Yes
91,188,c6aadede-df41-43e8-b369-7b06c596193c,2024-01-09T10:13:36.000Z,2024-01-09T10:38:48.000Z,US-62 Johnstown Utica Rd,US-62 Johnstown-Utica Rd / Nicholas Lane Rd / CR-27 Nicholas Lane Rd,Southbound,25,1.026,0.773,9.33,40.2315,-82.47981,40.176846920671125,-82.63543315,Yes
92,193,783b7c1d-7453-4686-81d1-f82a54298980,2024-01-09T08:56:06.000Z,2024-01-09T09:33:56.000Z,US-250 Cadiz Dennison Rd / OH-646 Tappan-Scio Rd,US-250 / Irish Run Rd,Northbound,38,0.327,0.766,10.73,40.32748206426209,-81.14890839,40.40570022370426,-81.29700203,Yes
93,327,f4238d85-a208-4543-a62a-3e10844943ae,2024-01-09T10:51:07.000Z,2024-01-09T11:24:56.000Z,US-62,US-62 / OH-60,Eastbound,34,0.22,0.908,11.4,40.46116995437063,-82.17623996,40.483718056604665,-81.98252748,Yes
94,338,1e7cb3c6-154c-432d-a583-607f59c4c77f,2024-01-09T11:01:57.000Z,2024-01-09T11:18:57.000Z,I-71,I-71  Exit 220 / I-271  Exit 1,Southbound,17,0.445,1.241,9.14,41.28839380527039,-81.80836217,41.15752667009604,-81.78627779,Yes
95,407,22ff5cd5-6b6b-4e65-b0dd-1cda51f389f7,2024-01-09T10:46:10.000Z,2024-01-09T10:54:03.000Z,I-80,"I-80  Exits 4A,4B / I-376  Exit 1B / PA-760  Exit 1A",Eastbound,8,0.734,1.494,10.76,41.15957772222976,-80.64828387,41.18453032513704,-80.45078944,No
96,293,d6a315d8-2458-446c-ab6c-bc504a5ddb0a,2024-01-09T08:57:53.000Z,2024-01-09T09:33:43.000Z,US-62 Coshocton St,US-62 Johnstown Utica Rd / US-62 / OH-661 North St Rd,Eastbound,36,1.012,0.957,9.58,40.15761,-82.67818,40.22701999789878,-82.52305989,Yes
97,139,aa021004-5562-4ff7-8ecc-dbcbc5b19a15,2024-01-09T12:54:46.000Z,2024-01-09T13:01:46.000Z,I-71  Exit 12 / US-22 Montgomery Rd,I-71  Exit 5 / Dana Ave / Duck Creek Rd,Southbound,7,0.035,0.3,5.86,39.197662657848944,-84.37600156,39.147388132057216,-84.45245158,Yes
98,312,99fcbe1f-c328-4e23-93b1-6200a15dc387,2024-01-09T08:56:51.000Z,2024-01-09T09:26:45.000Z,OH-13 Zolman Rd / OH-546 Lexington Rd,OH-13 Cassell Rd,Southbound,30,0.873,0.899,8.12,40.52256996558037,-82.54801001,40.42113828714454,-82.50490878,Yes
99,190,66d7882e-2dcb-4a0b-9868-253f0c61902a,2024-01-09T10:29:34.000Z,2024-01-09T10:44:40.000Z,US-30 Lincoln Hwy,US-30 / US-30 Lincoln Hwy / CR-C-1,Eastbound,15,1.126,1.053,9.32,41.05458,-84.96812,40.99914993229368,-84.80672976,Yes
100,133,87f1eb50-3a4c-476a-854b-3e168a8c558a,2024-01-09T10:45:39.000Z,2024-01-09T11:05:41.000Z,US-6 / US-23 Fostoria Rd / US-6 Bowling Green Rd,US-23 Fostoria Rd / OH-582,Northbound,20,0.994,0.46,7.46,41.33924430902637,-83.41734979,41.44854074705828,-83.41521884,Yes
101,212,281cc68b-a045-4b36-8eea-c7a0520d9133,2024-01-09T13:19:30.000Z,2024-01-09T13:47:38.000Z,US-127 Meridian Rd / M-34 Hudson Rd / M-34 Carleton Rd,US-127 / County Road T,Southbound,28,0.863,0.978,10.64,41.85432999563746,-84.36181,41.700866705706616,-84.36042973,Yes
102,3,f83ebb3f-6a88-4ee9-9396-111929d5770d,2024-01-09T12:02:02.000Z,2024-01-09T12:11:11.000Z,OH-11,OH-11,Northbound,9,0.931,0.162,5.24,41.62377026194887,-80.71326,41.700606912981904,-80.71168105,Yes
103,89,faddfa88-4ca0-4393-9121-bcaefa6f8baf,2024-01-09T13:55:47.000Z,2024-01-09T14:09:35.000Z,OH-49 / County Road,Reading Rd / M-49 Main St / Elm St,Northbound,14,0.718,0.488,10.19,41.69352019303947,-84.7475,41.83521694123643,-84.74787,Yes
104,445,d58736f0-ab94-497b-a77c-3f6ff563bf4f,2024-01-09T09:41:58.000Z,2024-01-09T10:11:56.000Z,I-77,I-77  Exit 85 / CR-80 Ohio Ave / CR-80 Schneiders Crossing Rd,Southbound,30,0.152,0.492,10.22,40.67836124,-81.43506689,40.56303953709015,-81.50742221,Yes
105,261,cd36ba18-4f90-413e-bbf9-7121911920a0,2024-01-09T20:24:50.000Z,2024-01-09T23:21:47.000Z,I-71  Exit 5 / Duck Creek Rd,I-71  Exit 11 / Kenwood Rd,Northbound,177,0.052,0.409,5.81,39.14316042369902,-84.47069452,39.18734859632527,-84.39047304,Yes
106,234,92ba9957-9b33-47f2-80a5-a2b64170af02,2024-01-09T09:58:58.000Z,2024-01-09T10:16:56.000Z,OH-7 / US-22,OH-7 / Nessley St / OH-152,Northbound,18,0.77,0.155,8.76,40.38493,-80.63117,40.49416733553112,-80.61467237,Yes
107,349,7223eba1-f44c-45e8-8145-a02ca034dbf8,2024-01-09T21:15:06.000Z,2024-01-09T21:27:04.000Z,OH-59  Exit 4 / Howe Ave,I-77  Exit 124A / Burkhardt Ave,Southbound,12,0.373,0.222,3.62,41.11335865,-81.49564118,41.062540499479184,-81.50475542,Yes
108,203,94ae749f-0c3a-4fa8-a9eb-27c6bcdc092d,2024-01-09T09:34:43.000Z,2024-01-09T09:45:36.000Z,US-30 / 5th Ave,I-71  Exit 176 / US-30 / CR-92 Crider Rd,Eastbound,11,0,0.142,4.32,40.77887,-82.49797,40.78114023027297,-82.41607927,Yes
109,288,2a42804f-7f43-4060-8ffe-0aea9d873bcb,2024-01-09T12:27:59.000Z,2024-01-09T13:19:59.000Z,I-275,I-275  Exit 47 / Reed Hartman Hwy,Northbound,52,0.516,0,7.32,39.19856058,-84.26264279,39.27149,-84.35152,Yes
110,269,c8019ebf-3a8c-42dd-94bb-b0a9b14c961a,2024-01-09T14:13:48.000Z,2024-01-09T14:55:48.000Z,I-75  Exit 13 / Shepherd Ln / Shepherd Ave,I-75  Exit 7 / OH-562,Southbound,42,0,0.975,4.7,39.24069,-84.45119,39.180839987212046,-84.48544001,Yes
111,45,69dec0c5-fd99-4fcf-a642-d601cb8ad503,2024-01-09T11:09:02.000Z,2024-01-09T11:18:57.000Z,OH-11,OH-11,Southbound,10,0.642,0.742,10.58,41.43380134,-80.71267539,41.28134867612251,-80.70472906,No
112,363,41d98a85-8ca6-4e2c-ade7-568780444a17,2024-01-09T08:43:46.000Z,2024-01-09T09:25:49.000Z,OH-161  Exit 43 / Hamilton Rd,OH-161 / OH-310 Hazelton Etna Rd,Eastbound,42,0.314,1.14,9.2,40.08710291380681,-82.84457868,40.07963719277689,-82.67606457,Yes
113,179,4637ce99-08b6-40d6-b18e-adfdbf1c7ba1,2024-01-09T09:15:40.000Z,2024-01-09T09:27:35.000Z,I-71,I-71  Exit 169 / OH-13,Northbound,12,0.159,1.489,12.17,40.549930902277325,-82.65272627,40.68878973,-82.5201757,Yes
114,292,dc40417e-3117-4c8a-a12d-09d74db33675,2024-01-09T12:44:48.000Z,2024-01-09T14:03:52.000Z,"I-270  Exits 35,35A,35B / I-670  Exits 10A-B,10C,10D / US-62","I-71  Exits 109A,109B,110A / I-670  Exits 4A,4A-B,4B,4C,5,5A-5B / Goodale St",Westbound,79,0,0.529,3.87,40.01187,-82.90749,39.98067535895064,-82.96028376,Yes
115,126,513d5911-5006-4b71-9922-82ea8f894d0b,2024-01-09T19:27:47.000Z,2024-01-09T23:16:40.000Z,"I-75  Exits 3,4 / I-74 / US-52 Hopple St","I-75  Exits 10,10A,10B / OH-126 Ronald Reagan Cross County Hwy Exits 27,27A,27B / Galbraith Rd",Northbound,229,1.104,0.287,4.14,39.161580955095545,-84.52112706,39.19934436064069,-84.4697807,Yes
116,259,0bdadb91-d9dc-4001-bcfd-bc3cb637e43f,2024-01-09T11:01:57.000Z,2024-01-09T11:31:06.000Z,US-22 Cadiz Rd / OH-800 Freeport Rd,OH-800 Hendrysburg Freeport Rd / Johnson Bethel Rd,Southbound,29,0,0.434,9.19,40.16918,-81.2445,40.05991263964516,-81.20173665,Yes
117,272,0c52c8aa-c106-486a-bec8-32116e6aacc0,2024-01-09T20:56:14.000Z,2024-01-09T21:36:11.000Z,OH-59  Exit 4 / Howe Ave,"OH-8  Exits 1A,1B / OH-59  Exit 1B / Fountain St",Westbound,40,0.648,0.482,2.48,41.12161,-81.48686,41.08900429047998,-81.50104777,Yes
118,127,ee60314d-1f64-44b4-8b70-e0d724df285b,2024-01-09T10:03:55.000Z,2024-01-09T10:21:52.000Z,I-77  Exit 47 / US-22 Cadiz Rd,I-77,Northbound,18,0,1.08,10.3,40.05321,-81.56473,40.19491362247359,-81.5572268,Yes
119,122,420819d2-b67a-491a-b843-45f32823679a,2024-01-09T11:24:56.000Z,2024-01-09T11:31:06.000Z,I-77,"I-480  Exit 20A-B / I-77  Exits 155,156 / Rockside Rd",Northbound,6,0.551,0.828,6.49,41.28676562,-81.63607507,41.37821500881719,-81.65255012,Yes
120,3,cd59e7d6-c5b6-41ff-9683-cfc1d52196ca,2024-01-09T10:51:07.000Z,2024-01-09T11:10:01.000Z,OH-11,OH-11,Northbound,19,0.476,0.288,8.21,40.99223112399241,-80.72481712,41.10637004632922,-80.75519001,Yes
121,106,a8080227-e32a-41a8-8a85-05c3df384d3e,2024-01-09T22:36:53.000Z,2024-01-09T23:16:40.000Z,I-75  Exit 2A / Western Ave / Findlay St,"I-71  Exits 191,192 / KY-8 5th St / Bullock St",Southbound,40,0.137,0.609,2.31,39.11786169889253,-84.53464006,39.08837057980779,-84.52273032,Yes
122,106,47ffcfc5-c3af-4b35-8993-ac3e8a34a03e,2024-01-09T22:39:58.000Z,2024-01-09T22:40:39.000Z,I-75  Exit 2A / Western Ave / Findlay St,"I-71  Exits 191,192 / KY-8 5th St / Bullock St",Southbound,1,0.22,0.324,2.17,39.1197,-84.53553,39.09220956,-84.52252003,Yes
123,35,ba49e80b-fed0-4ec2-a2cc-6a94f6099220,2024-01-09T12:21:47.000Z,2024-01-09T13:04:51.000Z,"I-75  Exit 24 / OH-129 Butler County Veterans Hwy Exits 25A,25B / Liberty Way",I-75,Southbound,43,0.357,0.794,6.63,39.37628952482136,-84.36520006,39.30456512061931,-84.43819196,Yes
124,97,d882d894-ce75-4d7a-a8b0-30c0cbb07f96,2024-01-09T22:24:48.000Z,2024-01-09T22:44:48.000Z,I-71,I-71  Exit 12 / US-22 Montgomery Rd,Southbound,20,0.16,1.039,5.34,39.27829631827803,-84.33936643,39.20944049001774,-84.37108094,Yes
125,189,b58743bd-4460-4753-8937-51e8d3472297,2024-01-09T09:22:54.000Z,2024-01-09T09:31:02.000Z,I-70  Exit 215 / US-40 National Rd,I-70  Exit 220 / CR-214 High Ridge Rd / CR-214 Bellaire-High Ridge Rd,Eastbound,8,0.201,0.548,4.96,40.07705838483939,-80.9304641,40.06753156364189,-80.84078469,Yes
126,116,3f55810e-3056-4065-87d8-bb99e182716e,2024-01-09T12:36:01.000Z,2024-01-09T12:54:46.000Z,"I-70  Exits 105A,105B / James Rd","I-70  Exits 101A,101B / I-71  Exits 107,108A / Parsons Ave",Westbound,19,0.045,0.475,4.09,39.93176993322002,-82.91358432,39.95430442200605,-82.97386708,Yes
127,390,5430b13d-19ed-4f54-a85d-23538ee1562a,2024-01-09T11:16:09.000Z,2024-01-09T11:18:01.000Z,I-680,I-680 / US-62 / US-62 Williamson Ave,Northbound,2,0.39,0.404,4.02,41.04795034176527,-80.62989995,41.09208803299618,-80.65301781,Yes
128,302,709c5b46-af17-4e33-9281-a406579587d0,2024-01-09T22:39:58.000Z,2024-01-09T23:03:55.000Z,I-670  Exit 6 / Leonard Ave,"I-670  Exits 1,1B / Grandview Ave / Watermark Dr",Westbound,24,0.649,0.122,2.72,39.97876999227386,-82.97292007,39.97008093956914,-83.02025413,No
129,146,ce890713-8941-42d7-9409-d9f81dad39a5,2024-01-09T10:14:03.000Z,2024-01-09T10:29:01.000Z,OH-7,OH-39 / Lisbon St / 3rd St,Northbound,15,0.882,0.332,6.64,40.52288265794828,-80.62723133,40.60414442411464,-80.65522012,Yes
130,392,7eec1f43-3bb7-41ec-b575-0deaa9c57644,2024-01-09T08:25:54.000Z,2024-01-09T08:43:46.000Z,OH-204 Refugee St,CR-7 Refugee Rd / OH-204 Blacklick Eastern Rd / Poplar Creek Rd,Westbound,18,0.185,0.299,6.64,39.89882071196786,-82.5414878,39.90410573860838,-82.66614621,Yes
131,217,8aa30c7d-63d5-48ea-bab9-48e740ea1d21,2024-01-09T10:49:06.000Z,2024-01-09T10:59:06.000Z,I-80,I-80,Westbound,10,0,0.158,9.95,41.23000387,-80.97109472,41.24348500198872,-81.15751273,Yes
132,456,6265e1d5-69c2-4bf9-b725-ac6254848f21,2024-01-09T08:59:50.000Z,2024-01-09T09:37:56.000Z,I-77,I-77  Exit 81 / US-250 / US-250-BR High Ave,Northbound,38,0.728,1.017,8.89,40.37864744455305,-81.56081106,40.48703485297936,-81.47930776,Yes
133,399,6419e73e-9164-4e23-a0ca-b2f654100311,2024-01-09T08:02:45.000Z,2024-01-09T08:14:46.000Z,"I-70  Exits 110,110A,110B / CR-117 Brice Rd / Brice Rd",I-70  Exit 118 / OH-310 Hazelton Etna Rd,Eastbound,12,0.412,0.908,7.2,39.931989417391655,-82.81834488,39.94880852,-82.68811626,No
134,379,e6db6577-1cab-4dfb-bc11-9d73d9f88e55,2024-01-09T10:16:04.000Z,2024-01-09T10:54:03.000Z,US-62,US-62 Atlantic Blvd / US-62 State St / US-62,Eastbound,38,0.812,0.28,6.53,40.84904008619262,-81.28429973,40.89698657545933,-81.17731962,Yes
135,435,c7c69a42-5693-49a5-8fec-56afde0fb593,2024-01-09T10:38:05.000Z,2024-01-09T11:06:59.000Z,US-30,US-30 / Township Road 405,Eastbound,29,0.153,0.694,9.02,40.78039,-82.37261,40.78487105135216,-82.20338052,Yes
136,330,718ba259-f6c5-4731-acac-b2024f2e1a5e,2024-01-09T12:51:33.000Z,2024-01-09T13:06:54.000Z,US-20 / County Road 9,US-20,Westbound,15,0.999,0.956,8.05,41.64337,-84.64951901,41.63168577719618,-84.80382035,Yes
137,269,18d97925-7957-45de-a9b4-44fa58b24a2f,2024-01-09T12:21:47.000Z,2024-01-09T15:02:49.000Z,I-75  Exit 14 / Glendale Milford Rd / Vision Way,I-75  Exit 7 / OH-562,Southbound,161,0.402,0.975,5.53,39.252136613921294,-84.44454679,39.180839987212046,-84.48544001,Yes
138,268,2bfa264c-84d3-4966-8398-52b21f25c408,2024-01-09T09:54:43.000Z,2024-01-09T09:59:44.000Z,US-30,US-30 / US-42 Ashland Rd / Beal Rd,Westbound,5,0.184,0.851,4.71,40.78125783857352,-82.3803001,40.77861451,-82.46532059,Yes
139,26,002b1991-15df-4c3a-ad0a-6c454cb1cbe5,2024-01-09T12:10:41.000Z,2024-01-09T12:23:48.000Z,US-20 / County Road 12,US-20 / Williams St,Westbound,13,0,0.598,9.48,41.64359683,-84.59546999,41.63479932090022,-84.77758495,Yes
140,52,554a7584-0278-4b18-b4c6-12b1c982c6cd,2024-01-09T11:15:36.000Z,2024-01-09T12:48:46.000Z,US-20 / County Road 1.50,US-20 / Metz Rd,Westbound,93,0.737,0,8.71,41.63218986307559,-84.79820521,41.6344,-84.96781253,Yes
141,207,2d9c4520-f684-4c40-9ea6-411ac428a636,2024-01-09T08:37:44.000Z,2024-01-09T09:01:00.000Z,I-270,"I-70  Exits 108,108A-B / I-270  Exits 41-43,43A-B-41 / US-40 Main St",Northbound,23,0,0.651,6.76,40.03316,-82.90347,39.963884699153496,-82.84308845,Yes
142,143,71f07f65-95fa-4908-abb5-39618822cabf,2024-01-09T09:39:55.000Z,2024-01-09T09:46:52.000Z,I-70,I-70,Westbound,7,0,0.682,5.75,40.00387,-81.53839,40.00807010255622,-81.64175345,Yes
143,77,ea63adf0-f80b-4c74-88eb-f65accc64a50,2024-01-09T09:15:40.000Z,2024-01-09T11:02:42.000Z,I-71,I-71,Southbound,107,0,1.431,10.12,40.6634423,-82.53797344,40.55125379750218,-82.65193722,Yes
144,134,7e140370-6a4f-4b46-bc22-35bc6b782b5e,2024-01-09T08:37:44.000Z,2024-01-09T08:57:53.000Z,US-33,US-33,Eastbound,20,0.43,0.377,9.58,39.83968281683258,-82.7661667,39.73510973683375,-82.67908002,Yes
145,187,d47664dd-bec1-4389-8e5e-b3f374c7a39a,2024-01-09T09:47:49.000Z,2024-01-09T10:05:31.000Z,US-224 County Road 650 / County Road 600,US-224 / Dull Robinson Rd,Eastbound,18,1.135,0.951,8.18,40.84165273,-84.82094434,40.85135009659684,-84.66971885,Yes
146,353,e8187378-5691-400a-a8d3-73e91b5aa24c,2024-01-09T13:05:37.000Z,2024-01-09T13:14:37.000Z,US-20 / Metz Rd,US-20 / County Road 1.50,Eastbound,9,1.072,0.283,8.14,41.63254666,-84.95730005,41.63194102580382,-84.80115913,Yes
147,87,5ec498bc-7900-447e-ba40-c817b39eadeb,2024-01-09T09:22:54.000Z,2024-01-09T09:43:54.000Z,I-70  Exit 219 / I-470  Exit 1 / Banfield Rd,I-470  Exit 2 / CR-91/1 Dans Cutoff Bethlehem / CR-91/1,Eastbound,21,0,0.554,7.52,40.06892,-80.84846,40.05148889856124,-80.71639806,Yes
148,99,3471ea26-64d7-4195-9117-d977dc95d06d,2024-01-09T10:21:52.000Z,2024-01-09T10:23:53.000Z,OH-21,OH-21,Northbound,2,1.021,0.137,2.97,41.01223,-81.66319,41.05456224,-81.66208854,No
149,92,a97407f8-2386-4e5e-98ec-74367ab903f2,2024-01-09T10:40:01.000Z,2024-01-09T10:42:59.000Z,"I-680  Exits 11,11A,11B / US-224 / US-224 Boardman Poland Rd",I-680 / Alexander St / Powersdale Ave,Northbound,3,0.149,0,4,41.02246025417021,-80.62688354,41.07797383828206,-80.63021658,Yes
150,85,e5613761-1399-4eae-90e9-55a3461ad682,2024-01-09T10:49:51.000Z,2024-01-09T11:37:49.000Z,I-75  Exit 57 / Keats Dr / Neff Rd,"I-75  Exits 52,52B / US-35 / Broadway St",Southbound,48,0.526,0.068,3.02,39.79851037,-84.18985427,39.76159936900577,-84.20092026,Yes
151,263,2805a0e8-7891-4d5a-99bc-9e3586e59216,2024-01-09T10:55:00.000Z,2024-01-09T10:57:00.000Z,OH-7 / Metz Rd,OH-7 / Riffle Rd,Southbound,2,1.114,0,5.04,40.86867499,-80.65091,40.800151601084536,-80.6314709,Yes
152,92,f14cd127-4fd5-4838-8bc0-43e00da7a626,2024-01-09T10:57:00.000Z,2024-01-09T10:58:00.000Z,"I-680  Exits 11,11A,11B / US-224 / US-224 Boardman Poland Rd",I-680 / Alexander St / Powersdale Ave,Northbound,1,0.149,0,4,41.02246025417021,-80.62688354,41.07797383828206,-80.63021658,Yes
153,25,7af6ec82-1b61-49c6-bd12-967b2ade534c,2024-01-09T11:28:03.000Z,2024-01-09T11:31:59.000Z,I-71,I-71,Northbound,4,0.186,0.66,5.5,41.22122774698623,-81.79350094,41.29978784954283,-81.8082,Yes
154,1,a4a035a9-cbb5-4803-a3ad-f25eb9499020,2024-01-09T09:48:03.000Z,2024-01-09T10:16:56.000Z,US-30 / OH-603,US-30 / County Road 30A,Eastbound,29,0.059,0.742,8.04,40.78044996327909,-82.37439952,40.78471220634088,-82.22270723,Yes
155,257,1d6ff49b-d8fb-46b5-9d15-2cd7641b95f4,2024-01-09T12:00:06.000Z,2024-01-09T12:22:02.000Z,OH-83 Burbank Rd,OH-83 Burbank Rd / CR-86 Smithville Western Rd,Southbound,22,1.088,0.376,7.94,40.96682335,-81.99585,40.858287293488615,-81.95148113,Yes
156,102,becf1a9f-5c46-4bcd-aca6-07e486ad1aaf,2024-01-09T11:05:41.000Z,2024-01-09T11:13:49.000Z,US-30,US-30,Eastbound,8,0.284,0.277,4.31,41.04099994047756,-84.93216983,41.01237969411106,-84.8589713,Yes
157,205,144b2577-1b0d-426d-a0f1-965c79d85cbd,2024-01-09T08:15:52.000Z,2024-01-09T08:21:00.000Z,I-71  Exit 116 / Morse Rd / Sinclair Rd,I-71  Exit 111 / 17th Ave,Southbound,5,0.079,0.358,3.36,40.06098974554512,-82.99821005,40.01327042793849,-82.99321245,Yes
158,171,03ae8c63-a7a8-481c-aa70-6ea5007e6463,2024-01-09T12:01:53.000Z,2024-01-09T12:42:28.000Z,OH-49 Michigan Ave / Clarksville Rd,OH-49 / Huber Rd,Southbound,41,0,0,6.5,41.44297,-84.74886,41.35086279,-84.7479034,Yes
159,215,b6e7b16d-7592-406e-9df6-23f4d4971574,2024-01-09T10:43:56.000Z,2024-01-09T10:48:01.000Z,US-30  Exit 185A / OH-21,US-30 / OH-172,Westbound,4,0.172,0,7.89,40.76085792882324,-81.51885791,40.79827059030183,-81.65430479,Yes
160,161,d724e050-c2ad-4a25-8116-57516e95789a,2024-01-09T10:41:07.000Z,2024-01-09T10:55:00.000Z,OH-519 Stumptown Rd / CR-28 Webb Rd,OH-519 Stumptown Rd / Muntz Rd,Westbound,14,1.033,0.87,4.7,40.18431892,-81.00788189,40.20962127256393,-81.08186216,Yes
161,219,1c82acad-50ec-4c51-995b-f8f4ad50ec24,2024-01-09T13:12:50.000Z,2024-01-09T13:19:59.000Z,"I-270  Exits 35,35A,35B / I-670  Exits 10A-B,10C,10D / US-62",I-670  Exit 7 / 5th Ave / US-62 5th Ave,Southbound,7,0.278,0.721,2.71,40.016256519168685,-82.90301453,39.98880856415943,-82.93825404,No
162,157,765cdd17-cb91-42ae-b70c-6789f1e83dc3,2024-01-09T11:56:44.000Z,2024-01-09T12:28:52.000Z,OH-16,OH-16  Exit 47 / OH-586 Blackrun Rd,Eastbound,32,1.059,0.152,6.58,40.06886622953076,-82.29939448,40.09450274433167,-82.18869363,Yes
163,151,bf159fbc-9f71-4412-a9a3-4cc2d5a736f1,2024-01-09T10:22:44.000Z,2024-01-09T10:24:35.000Z,I-71,I-71 / Kocheiser Rd,Northbound,2,0.159,0.128,9,40.549930902277325,-82.65272627,40.64793228581338,-82.54601269,No
164,141,a082609e-9c48-4ec5-9e57-4e4200533232,2024-01-09T10:26:43.000Z,2024-01-09T10:32:37.000Z,US-24,US-24 / Webster Rd,Westbound,6,1.028,0.956,7.26,41.16715351403925,-84.76024302,41.12382906970683,-84.88306174,Yes
165,411,0a2738f6-45a9-433a-836e-f5487b49ff57,2024-01-09T21:18:05.000Z,2024-01-09T21:54:48.000Z,"I-71  Exits 109A,109B,110A / I-670  Exits 4A,4A-B,4B,4C,5,5A-5B / Goodale St",I-71  Exit 113 / Beulah Rd / Weber Rd,Northbound,37,0.17,0.432,3.1,39.97589103173628,-82.98327016,40.01757,-82.99485,Yes
166,21,6df74ae9-2768-4288-a88d-98a51c3b7a17,2024-01-09T10:45:39.000Z,2024-01-09T11:04:35.000Z,US-23 / US-224,US-224 / CR-212,Westbound,19,0.872,0,7.72,41.07715910368813,-83.43698594,41.056989558285125,-83.58284427,Yes
167,414,81a023c7-2229-4863-8988-c47777e0dd6a,2024-01-09T10:16:56.000Z,2024-01-09T10:23:53.000Z,OH-183 Minerva Rd / Greer Ave,OH-43 / Waynesburg Dr / Sandy Ave,Northbound,7,0.796,0,6.88,40.67650994429771,-81.25127077,40.74674119219947,-81.32149095,Yes
168,80,2291c2cf-ad3d-45ce-ab62-124dd91ae3a9,2024-01-09T22:18:49.000Z,2024-01-09T22:29:46.000Z,OH-315,OH-315  Exit 7 / Henderson Rd,Northbound,11,0.089,0.231,4.28,39.98211012543211,-83.02210999,40.03805017703336,-83.02990011,Yes
169,15,2c7b4875-c56a-4479-968e-89423c933b7b,2024-01-09T11:52:49.000Z,2024-01-09T12:11:58.000Z,OH-229 Old Delaware Rd / Liberty Chapel Rd,OH-229 / CR-19 / OH-656,Westbound,19,0.94,0.962,6.54,40.40270135303812,-82.56286653,40.39762014770589,-82.68617177,Yes
170,231,95ab963d-0374-467d-97c6-d7c027d0ba2b,2024-01-09T06:42:52.000Z,2024-01-09T06:51:58.000Z,I-71,I-71,Northbound,9,0.567,0.963,8.05,39.69245194,-83.46501915,39.74598723991321,-83.32884903,Yes
171,232,d3df0ff3-dd68-40b5-8573-ac88f80abfde,2024-01-09T10:38:05.000Z,2024-01-09T11:09:02.000Z,I-77  Exit 83 / OH-39,OH-39 Dover St / Beachy Rd,Westbound,31,0.133,0,7.02,40.52779,-81.49455,40.50916,-81.61488,Yes
172,127,75e89c8c-9e3f-4dad-baa1-427feda69232,2024-01-09T09:46:01.000Z,2024-01-09T09:50:59.000Z,I-77,I-77,Northbound,5,0.63,1.142,5.75,40.523186134898936,-81.49085293,40.59652358,-81.50809844,Yes
173,127,c4ab4e88-383c-46fb-a994-c7a1cd9af6a3,2024-01-09T09:21:52.000Z,2024-01-09T09:26:03.000Z,I-77,I-77,Northbound,4,0.53,0.304,7.84,40.10652061895238,-81.56250991,40.21441967297366,-81.5534083,No
174,22,7a21f4e0-e328-413f-9e49-436ee72c26e6,2024-01-09T12:09:38.000Z,2024-01-09T12:29:41.000Z,OH-49 / County Road I,OH-49,Southbound,20,0,0,6.27,41.54192,-84.76901,41.46266539149909,-84.74823,Yes
175,245,504ba163-146a-494c-bca4-8ef1b7028506,2024-01-09T11:37:44.000Z,2024-01-09T11:59:44.000Z,US-6 / OH-66 / County Road 24,OH-66,Southbound,22,0.248,0,8.11,41.43886852282988,-84.36104961,41.32276067503179,-84.36086934,Yes
176,116,6dec8f3b-1c8c-4f13-a789-7206642fd8eb,2024-01-09T13:00:37.000Z,2024-01-09T14:04:42.000Z,"I-70  Exits 105A,105B / James Rd","I-70  Exits 101A,101B / I-71  Exits 107,108A / Parsons Ave",Westbound,64,0,0,3.98,39.9318,-82.91593,39.95443,-82.97468,Yes
177,111,49dabd0f-40e0-4dbe-abb2-69dc7d9b900f,2024-01-09T08:16:51.000Z,2024-01-09T08:50:57.000Z,I-70  Exit 132 / OH-13 Jacksontown Rd,I-70  Exit 141 / OH-668 Brownsville Rd,Eastbound,34,0.305,0.971,7.73,39.943749476797954,-82.40807127,39.93622575849341,-82.2627381,Yes
178,80,84ab2f42-6da6-44e3-8946-01607177ae43,2024-01-09T21:23:51.000Z,2024-01-09T22:25:39.000Z,OH-315,OH-315  Exit 7 / Henderson Rd,Northbound,62,0.639,0.402,3.9,39.989285721967015,-83.02497174,40.03963092277993,-83.03089684,Yes
179,97,a8ee3dc4-51d0-4ae5-8202-88185bacf635,2024-01-09T13:49:46.000Z,2024-01-09T14:09:01.000Z,"I-71  Exits 17,17A,17B / I-275  Exits 49,49A,49B",I-71  Exit 12 / US-22 Montgomery Rd,Southbound,19,0.143,0.885,4.69,39.27418375998126,-84.34707364,39.21153575157492,-84.37061945,Yes
180,59,5b5539c3-6278-4b99-bf66-8c8670280e8a,2024-01-09T08:08:53.000Z,2024-01-09T08:09:39.000Z,"OH-104  Exits 95A,95B / US-33  Exits 129,129A,129B",US-33 Columbus-Lancaster Rd,Eastbound,1,0.398,0.524,3.56,39.91474,-82.9206,39.88279499218604,-82.87309105,Yes
181,59,21a9e615-ad99-4a99-986f-57372e15ff9f,2024-01-09T21:52:58.000Z,2024-01-09T22:57:58.000Z,US-33,US-33 Columbus-Lancaster Rd,Eastbound,65,1.185,0.146,3.01,39.90419935067264,-82.90511751,39.87615000014574,-82.86293783,Yes
182,352,94f323ff-e2f6-4e64-acf7-16fc99c928f5,2024-01-09T08:54:52.000Z,2024-01-09T09:26:53.000Z,I-70  Exit 204 / US-40 Mcmillan Rd / US-40 National Rd,I-70,Westbound,32,0.164,0.456,7.56,40.05944333,-81.14199974,40.05597010600875,-81.28262346,Yes
183,460,5538cb91-3b63-4880-84ce-656b68bbcfdd,2024-01-09T09:38:45.000Z,2024-01-09T10:06:49.000Z,OH-37 / OH-161 / OH-37 Johnstown-Alexandria Rd,OH-161 / Beech Rd,Westbound,28,0,0.612,7.38,40.07353,-82.6001,40.08112052179634,-82.73775183,No
184,44,69462403-97b5-4719-b3d1-9600607cb8a9,2024-01-09T11:12:59.000Z,2024-01-09T11:26:05.000Z,OH-44,OH-14 Cleve E Liverpool Rd / Loomis Pkwy,Southbound,13,0,0.063,6.49,41.27022412,-81.23066436,41.17928982744914,-81.24516824,Yes
185,27,d14dbb7f-0474-4da7-a5d1-4d2d8eacbf4f,2024-01-09T09:56:55.000Z,2024-01-09T10:04:57.000Z,I-71  Exit 196 / OH-301 Elyria Rd,I-71  Exit 186 / US-250,Southbound,8,0.226,0.62,9.07,40.93211248177009,-82.11628703,40.859238397686745,-82.25509647,Yes
186,38,e5967eda-5d0c-4e85-a853-cb87dfad01db,2024-01-09T10:16:56.000Z,2024-01-09T10:41:07.000Z,I-71  Exit 220 / I-271  Exit 1,I-271  Exit 9 / Brecksville Rd / Kinross Lakes Pkwy,Northbound,24,0,1.336,8.9,41.16195,-81.78158,41.22050883022409,-81.64427748,Yes
187,316,089525ba-c850-408d-9bff-532ecc7a2175,2024-01-09T22:28:08.000Z,2024-01-09T22:50:09.000Z,I-90 / 26th St,I-90  Exit 171 / 14th St / Fairfield Ave,Westbound,22,0.101,0.292,2.29,41.51344960292996,-81.67339984,41.48879748453879,-81.68975098,Yes
188,303,b0f0ab1d-fb24-44d8-8f62-17c14aef1f4e,2024-01-09T11:29:40.000Z,2024-01-09T11:41:44.000Z,OH-13 Mt Vernon Rd / OH-657 Marion Rd,OH-13 Main St / Blacksnake Rd,Northbound,12,0.626,0,8.07,40.11851000511872,-82.42827,40.22585557366805,-82.45021218,Yes
189,359,0f773a8c-4bf8-4b1d-b1d6-99f183948453,2024-01-09T10:06:55.000Z,2024-01-09T10:09:00.000Z,US-30,US-30,Westbound,2,0.455,0.494,5.6,40.762553122437936,-81.49278089,40.77428573464182,-81.59343955,Yes
190,54,a0f78353-e418-4705-966d-902f1e2adb2e,2024-01-09T10:01:45.000Z,2024-01-09T10:12:50.000Z,US-33,US-33 / County Road 144 / OH-347,Eastbound,11,0.329,1.46,7.03,40.35331949159635,-83.7073027,40.323409216398446,-83.58952664,Yes
191,284,5f2bad7a-c0e7-4888-9ff2-d2cc79bc301a,2024-01-09T12:14:06.000Z,2024-01-09T12:48:05.000Z,CR-4 Smith Rd / Kapok Dr,CR-4 Smith Rd / OH-301 / OH-301 Spencer Rd,Westbound,34,0,0.457,8.08,41.13593503,-81.94050499,41.13653941979223,-82.09388349,Yes
192,287,33336607-62d9-42af-84b2-b05f75850181,2024-01-09T11:12:01.000Z,2024-01-09T11:14:55.000Z,US-30 / County Road 1095,US-30 / Bell Rd,Eastbound,3,1.011,1.074,8.44,40.78468192,-82.31519456,40.78377000000097,-82.15427961,No
193,79,58d42a9e-9b17-4371-b714-c84c50d57348,2024-01-09T11:53:46.000Z,2024-01-09T11:54:39.000Z,US-6 Bowling Green Rd / CR-15 Pemberville Rd,US-6 / Cloverdale Rd,Westbound,1,0.153,0.068,5.8,41.35074072343701,-83.46085823,41.36119988548584,-83.56734031,Yes
194,311,547b7ad2-7054-4cbf-b1c6-ca3f8a40d6c7,2024-01-09T11:09:02.000Z,2024-01-09T11:14:55.000Z,I-77  Exit 145 / OH-21 Brecksville Rd / OH-21,I-77  Exit 151 / Wallings Rd / Mill Rd,Northbound,6,0.029,0.95,5.51,41.25705806367552,-81.63175908,41.33385347090749,-81.64903025,Yes
195,319,bf5f75d6-bf7b-4bf2-bce6-c8cbca3629dd,2024-01-09T22:38:45.000Z,2024-01-09T23:06:44.000Z,I-70  Exit 102 / Cole St,I-71 / I-70,Westbound,28,0.389,0,2.65,39.95361428017716,-82.96117981,39.95263929978946,-83.0110621,Yes
196,418,44af8feb-0405-4d8b-a9b7-5580a75eadc0,2024-01-09T10:55:47.000Z,2024-01-09T11:24:51.000Z,OH-586 Pleasant Valley Rd / Mckee Hill Rd,OH-586 Martinsburg Rd,Northbound,29,0.637,0.836,7.51,40.19744425729581,-82.23195243,40.25760015949904,-82.34053028,Yes
197,70,5c3d5c53-740a-402e-9ddc-e29daa8d0600,2024-01-09T10:01:54.000Z,2024-01-09T10:20:00.000Z,US-62 Atlantic Blvd / US-62 State St / US-62,US-62,Westbound,18,0.109,0.118,6.44,40.899059037444175,-81.17425152,40.85117583261764,-81.27854284,Yes
198,11,1aeeb08a-aeb4-4a52-b11c-8f10752d01d4,2024-01-09T12:18:53.000Z,2024-01-09T13:40:59.000Z,US-33,US-33 Columbus-Lancaster Rd,Westbound,82,1.021,0.267,4.64,39.84336860363328,-82.78015398,39.87310004561031,-82.85802006,Yes
199,153,4a9000a5-9ad6-4dcb-bcaf-aefab6255f87,2024-01-09T08:37:55.000Z,2024-01-09T08:45:59.000Z,I-70,I-70,Eastbound,8,0.3,0.579,7,39.97633965515039,-81.78568104,40.00037003489128,-81.66456998,Yes
200,371,00b3881e-4334-4501-afb6-bd10a780d572,2024-01-09T10:00:47.000Z,2024-01-09T10:08:47.000Z,OH-29 / OH-38,OH-29 Main St / Darby Ave,Westbound,8,0.613,0,6.99,40.00621266,-83.44399896,40.0664,-83.54974,Yes
201,419,f139e7ac-002a-412f-8a5b-5bf3fb83898f,2024-01-09T11:13:59.000Z,2024-01-09T11:36:04.000Z,OH-39 / CR-88 Tall Timber Rd,OH-39 Roswell Rd / Cutler Rd,Eastbound,22,0.834,1.033,6.43,40.48654688993683,-81.37147385,40.48501049499641,-81.26409328,Yes
202,370,9fb9931a-bede-41b5-b4f0-47f0c9e2f1fc,2024-01-09T10:31:38.000Z,2024-01-09T10:41:41.000Z,US-24,US-24 / US-6,Westbound,10,0.975,0.803,6.7,41.42992966008015,-83.90415093,41.421530845475125,-84.02852091,Yes
203,402,ba3f6942-643a-49b2-8cf6-df7face60769,2024-01-09T11:29:00.000Z,2024-01-09T11:54:05.000Z,CR-72 Elyria Rd / OH-302 Lattasburg Rd / OH-301 Elyria Rd,OH-302 Lattasburg Rd / CR-186 Overton Rd,Eastbound,25,1.021,0.871,7.36,40.87876,-82.10851,40.81902819866324,-81.99667499,Yes
204,125,2be77c2f-10c3-408e-9354-fd919b8821d8,2024-01-09T10:53:50.000Z,2024-01-09T11:12:02.000Z,US-6,US-6 / OH-191 / County Road 22/A,Eastbound,18,0.153,0,7.42,41.44162617910148,-84.5584656,41.44188002,-84.41527122,Yes
205,112,0d6c6cec-f728-4c4e-bd13-599e4f24d77d,2024-01-09T11:08:03.000Z,2024-01-09T11:11:04.000Z,US-30 / County Road 1095,US-30 / OH-89,Eastbound,3,1.011,0.439,6.78,40.78468192,-82.31519456,40.78500000014347,-82.18578999,No
206,420,95a23249-e2da-4739-ad92-822d6b8971b0,2024-01-09T12:41:04.000Z,2024-01-09T12:47:55.000Z,I-71,I-71  Exit 15 / Pfeiffer Rd,Southbound,7,0.892,0.919,4.6,39.301739871761214,-84.30510017,39.255091022937286,-84.36366107,No
207,418,52c5cd42-65f7-4975-aa0d-beedce7759b3,2024-01-09T12:24:52.000Z,2024-01-09T12:48:38.000Z,OH-586 Pleasant Valley Rd / Mckee Hill Rd,OH-586 Martinsburg Rd,Northbound,24,0.792,0.836,7.35,40.19933252128705,-82.23307765,40.25760015949904,-82.34053028,Yes
208,126,0639e3f2-0636-47c0-855a-b05a654eaa3e,2024-01-10T00:03:37.000Z,2024-01-10T01:08:40.000Z,I-75  Exit 6 / Mitchell Ave,"I-75  Exits 10,10A,10B / OH-126 Ronald Reagan Cross County Hwy Exits 27,27A,27B / Galbraith Rd",Northbound,65,0.605,0.33,2.49,39.17158380692517,-84.49569683,39.20024013300662,-84.4690099,Yes
209,126,7d374e9a-25c1-4169-9194-69b517bc5f6d,2024-01-09T12:44:48.000Z,2024-01-09T13:53:00.000Z,I-75  Exit 6 / Mitchell Ave,"I-75  Exits 10,10A,10B / OH-126 Ronald Reagan Cross County Hwy Exits 27,27A,27B / Galbraith Rd",Northbound,68,0.258,0.251,3.46,39.16263524129027,-84.50935791,39.19929038176237,-84.46982965,Yes
210,357,dfca0f65-9f05-4a23-8f52-36e930a19d34,2024-01-09T21:24:44.000Z,2024-01-09T23:00:41.000Z,I-70  Exit 97 / US-40 Broad St,"I-70  Exits 93,93B / I-270  Exit 8",Westbound,96,0.308,0.455,3.73,39.95752003848512,-83.04535004,39.97611280981776,-83.10867697,Yes
211,452,4cc405bf-bdf4-414d-8b06-a4fe990126da,2024-01-09T22:28:46.000Z,2024-01-09T22:30:45.000Z,US-33 Long St / Ludlow St,US-33 Livingston Ave / US-33 3rd St / US-23 Livingston Ave,Eastbound,2,0.479,0.043,1.13,39.96466000239815,-83.00380997,39.953212315219616,-82.9962478,Yes
212,56,470062d3-98a1-4d1d-b0e2-5c79b08834a9,2024-01-09T22:44:48.000Z,2024-01-09T22:51:43.000Z,I-75  Exit 15 / Sharon Ave,I-75,Northbound,7,0.578,0.279,5.49,39.27366020774754,-84.44031001,39.34036271829795,-84.39906906,Yes
213,136,21bd2c5e-e575-4074-a5cf-684c92d8287a,2024-01-09T09:43:54.000Z,2024-01-09T09:49:56.000Z,I-70  Exit 218 / CR-28A Mall Rd / Red Roof Ln,I-70  Exit 225 / Marion St,Eastbound,6,0.165,0,4.68,40.07100334725771,-80.85997013,40.06414102,-80.77216847,Yes
214,53,50d90dfc-6746-43fb-b130-7f62cec9d466,2024-01-09T12:49:47.000Z,2024-01-09T13:51:42.000Z,I-71  Exit 9 / Red Bank Expy,I-71  Exit 15 / Pfeiffer Rd,Northbound,62,0.019,0.973,5.39,39.171078889233485,-84.40267378,39.238377635085385,-84.36656818,Yes
215,312,89d116e6-3213-4e08-ab90-d449b6f05e0c,2024-01-09T10:10:58.000Z,2024-01-09T10:40:57.000Z,OH-13 By Pass Rd / CR-6 Waterford Rd,OH-13 Cassell Rd,Southbound,30,0.888,1.064,6.04,40.49320086447109,-82.55772365,40.41892977063496,-82.50340983,Yes
216,58,3c47cb86-65e9-448e-b89e-75fcf3f6646e,2024-01-09T13:47:08.000Z,2024-01-09T14:39:41.000Z,"I-275  Exits 42,42A,42B / OH-747 Princeton Pike",I-275  Exit 46 / US-42 Lebanon Rd,Northbound,53,0.14,0.805,3.14,39.29457,-84.46388,39.28616353,-84.40739932,Yes
217,80,56cfa717-e05c-4a64-bbde-bc8869968d8b,2024-01-09T22:49:51.000Z,2024-01-09T22:57:58.000Z,OH-315  Exit 3 / Cannon Dr / Medical Center Dr,OH-315  Exit 7 / Henderson Rd,Northbound,8,0.085,0.915,4.24,39.99205055219614,-83.02482987,40.04707030433838,-83.03336028,Yes
218,49,864abbf6-ba85-47dd-b994-9ec14d0116c7,2024-01-09T09:38:54.000Z,2024-01-09T09:50:59.000Z,I-70  Exit 225 / Marion St,I-70  Exit 216 / OH-9 Marietta St / OH-9 Warnock St Clairsville Rd,Westbound,12,0.221,0.338,6.6,40.07079153625324,-80.75179247,40.07174,-80.87405,No
219,300,42dba306-5d69-4d32-bf5e-894e20417d62,2024-01-09T11:14:38.000Z,2024-01-09T11:32:40.000Z,OH-613 / Township Road 232,OH-18 / CR-257,Eastbound,18,0.431,0.155,6.29,41.15140197857486,-83.60892626,41.161920000000016,-83.49116983,Yes
220,224,de240272-e1bd-42a4-b2ee-a06a42ebb0c7,2024-01-09T11:26:00.000Z,2024-01-09T11:35:41.000Z,OH-161  Exit 51 / CR-41 Mink St,OH-37,Eastbound,10,0.265,0.575,6.49,40.080554653268905,-82.72147601,40.07324572244014,-82.60086044,Yes
221,127,27976fdb-d0e0-4a95-9927-56ffadfc7c70,2024-01-09T10:23:53.000Z,2024-01-09T10:41:07.000Z,I-77,I-77,Northbound,17,0.674,0.622,6.95,40.07866999495493,-81.56432,40.17406465222356,-81.55108242,Yes
222,235,1c27ad67-2488-4462-8e1a-40b1606156e4,2024-01-09T10:29:01.000Z,2024-01-09T10:29:58.000Z,I-76,I-71  Exit 209A-B / I-76  Exit 1A / US-224,Westbound,1,0.956,0.624,5.61,41.03171006074162,-81.78397452,41.03071144631414,-81.89058291,Yes
223,297,5a24eeb1-01a8-43e3-83f5-d692c1bab2b2,2024-01-09T10:59:06.000Z,2024-01-09T11:04:56.000Z,CR-32 Western Reserve Rd / OH-534 Pricetown Rd,I-76  Exit 54 / OH-534 Pricetown Rd / OH-534,Northbound,6,0,0.125,7.45,40.99341194,-80.94735551,41.10115763251161,-80.94869499,Yes
224,148,63e64a16-010b-4083-aa06-4ad5c1fcdeab,2024-01-09T21:26:45.000Z,2024-01-09T21:34:47.000Z,I-71  Exit 112 / Hudson St / Homecroft Dr,I-71  Exit 116 / Morse Rd / Sinclair Rd,Northbound,8,0.248,0.328,2.76,40.01488228701373,-82.99410102,40.05457015820149,-82.99785894,Yes
225,127,fb32403f-2cdd-4ae9-83fc-0d9ccc54e432,2024-01-09T09:46:01.000Z,2024-01-09T10:06:03.000Z,I-77  Exit 73 / OH-751 Bridge St,I-77,Northbound,20,0.401,0.642,7.25,40.39501196100959,-81.5549866,40.48160790953504,-81.48174872,Yes
226,104,449c771c-3152-4efe-9c9d-a8c241094921,2024-01-09T08:07:48.000Z,2024-01-09T08:14:46.000Z,I-70 / Mooberry St,"I-70  Exits 107,107A,107B / OH-317 Hamilton Rd",Eastbound,7,0.041,0,4.65,39.95322996551896,-82.95421932,39.93609192446376,-82.88444993,Yes
227,224,56c02f3c-b73d-42b5-a47c-4f4098c1cee4,2024-01-09T11:44:32.000Z,2024-01-09T12:26:03.000Z,OH-161  Exit 51 / CR-41 Mink St,OH-37,Eastbound,42,0.265,0.575,6.49,40.080554653268905,-82.72147601,40.07324572244014,-82.60086044,Yes
228,395,7098b45f-7ba8-4a6f-aef8-e62062d8feb1,2024-01-09T12:50:58.000Z,2024-01-09T12:56:59.000Z,I-71  Exit 117 / OH-161 Dublin Granville Rd,I-71  Exit 112 / Silver Dr,Southbound,6,0.455,0,3.5,40.07679693572372,-82.98812075,40.02863,-82.99434,Yes
229,320,3967ceec-3a38-4fa3-9ca1-c4fbdd0ba813,2024-01-09T12:22:02.000Z,2024-01-09T12:31:12.000Z,CR-22 Marks Rd / Daintree Ln,CR-22 Marks Rd,Northbound,9,0.696,0.26,5.14,41.16418011638071,-81.87826,41.23800429029448,-81.87825,Yes
230,186,58840c9d-a97e-4186-b3b1-2bbf4ab55be3,2024-01-09T08:26:53.000Z,2024-01-09T08:39:46.000Z,"I-71  Exits 109A,109B,110A / I-670  Exits 4A,4A-B,4B,4C,5,5A-5B / Goodale St","I-270  Exits 35,35A,35B / I-670  Exits 10A-B,10C,10D / US-62",Eastbound,13,0.054,0.701,4.53,39.97867030365674,-82.97186787,40.01112582933966,-82.90575135,Yes
231,281,e8f44bff-9c37-4845-8f3f-347edfb64630,2024-01-09T12:44:48.000Z,2024-01-09T13:06:44.000Z,"I-270  Exits 22,23 / OH-315  Exits 12A,12B / US-23 High St","OH-315  Exits 6,6A-B / North Broadway / Olentangy River Rd",Southbound,22,0.213,0.806,4.91,40.11201993752425,-83.03533001,40.04232806031445,-83.03275889,Yes
232,256,49b12eab-5378-4a91-91fb-1e994a4729ac,2024-01-09T10:49:06.000Z,2024-01-09T11:03:58.000Z,US-62 Youngstown Salem Rd / US-62 Lisbon St / OH-446,US-62 Youngstown Salem Rd / OH-165 South Range Rd,Southbound,15,0,0.344,6.57,41.0173,-80.77299,40.945378313273984,-80.83661827,Yes
233,77,eceb15c0-e452-4580-9f0d-e815067d0fbc,2024-01-09T09:53:54.000Z,2024-01-09T10:12:56.000Z,I-71  Exit 186 / US-250,I-71,Southbound,19,0.302,1.545,8.73,40.85021093462288,-82.26606309,40.78715922157565,-82.40888715,Yes
234,267,8c2983ed-1380-43a1-9c19-c6ca935e5d1c,2024-01-09T12:23:48.000Z,2024-01-09T12:27:32.000Z,OH-109 / County Road J,M-52 Adrian Hwy / Yankee Rd,Northbound,4,0.748,0.455,7.13,41.61363000377842,-84.03745,41.71578062382586,-84.03736167,Yes
235,192,6b5c6c9c-6df3-4353-95d5-e0521e48f9b9,2024-01-09T06:42:52.000Z,2024-01-09T06:53:44.000Z,OH-128 Hamilton Cleves Rd,OH-128 Hamilton Cleves Rd,Southbound,11,1.154,0,6.32,39.29995941,-84.66502125,39.22700370084913,-84.70875704,Yes
236,269,21e34a3e-ae03-41dc-929a-5382cff1c27d,2024-01-09T22:04:46.000Z,2024-01-09T23:34:58.000Z,I-75  Exit 13 / Shepherd Ln / Shepherd Ave,I-75  Exit 7 / OH-562,Southbound,90,0.073,0.899,4.55,39.23988001912548,-84.45137264,39.18184998869554,-84.48489001,Yes
237,431,4e317f65-6222-4da2-bfa1-d4a333c06eb3,2024-01-09T11:21:05.000Z,2024-01-09T11:44:01.000Z,OH-147 Monroe St / OH-146 / Monroe St,OH-147 Seneca Lake Rd / CR-25 Mud Run Rd,Eastbound,23,0.11,0.714,7.62,39.80847626816761,-81.46608281,39.87947297511966,-81.38315721,Yes
238,25,f40f9f38-8e35-4cd0-9999-10da793c5284,2024-01-09T10:03:55.000Z,2024-01-09T10:14:56.000Z,I-71,I-71,Northbound,11,0.785,1.104,5.76,40.87278517433501,-82.22120197,40.91856688465511,-82.13098388,Yes
239,36,b1829536-80c8-49ca-8df1-833d75b91c39,2024-01-09T12:50:58.000Z,2024-01-09T15:07:56.000Z,I-70,"I-70  Exits 112,112A,112B / OH-256 Reynoldsburg Baltimore Rd",Westbound,137,0.214,1.121,6.31,39.94825359839037,-82.66996916,39.93537529567965,-82.78300007,Yes
240,269,803a7e9a-1941-47d2-8d71-d93a660b3c26,2024-01-09T20:18:48.000Z,2024-01-09T21:52:58.000Z,I-75  Exit 13 / Shepherd Ln / Shepherd Ave,I-75  Exit 7 / OH-562,Southbound,94,0.377,1.075,4.42,39.23531995703046,-84.45067999,39.17949999343702,-84.48615,No
241,434,a4036091-b12d-42ef-866c-4a5fef469ab4,2024-01-09T11:41:59.000Z,2024-01-09T11:53:06.000Z,US-250 Dover Rd / CR-501 Fredericksburg Rd,CR-501 Mill St / Jackson St,Southbound,11,0,1.022,6.25,40.76363,-81.8959,40.677696646364566,-81.87115046,Yes
242,77,920c1811-b0f3-4611-a663-b84589e48140,2024-01-09T10:10:00.000Z,2024-01-09T10:21:52.000Z,I-71  Exit 218 / OH-18 Medina Rd,I-71,Southbound,12,0.827,0.348,7.15,41.122935689674456,-81.80365983,41.03588824713287,-81.88117704,Yes
243,77,25c7dcfe-cf67-4b82-85aa-68d6251e45df,2024-01-09T10:33:54.000Z,2024-01-09T11:06:59.000Z,I-71,I-71,Southbound,33,0.942,1.593,8.13,40.84430567003261,-82.27639115,40.786157944609336,-82.40971175,Yes
244,270,aa248554-85d7-4ce4-b4c2-c0f493b6e12c,2024-01-09T08:27:48.000Z,2024-01-09T08:33:46.000Z,I-270,I-270  Exit 39 / OH-16 Broad St / Morrison Rd,Northbound,6,0.695,0.856,3.87,40.02421472182893,-82.90414118,39.99352936609956,-82.8565606,Yes
245,384,64585230-9ad5-4a39-9651-37cde780f096,2024-01-09T12:09:49.000Z,2024-01-09T12:26:51.000Z,OH-656 / Township Road 16,OH-656,Westbound,17,0,0.771,7.43,40.3902,-82.70844,40.324987324784665,-82.82028699,Yes
246,17,e016bbb8-8441-42f6-a664-4c1b7ec0eaa8,2024-01-09T21:45:54.000Z,2024-01-09T22:43:48.000Z,OH-315  Exit 8 / Bethel Rd,OH-315 / Hard Rd,Northbound,58,0.373,0,3.32,40.06437011546803,-83.03208004,40.11160603814047,-83.03520895,No
247,25,d4fb44e0-eaf5-405d-924c-71e512e7f9c8,2024-01-09T10:14:56.000Z,2024-01-09T10:21:02.000Z,I-71,I-71,Northbound,6,1.118,0.476,4.88,40.93122949,-82.11714706,40.97622483019403,-82.04516797,Yes
248,343,00db1506-0391-459f-86db-39409646f2b9,2024-01-09T09:44:50.000Z,2024-01-09T09:49:47.000Z,OH-31 Main St / OH-31,OH-31 / CR-278 Richwood-Miller Rd,Southbound,5,0,0.471,6.88,40.52469457,-83.5137187,40.44163206155789,-83.44531161,Yes
249,202,5d4718bf-f9d1-49cc-930a-ea2080cddd9f,2024-01-09T10:18:01.000Z,2024-01-09T10:26:55.000Z,OH-9 Provident Fairpoint Rd / Deerfield Dr,OH-9 Fairpoint-New Athens Rd,Northbound,9,0.36,0,5.45,40.10758001885319,-80.93213004,40.16634114870152,-80.98286157,Yes
250,79,ff81519b-2565-4b65-838d-7caa193da5d5,2024-01-09T11:32:39.000Z,2024-01-09T11:33:52.000Z,Bowling Green Rd / US-6 Bowling Green Rd / CR-112 Wayne Rd,US-6 / Cloverdale Rd,Westbound,1,0.95,0.125,4.1,41.35522874642555,-83.49213436,41.36095269374898,-83.56791588,Yes
251,436,fd7048fd-90ba-4c46-873a-b96e47ef7e13,2024-01-09T11:26:05.000Z,2024-01-09T11:44:01.000Z,OH-168 Tavern Rd / Newcomb Rd,OH-168 Cheshire Rd / Huff Ave,Northbound,18,0.28,0,6.4,41.385430315810375,-81.08009039,41.46338317417884,-81.14198317,Yes
252,226,b0f01154-5277-4105-8af6-850fcec07a13,2024-01-09T10:12:56.000Z,2024-01-09T10:32:57.000Z,CR-21 Stonecreek Rd / CR-49 Angel Valley Rd,CR-21 Stonecreek Rd / Steele Hill Rd,Northbound,20,1.082,1.042,5.89,40.4175,-81.55062,40.48028048406948,-81.48673803,Yes
253,45,1e158e75-05ba-4e28-826f-7194102b620d,2024-01-09T10:45:03.000Z,2024-01-09T10:56:08.000Z,OH-11  Exit 39 / CR-18 Mahoning Ave / Marcia Dr,OH-11,Southbound,11,0.525,0.443,6.75,41.09691996523147,-80.75178,41.002551614101066,-80.7332609,No
254,2,7eecb8bd-84b6-46d2-8f8f-3867f7f0e685,2024-01-09T12:29:07.000Z,2024-01-09T12:58:08.000Z,CR-18 Tallmadge Rd,CR-18 Tallmadge Rd / Hogle Ave,Westbound,29,1.121,0.375,6.67,41.09933,-81.15893,41.10011001,-81.28690057,Yes
255,282,0641e8c6-37c6-4142-8a20-a529998e3c58,2024-01-09T08:36:43.000Z,2024-01-09T08:39:46.000Z,I-71  Exit 117 / OH-161 Dublin Granville Rd,"I-71  Exits 113,114 / Silver Dr / Oakland Park Ave",Southbound,3,0.39,0,3.7,40.08614575046808,-82.98752265,40.03511868152943,-82.99643445,Yes
256,25,a0619275-9960-4053-a940-5e4cd99527e1,2024-01-09T10:31:06.000Z,2024-01-09T11:06:59.000Z,I-71,I-71,Northbound,36,0.613,0.471,7.37,40.79536461,-82.39892488,40.84540096436343,-82.27326534,Yes
257,174,3f65cbaa-2455-4eea-918f-10780434c5e5,2024-01-09T10:31:57.000Z,2024-01-09T10:37:04.000Z,US-22 / OH-152 / CR-22 A Steelers Hwy,US-22 / Lovers Ln,Eastbound,5,0.154,0.38,5.4,40.35482000074742,-80.79322021,40.39215876760059,-80.71548649,No
258,75,b70e4433-10c9-43e1-aa69-68b979246ad7,2024-01-09T12:16:01.000Z,2024-01-09T13:17:54.000Z,OH-161,"I-270  Exits 30,33 / OH-161  Exits 40,41,42 / OH-161 Dublin Granville Rd Exits 40A,40B",Westbound,62,0.422,0,5.55,40.08064001509872,-82.7871201,40.08077955253868,-82.88269235,Yes
259,173,cb66d52a-6726-4524-bec2-09c61213b2af,2024-01-09T11:49:10.000Z,2024-01-09T12:08:05.000Z,OH-83 Avon Lake Rd / CR-4 Smith Rd,CR-4 Smith Rd,Eastbound,19,0.909,0.749,6.14,41.13604747645896,-82.02326511,41.13605,-81.90323248,Yes
260,45,e1fc5d3d-1b39-4906-8950-2f4af33a1246,2024-01-09T11:34:59.000Z,2024-01-09T11:43:06.000Z,OH-11,OH-11,Southbound,8,1.086,0,3.94,41.27748027351054,-80.70466774,41.221206988426616,-80.71058575,Yes
261,101,f9472c7b-a197-4174-91d4-612070dcf303,2024-01-09T08:51:53.000Z,2024-01-09T09:17:57.000Z,OH-146 Newark Rd / Marshall Hill Dr,OH-146 / CR-408 Pleasant Valley Rd,Westbound,26,0.869,0.865,7.4,40.00249717,-82.08110827,40.069730003854616,-82.18199001,Yes
262,19,5197f4ed-d178-404b-b536-216b0404ea58,2024-01-09T22:28:46.000Z,2024-01-09T22:42:49.000Z,I-270  Exit 15 / Tuttle Crossing Blvd,"I-70  Exits 93,93B / I-270  Exit 8",Northbound,14,0.79,0.05,3.35,40.04733888812045,-83.12794106,39.99771191022448,-83.11849992,Yes
263,143,876c0bac-1bd4-456d-a4b2-bedbf4961e23,2024-01-09T08:45:59.000Z,2024-01-09T09:02:52.000Z,I-70,I-70,Westbound,17,0.554,0,5.97,39.94776051508175,-82.06592984,39.95147148082594,-82.17649696,Yes
264,29,364f8563-2058-427d-8c87-c208704ce66a,2024-01-09T11:45:04.000Z,2024-01-09T11:52:00.000Z,OH-21 / CR-206 Edwards Rd / Great Lakes Blvd,OH-21 / Arcadia St,Southbound,7,0.117,0.585,5.72,40.960556238001615,-81.65950271,40.88972218086662,-81.62155739,Yes
265,143,d4cde901-89bb-4e90-9e76-34c4fc1ededd,2024-01-09T09:34:51.000Z,2024-01-09T09:39:56.000Z,I-70,I-70,Westbound,5,0.948,0,4.46,40.03787363,-81.40765504,40.015658954181546,-81.48064624,Yes
266,409,b02348f0-7631-4f5e-9a31-a89c66cc0c10,2024-01-09T09:44:41.000Z,2024-01-09T10:00:42.000Z,OH-66 / St Marys Kossuth Rd,OH-66 St Marys Rd / Kolter Rd,Northbound,16,0.292,1.016,6.14,40.61404866904018,-84.35706186,40.69630770530924,-84.36082037,Yes
267,153,04f2050e-e791-46f5-992a-fa2e62d8f0d5,2024-01-09T08:47:53.000Z,2024-01-09T09:01:00.000Z,I-70  Exit 142 / CR-30 Mt Perry Rd,I-70,Eastbound,13,0,0.758,6.43,39.94643,-82.22233,39.94501861196608,-82.10392668,No
268,19,57a72f34-4066-477c-867e-06f73a0133ff,2024-01-09T12:46:55.000Z,2024-01-09T13:11:48.000Z,I-270  Exit 15 / Tuttle Crossing Blvd,"I-70  Exits 93,93B / I-270  Exit 8",Northbound,25,1.15,0.532,3.47,40.04278836064105,-83.12668968,39.99168352063695,-83.11870569,Yes
269,346,4f5788b3-031c-4eb3-bc65-c338ad6c1cbb,2024-01-09T11:58:53.000Z,2024-01-09T12:28:52.000Z,OH-16  Exit 27 / OH-37 / OH-16 Columbus Rd,OH-16 / Church St / Country Club Dr,Eastbound,30,0,0.927,4.01,40.06038,-82.52923,40.05534256,-82.45654887,Yes
270,162,c1530a0b-24fa-4aaa-9be5-0257c6c9bb39,2024-01-09T11:03:00.000Z,2024-01-09T11:06:59.000Z,US-422 Main Market Rd,US-422,Westbound,4,0.277,0,5.07,41.38686422421585,-81.16484467,41.38201547205325,-81.26223678,Yes
271,323,9a9f3bae-f9b5-4579-b855-749bf64c5860,2024-01-09T23:17:03.000Z,2024-01-09T23:22:04.000Z,US-50 / Meadowbrook Rd / CR-12 Washington Rd,OH-32 / CR-55 Old State 346 Rd,Westbound,5,0.595,0.789,5.59,39.23383252775239,-82.19548232,39.185419840647306,-82.27211011,Yes
272,410,87fe23ac-e64f-4b15-8d3b-9b11a01a6305,2024-01-09T11:23:05.000Z,2024-01-09T11:37:00.000Z,OH-170 / Dyke Rd,OH-170 / Croxall Rd,Southbound,14,0.762,0.602,5.76,40.76759992239999,-80.55363009,40.69960882984763,-80.55313795,Yes
273,324,16ad049f-7bf4-4350-a095-d3e28a103119,2024-01-09T18:32:51.000Z,2024-01-09T19:20:58.000Z,"I-75  Exits 1C,1D,1F / I-71  Exit 1B / US-50 6th St Expy","I-75  Exits 3,4 / I-74 / US-52 Hopple St",Northbound,48,0.401,0.542,2.39,39.10317008215205,-84.52508018,39.13420412706275,-84.53255092,Yes
274,455,1d54b3fd-6bbc-4ccf-978f-dee3b2f84720,2024-01-09T09:39:55.000Z,2024-01-09T09:54:54.000Z,US-30 / CR-16 Funk Rd,US-250,Eastbound,15,0.776,0.846,6.58,40.78467232027214,-82.09721343,40.792800059591066,-81.9761255,Yes
275,141,d4443dea-ab92-47a5-bda8-2a018272c1b9,2024-01-09T10:39:44.000Z,2024-01-09T10:53:50.000Z,US-24 / Road 21,US-24 / Webster Rd,Westbound,14,0.618,0.436,5.92,41.15648420482817,-84.79425887,41.12189385526917,-84.89260131,Yes
276,47,1dc4bcb7-aa88-4ebd-ad52-4a55fa42d5ee,2024-01-09T08:12:45.000Z,2024-01-09T08:24:44.000Z,"I-270  Exits 35,35A,35B / I-670  Exits 10A-B,10C,10D / US-62",I-270,Northbound,12,0.359,0.288,4.98,40.00828999318588,-82.89173986,39.95904008418806,-82.84350398,Yes
277,35,34a1579d-c75c-4464-9e3c-54059fee9662,2024-01-09T12:59:41.000Z,2024-01-09T13:16:59.000Z,"I-75  Exit 24 / OH-129 Butler County Veterans Hwy Exits 25A,25B / Liberty Way",I-75,Southbound,17,0.116,0.251,3.87,39.37977436536354,-84.36482507,39.33841970338966,-84.40508056,Yes
278,51,f1462c31-ab77-4d32-97b6-f6e99d9391c8,2024-01-09T11:48:51.000Z,2024-01-09T12:11:58.000Z,OH-16 Columbus Rd / Goose Lane Rd / Silver St,OH-16 Broad St / Legacy Ln,Westbound,23,0.893,0,5.5,40.04674997716541,-82.56201005,40.00722947787074,-82.65078326,Yes
279,405,8a3bd0ac-6a58-439e-bed5-1364e11aa0a3,2024-01-09T10:32:50.000Z,2024-01-09T10:40:57.000Z,OH-16 Columbus Rd / Dark Starr Dr,OH-16 Columbus Rd / Sunset Dr,Eastbound,8,0.903,0.318,5.77,40.01395480010664,-82.62932188,40.05570006046696,-82.5354199,Yes
280,45,6afc4ce4-6bf4-4128-b8a8-1bf850709435,2024-01-09T10:33:54.000Z,2024-01-09T10:38:05.000Z,OH-11  Exit 39 / CR-18 Mahoning Ave / Marcia Dr,OH-11,Southbound,4,0.582,0.923,6.1,41.096079858852775,-80.75166,41.00933253796303,-80.73896718,No
281,180,49055e5c-de28-435e-b9c2-286b7a807073,2024-01-09T11:30:53.000Z,2024-01-09T11:48:51.000Z,US-62 Liberty St,OH-13 Main St / US-62 Columbus Rd,Southbound,18,0.161,1.029,6.15,40.270060135234665,-82.35703054,40.230062720802536,-82.45100374,Yes
282,181,d5caf69e-c6bd-4ef2-8bac-0b3e19475cc3,2024-01-09T21:51:12.000Z,2024-01-09T22:56:59.000Z,OH-59  Exit 3 / OH-261 Tallmadge Ave,"I-77  Exit 125B / I-76  Exits 23A,23B / OH-8 I-77",Southbound,66,0.119,0.288,2.44,41.10290472668496,-81.50002378,41.068159901617264,-81.50431,Yes
283,183,f181f6b8-6400-4086-a6b4-f6f27e4a6d80,2024-01-09T10:43:46.000Z,2024-01-09T11:04:52.000Z,Bridge St / US-62 Millersburg Rd / CR-39 Cavallo Rd,US-62 Millersburg Rd / CR-27 Sycamore Rd,Southbound,21,0.671,0.396,6.25,40.39674688010919,-82.27760165,40.31469770404362,-82.31771413,Yes
284,335,892529b0-d031-4b71-b56a-b48a53a9a064,2024-01-09T09:49:02.000Z,2024-01-09T10:01:55.000Z,US-250 Cadiz Dennison Rd,US-250 Cadiz Dennison Rd / Eslick Rd,Northbound,13,0.731,0.936,6.29,40.31770921856563,-81.12590173,40.35964056,-81.21886214,Yes
285,461,caf5a255-2248-41ef-b428-dad615499f4d,2024-01-09T19:24:00.000Z,2024-01-09T20:04:59.000Z,OH-8  Exit 1A / Fountain St,OH-59  Exit 3B / Gorge Blvd / Corwin Ave,Northbound,41,0.04,0.235,2.54,41.07232551721359,-81.50413992,41.108019004585984,-81.49851771,Yes
286,224,1c9493b7-289f-4781-bdf0-434b0ad431b5,2024-01-09T08:52:51.000Z,2024-01-09T09:34:42.000Z,OH-161,OH-37,Eastbound,42,0.546,0.575,5.72,40.08031503429283,-82.70812411,40.07324572244014,-82.60086044,Yes
287,37,a24375cc-80f4-44cd-89c9-c8f1a9c50377,2024-01-09T11:52:00.000Z,2024-01-09T12:08:05.000Z,OH-43 Steubenville Rd / CR-80 Condor Rd,OH-43 Steubenville Rd / Oakdale Ave,Eastbound,16,0.379,0.122,5.38,40.51857796406063,-81.02248132,40.48788818684561,-80.94621016,Yes
288,220,602b6d99-cef1-4fd0-acbd-c660e71371a9,2024-01-09T10:11:56.000Z,2024-01-09T10:16:56.000Z,US-30 / Kansas Rd,US-30 / Fahrney St,Eastbound,5,0.295,0.169,4.87,40.79656000235931,-81.77517997,40.795540343119065,-81.6845875,Yes
289,6,195b6f82-d374-4e14-b888-3131dd310299,2024-01-09T11:18:01.000Z,2024-01-09T11:31:59.000Z,US-250 Cadiz Dennison Rd / Mizer Rd,US-22 Cadiz-Piedmont Rd / CR-2 Deersville Ridge Rd / US-250,Eastbound,14,0.17,0.219,6.19,40.31129984,-81.1058192,40.27569,-81.01308,Yes
290,28,2ffa1c70-dcd8-4d52-8ad9-cf5a1a1da859,2024-01-09T10:55:00.000Z,2024-01-09T10:57:00.000Z,I-80,I-80,Eastbound,2,0.5,0.695,5.63,41.15884597469388,-80.63083122,41.17955034947991,-80.52958459,No
291,18,38d2dd3d-fc37-4a0a-a687-832f2c7f2daa,2024-01-09T12:42:58.000Z,2024-01-09T13:11:04.000Z,"I-71  Exits 109A,109B,110A / I-670  Exits 4A,4A-B,4B,4C,5,5A-5B / Goodale St","I-670  Exits 2A,2B,3 / OH-315  Exits 1C,1D,1E,1F,2 / Goodale St",Westbound,28,0.122,0.222,1.84,39.97862105192294,-82.97799704,39.97345393105404,-83.01016207,Yes
292,401,8402df0b-94ab-4f85-a1fa-7114477358f3,2024-01-09T11:03:54.000Z,2024-01-09T11:08:41.000Z,US-30 / Lexington Springmill Rd,US-30,Westbound,5,0.185,0.463,5.57,40.78497000007839,-82.58906341,40.76394885783392,-82.68876722,Yes
293,212,2077938c-a3b1-4b96-a07b-282648885967,2024-01-09T11:16:46.000Z,2024-01-09T11:35:45.000Z,US-127 Meridian Rd / Hickory Trl / Packard Rd,US-127 / County Road T,Southbound,19,0.683,0.104,5.73,41.77978973668972,-84.36117,41.69681957426776,-84.360395,Yes
294,394,be9a9a7f-7ff2-47b0-a512-83c1f29d1d91,2024-01-09T10:48:41.000Z,2024-01-09T11:10:59.000Z,OH-161,OH-37 / OH-161 / OH-37 Johnstown-Alexandria Rd,Eastbound,22,0.546,0,5.14,40.08031503429283,-82.70812411,40.07352,-82.61088,Yes
295,275,74c8984e-d2e6-4c7b-b59a-8a435488586c,2024-01-09T10:24:35.000Z,2024-01-09T10:38:50.000Z,OH-545 / Vantilburg Rd,OH-545 / Annfield Dr,Southbound,14,0.827,0.616,6.22,40.86502425997127,-82.43982,40.79364899947253,-82.49154591,Yes
296,139,f360918b-d435-470c-aa87-25295b435826,2024-01-09T13:08:48.000Z,2024-01-09T13:12:50.000Z,I-71  Exit 8 / Highland Ave,I-71  Exit 5 / Dana Ave / Duck Creek Rd,Southbound,4,0.239,0.109,2.03,39.16794006,-84.42274728,39.148471738404965,-84.44955146,Yes
297,77,672c3bed-ff87-4cfc-ac8a-7aed1c2bacc8,2024-01-09T09:30:42.000Z,2024-01-09T09:58:47.000Z,I-71,I-71,Southbound,28,0.129,0.886,7.07,40.54665874176211,-82.65601112,40.47534501708985,-82.74998777,Yes
298,364,0b310ef9-8c0e-49b8-aacd-823d416d08d4,2024-01-09T13:39:14.000Z,2024-01-09T14:02:08.000Z,I-90  Exit 167A / Marginal Dr,I-71 / I-90 / I-90,Eastbound,23,0.052,0.219,2.83,41.46976294863428,-81.74589154,41.47449098459165,-81.69285936,Yes
299,285,ae9d426b-4ea4-40d9-bf82-157f6132f000,2024-01-09T12:21:09.000Z,2024-01-09T12:51:11.000Z,CR-18 Tallmadge Rd / CR-136 Jones Rd,CR-18 Tallmadge Rd,Westbound,30,1.049,1.128,6.35,41.09873004,-81.01543999,41.099495146193725,-81.13473886,Yes
300,10,79cf501f-b847-4cd0-af2e-b6cc334da605,2024-01-09T10:18:42.000Z,2024-01-09T10:20:42.000Z,US-24 / Webster Rd,US-24,Eastbound,2,0,0.327,5.93,41.12158,-84.897,41.15492088589193,-84.79767712,Yes
301,71,bc3d00bd-a018-406f-adae-55ef6d21e4e7,2024-01-09T10:11:56.000Z,2024-01-09T10:23:53.000Z,OH-43 Steubenville Rd / Oakdale Ave,OH-43 Steubenville Rd / CR-80 Condor Rd,Westbound,12,0.972,0.939,5.82,40.48323292386001,-80.93637598,40.51748841665453,-81.01823556,Yes
302,257,39d2e8b2-df53-42cf-bf96-a0fa9a989b15,2024-01-09T09:41:01.000Z,2024-01-09T09:44:56.000Z,OH-83 Burbank Rd / OH-604 Easton Rd,OH-83 Burbank Rd / CR-86 Smithville Western Rd,Southbound,4,0.877,0,5.58,40.938724718764746,-81.99236769,40.86322514956306,-81.954837,Yes
303,72,d926225b-b128-47cb-b9cf-89b8523de1ff,2024-01-09T23:01:40.000Z,2024-01-09T23:08:52.000Z,OH-315  Exit 10 / OH-161 Dublin Granville Rd / OH-161 Granville Rd,OH-315 / Olentangy River Rd / OH-315 Olentangy River Rd,Northbound,7,0.098,0,1.69,40.09305849136449,-83.03710427,40.11742143,-83.03419881,No
304,281,678490a0-f490-45ad-ae11-0f5dc174e111,2024-01-09T13:17:54.000Z,2024-01-09T13:26:41.000Z,"I-270  Exits 22,23 / OH-315  Exits 12A,12B / US-23 High St","OH-315  Exits 6,6A-B / North Broadway / Olentangy River Rd",Southbound,9,0.162,0.243,4.17,40.10971935822965,-83.03571281,40.05023984045008,-83.03341004,Yes
305,281,f5a8fcca-7493-492b-b6b1-6e5ac208325a,2024-01-09T13:07:58.000Z,2024-01-09T13:09:50.000Z,"I-270  Exits 22,23 / OH-315  Exits 12A,12B / US-23 High St","OH-315  Exits 6,6A-B / North Broadway / Olentangy River Rd",Southbound,2,0.068,0.634,4.66,40.11087885430303,-83.03552019,40.04471826965413,-83.03343982,Yes
306,96,1b1f734e-fd7e-4a58-a7ba-fdab5eddfcc8,2024-01-09T10:02:41.000Z,2024-01-09T10:12:41.000Z,US-30 / OH-696 Lincoln Hwy / Old Us-30,US-30 / Township Road 52,Eastbound,10,0,0.364,5.64,40.82681,-83.95994,40.82739913106276,-83.85563248,Yes
307,424,c6d63836-6583-4faf-9621-09a2c6160723,2024-01-09T10:35:41.000Z,2024-01-09T10:38:50.000Z,OH-29 / Erastus Durbin Rd,OH-29 Logan St,Eastbound,3,0,0,5.74,40.5451834,-84.69714159,40.54551,-84.58851043,Yes
308,77,bd5ebfa1-fb3f-409a-b86c-5a866e8c6c57,2024-01-09T10:01:00.000Z,2024-01-09T10:01:55.000Z,I-71,I-71,Southbound,1,0.921,0.155,4.73,40.87208356666855,-82.22479303,40.83581890132561,-82.30063605,Yes
309,77,e69de78a-1901-459d-9d5f-4171b78f58dd,2024-01-09T10:06:49.000Z,2024-01-09T10:09:47.000Z,I-71,I-71,Southbound,3,0.291,0.194,6.21,40.54529158959262,-82.65723204,40.48148833942096,-82.74108381,Yes
310,428,44826c9b-c0f5-4854-8411-91a7baa72ed1,2024-01-09T10:41:41.000Z,2024-01-09T10:55:33.000Z,US-6,US-6 / County Road 13,Eastbound,14,0,0.974,7.23,41.4480173,-84.72283001,41.44141005783826,-84.58719039,Yes
311,25,66df20ce-102b-470f-91c4-5da249caf69f,2024-01-09T10:25:01.000Z,2024-01-09T10:26:06.000Z,I-71  Exit 196 / OH-301 Elyria Rd,I-71,Northbound,1,0.182,0.159,4.25,40.93417712267178,-82.11176862,40.97223375557324,-82.04874869,Yes
312,279,368093e8-7b75-4969-bf93-9e6828996680,2024-01-09T12:10:41.000Z,2024-01-09T12:24:33.000Z,County Road 424 / County Road 2B,County Road 424 / OH-109,Westbound,14,0.37,0,5.29,41.42133122225684,-83.91070098,41.41163,-84.00935,Yes
313,88,a6d391e0-3a12-45a0-826b-0f7cc6feb3d8,2024-01-09T10:02:41.000Z,2024-01-09T10:08:47.000Z,US-224 / Dull Robinson Rd,US-30 / CR-93 Dutch John Rd,Eastbound,6,0.496,0,5.44,40.85132537630859,-84.65664692,40.88850495469612,-84.6010623,Yes
314,278,08f09015-8e24-47bb-9f0a-96faf963e2bb,2024-01-09T10:22:58.000Z,2024-01-09T10:31:06.000Z,I-76  Exit 1B / I-71,I-71  Exit 218 / OH-18 Medina Rd,Northbound,8,0.049,0.998,7.41,41.035896134986295,-81.88061515,41.12486141897327,-81.80164885,Yes
315,362,ce3d3685-acc5-44a6-9c74-72b77dceff06,2024-01-09T22:49:51.000Z,2024-01-09T23:05:51.000Z,"I-71  Exits 3,3A-B / Essex Pl / William Howard Taft Rd",US-50 / I-71,Southbound,16,0.427,0.488,3.02,39.13806,-84.48782,39.099336664008405,-84.50636186,Yes
316,265,bcfc26a1-088e-4eae-a986-32084e90da4c,2024-01-09T10:16:04.000Z,2024-01-09T10:41:07.000Z,OH-39 / Township Road 219,OH-39 Main St / Madison St,Northbound,25,0.705,1.129,6.69,40.59526223,-82.10846339,40.63512241285013,-82.21954019,Yes
317,84,1851909f-6124-47b5-bda9-e5ee45bbf8b8,2024-01-09T10:46:01.000Z,2024-01-09T10:50:57.000Z,US-36 / CR-160 Yocom Rd,OH-4 / US-36,Eastbound,5,0.988,1.115,6.68,40.122743223771685,-83.61500327,40.15116000001336,-83.49760966,Yes
318,77,6ae9c9f9-5227-4f83-a7e9-e85e527089e0,2024-01-09T09:27:35.000Z,2024-01-09T09:29:41.000Z,I-71,I-71,Southbound,2,0.534,0,4.65,40.77468947586093,-82.4185204,40.72564909326116,-82.47697502,Yes
319,82,228dc768-99cb-47e7-8ac3-f291432a3734,2024-01-09T08:11:53.000Z,2024-01-09T08:15:52.000Z,I-70,I-70,Westbound,4,0.577,0.324,2.99,39.93259999928642,-82.82469999,39.936827619451016,-82.87920927,No
320,432,3db434a6-b7a9-438b-a105-640d97694446,2024-01-09T08:02:45.000Z,2024-01-09T08:04:48.000Z,I-70  Exit 129 / OH-79 Hebron Rd,I-70  Exit 122 / OH-158 Baltimore Rd,Westbound,2,0.084,0.787,6.11,39.94528994978055,-82.48091058,39.94491,-82.5959,No
321,82,b037fdfc-113a-4660-984e-e3f7dfcb0c29,2024-01-09T12:24:52.000Z,2024-01-09T13:30:46.000Z,I-70,I-70,Westbound,66,0.528,0.234,4.66,39.94685685517943,-82.75586427,39.93333060815223,-82.83747246,Yes
322,25,c122d25f-7135-41b8-96ae-8c40657b91cc,2024-01-09T10:11:56.000Z,2024-01-09T10:18:01.000Z,I-71,I-71,Northbound,6,0.785,0.971,5.61,41.08049114821305,-81.83737089,41.15321089887988,-81.78714002,Yes
323,361,2885e037-4bda-4c2c-9c49-8c24c086396e,2024-01-09T12:47:55.000Z,2024-01-09T13:01:46.000Z,US-33,"I-270  Exits 17A,17B / OH-161  Exit 108",Eastbound,14,1.112,0.609,4.54,40.13565991,-83.19937261,40.09897,-83.14098,Yes
324,421,5c9a829d-dbb2-4a1f-ae1b-f6c4bc5be121,2024-01-09T21:57:04.000Z,2024-01-09T22:12:00.000Z,"I-90  Exits 183,184A / Lakeland Blvd",OH-2 / 305th St,Eastbound,15,0.096,0.039,2.63,41.59330085530967,-81.51624854,41.61628762656961,-81.47594514,Yes
325,105,6bd5abd6-959b-44e5-b006-4adce603c6cc,2024-01-09T10:21:02.000Z,2024-01-09T10:27:58.000Z,US-250 / Township Road 1404,US-250 Ashland Rd / Ogden Rd,Eastbound,7,0,0.876,7.32,40.85722,-82.2287,40.83798957215051,-82.09699889,Yes
326,123,fd7d16e1-7115-49ea-8462-e292b1540d6e,2024-01-09T11:18:57.000Z,2024-01-09T11:49:10.000Z,CR-29 Back Massillon Rd / Little Chippewa Estates Mhp,CR-29 Back Massillon Rd / CR-103 Deerfield Ave / Orrville St,Eastbound,30,0.614,0.763,6.66,40.86779812648828,-81.76899192,40.85412923915239,-81.64889468,Yes
327,3,a4bd9005-eb09-44d2-b075-2cc626c1f7e4,2024-01-09T11:06:05.000Z,2024-01-09T11:06:59.000Z,"I-80  Exits 228,228A,228B / OH-11  Exit 46B / OH-711",OH-11,Northbound,1,0,0.782,5,41.14741,-80.6767,41.21164196,-80.71031234,Yes
328,355,8029cfc1-277b-4be8-930b-529744a16a43,2024-01-09T11:36:38.000Z,2024-01-09T11:59:44.000Z,US-20-ALT / County Road 21,US-20-ALT Jackson St / County Road 21.50,Westbound,23,0.458,0.914,6.51,41.57234007493125,-84.28115759,41.58648941031117,-84.40091603,Yes
329,22,5c59b1c1-0b1d-4fcd-931f-b465dc5e7d04,2024-01-09T12:23:48.000Z,2024-01-09T12:42:28.000Z,US-224 / OH-49,OH-49,Southbound,19,0.222,0.719,6.88,40.84175434,-84.77475,40.750358473181095,-84.7903748,Yes
330,299,cde2d8cd-4e8f-43c1-8640-40013947bf02,2024-01-09T21:42:54.000Z,2024-01-09T22:10:51.000Z,"I-71  Exits 109A,109B,110A / I-670  Exits 4A,4A-B,4B,4C,5,5A-5B / Goodale St",I-71  Exit 111 / 17th Ave,Northbound,28,0.284,0.125,1.86,39.966870061922464,-82.98332001,39.993590166969376,-82.98503999,Yes
331,69,9c8d3437-eccc-4af2-af04-aaee1453a16e,2024-01-09T10:22:58.000Z,2024-01-09T10:29:01.000Z,I-77,I-77,Southbound,6,0.783,0.342,5.57,40.73780275,-81.41252548,40.66136114375605,-81.43968161,Yes
332,238,259c80b5-8f67-4367-8651-5e4b8fee14cb,2024-01-09T12:32:32.000Z,2024-01-09T12:43:45.000Z,US-23 / CR-10,US-23 / Ch 16,Southbound,11,0.779,0,5.73,41.04496695054036,-83.40158638,40.96722556944606,-83.38195039,Yes
333,127,4e4179dc-6d83-4c22-9d34-ae4cbadab40e,2024-01-09T08:51:53.000Z,2024-01-09T09:19:52.000Z,I-77,I-77,Northbound,28,0,0.401,6.42,40.30576993,-81.56596813,40.39501196100959,-81.5549866,Yes
334,126,1f13b998-8663-4d8b-b09f-e968e8f5d7fa,2024-01-09T15:38:55.000Z,2024-01-09T16:41:37.000Z,I-75  Exit 6 / Mitchell Ave,"I-75  Exits 10,10A,10B / OH-126 Ronald Reagan Cross County Hwy Exits 27,27A,27B / Galbraith Rd",Northbound,63,0.343,0.287,2.71,39.17091,-84.49990001,39.19934436064069,-84.4697807,Yes
335,240,0a9ee572-ae24-4a88-8cf0-65dad4422dd9,2024-01-09T12:24:52.000Z,2024-01-09T12:41:04.000Z,OH-661 North St Rd,OH-661 North St Rd / CR-15 Dutch Lane Rd,Northbound,16,1.044,1.069,6.34,40.08118,-82.52115,40.17245296,-82.51911,Yes
336,241,2e49b6bd-3ee4-4780-8281-26cb1ec1993b,2024-01-09T18:21:37.000Z,2024-01-09T18:26:55.000Z,US-127,US-127,Southbound,5,0,1.083,7.66,39.62124,-84.65755,39.52034573983688,-84.61693609,Yes
337,233,6bd30da6-21b7-4d00-aee7-cf526441cd0c,2024-01-09T12:41:04.000Z,2024-01-09T13:16:03.000Z,"I-70  Exits 91,91A,91B / CR-3 Hilliard Rome Rd",I-70 / I-670,Eastbound,35,0.316,0.386,3.8,39.97682999889206,-83.13922996,39.96946997017877,-83.06871991,Yes
338,130,a5cc13ce-5e44-4c14-b828-854224cb6890,2024-01-09T21:51:50.000Z,2024-01-09T23:12:44.000Z,I-270,"I-71  Exits 119,119A,119B / I-270  Exit 26",Northbound,81,0.668,0.182,4.59,40.07148003422823,-82.90759,40.10796427643316,-82.96160367,Yes
339,358,c3539f59-fe61-4db8-a0dd-ca81a2ab7ad2,2024-01-09T08:39:46.000Z,2024-01-09T08:47:46.000Z,"I-70  Exits 107,107A,107B / OH-317 Hamilton Rd",I-70 / Alum Creek Dr,Westbound,8,0.472,0.023,3.62,39.93546618,-82.8920455,39.95115674329827,-82.94426527,Yes
340,313,03f19e0e-0696-47ec-89bc-db904df163d1,2024-01-09T20:54:49.000Z,2024-01-09T22:04:46.000Z,I-71  Exit 5 / Dana Ave / Duck Creek Rd,I-71 / 3rd St,Southbound,70,0.472,0.403,3.77,39.14314350015114,-84.46795871,39.10530671828109,-84.5045507,No
341,229,89cc002a-5540-442a-aa51-8848f5733ae2,2024-01-09T08:49:56.000Z,2024-01-09T09:17:57.000Z,OH-149 Uniontown Flushing Rd / OH-149 Flushing New Athens Rd / OH-331 Uniontown Flushing Rd,OH-331 Bannock Rd / Airport Rd / US-40 National Rd,Eastbound,28,0,0.996,7.48,40.1491,-81.0387,40.072725892539566,-80.96668781,Yes
342,131,e96a3430-9174-483b-b975-79b462ba01dc,2024-01-09T12:23:42.000Z,2024-01-09T14:04:42.000Z,I-74  Exit 14 / North Bend Rd,"I-75  Exits 3,4 / I-74 / US-52 Hopple St",Eastbound,101,0,0.169,4.37,39.18309,-84.59827,39.15073958291186,-84.54084002,Yes
343,382,eceb77fa-265f-4c7a-8b0f-78272a61ae49,2024-01-09T09:52:56.000Z,2024-01-09T10:16:56.000Z,US-30,US-30,Eastbound,24,0.322,0,4.55,40.80032110561438,-81.87960183,40.79147119,-81.80257008,Yes
344,274,a5aff320-7037-4609-b4d2-984162702039,2024-01-09T07:58:52.000Z,2024-01-09T08:07:48.000Z,I-270  Exit 5 / Georgesville Rd,"I-270  Exits 52,52A,52B / US-23 High St Exit 83 / US-23  Exits 83A,83B",Northbound,9,0.217,0.255,4.04,39.91651956898007,-83.11251953,39.89466998712805,-83.04357998,Yes
345,204,adabd3e6-c9ca-4b11-a3ac-24ad0b394cac,2024-01-09T11:06:39.000Z,2024-01-09T11:24:51.000Z,OH-314 / CR-242,OH-97 / OH-314,Northbound,18,0.281,0.323,5.58,40.62103016830997,-82.66307001,40.70054894644684,-82.66540464,Yes
346,339,1aa0373a-3028-494e-ba79-b269997e7ccc,2024-01-09T12:38:51.000Z,2024-01-09T12:50:39.000Z,US-127 / County Road M,US-20 / US-127 / County Road 22-Q,Northbound,12,1.103,0.389,4.61,41.60106,-84.42378,41.665758143463634,-84.40580248,Yes
347,206,5ef74b75-ec13-42db-9c6b-a2fd15f66616,2024-01-09T09:19:52.000Z,2024-01-09T09:36:06.000Z,I-70  Exit 208 / OH-149 Belmont Morristown Rd,I-70  Exit 202 / OH-800 Barnesville Hendrysburg Rd / OH-800 Hendrysburg Freeport Rd,Westbound,16,0.484,0.485,4.97,40.05875,-81.0572,40.05843671493051,-81.14818596,Yes
348,276,01d9ee4e-4fa3-40b6-ac54-969181b1de83,2024-01-09T12:31:54.000Z,2024-01-09T12:50:39.000Z,OH-120,OH-109 / OH-120,Westbound,19,0.295,0.362,5.4,41.71469999178292,-83.93594003,41.69995769,-84.03653,Yes
349,309,9606688b-b001-43fc-824e-3548ad4d9233,2024-01-09T10:28:57.000Z,2024-01-09T10:37:37.000Z,OH-18 Defiance Ave,CR-122 Farmer Mark Rd / OH-18,Eastbound,9,1.081,0.81,5.15,41.29593812,-84.73636997,41.296108992820656,-84.63978586,Yes
350,376,0043fbf6-dd28-4044-b48e-ab0b73129b50,2024-01-09T11:57:00.000Z,2024-01-09T12:19:08.000Z,CR-2 Clay St / Diagonal St,CR-363 Mt Hope Rd / CR-2 Harrison Rd,Eastbound,22,0.915,0.404,4.88,40.67604910801165,-81.87182505,40.69716,-81.7852823,Yes
351,231,cfd73b55-217a-4892-bbeb-482e7e029aed,2024-01-09T09:17:56.000Z,2024-01-09T10:05:50.000Z,I-71,I-71,Northbound,48,0.543,1.337,5.47,40.49014571143815,-82.72799032,40.54579003255257,-82.65639397,Yes
352,277,a24ca199-d05a-4d17-9720-d6714d6a6c47,2024-01-09T09:45:36.000Z,2024-01-09T10:09:38.000Z,US-6,US-6 / OH-576,Eastbound,24,0,0.617,5.8,41.4480173,-84.72283001,41.441390000000034,-84.61352573,Yes
353,353,1c6a3b27-8cd1-4645-bafa-8ddc2c655488,2024-01-09T10:58:46.000Z,2024-01-09T11:29:00.000Z,US-20,US-20 / County Road 1.50,Eastbound,30,0.146,0.283,4.78,41.63060886085166,-84.89323586,41.63194102580382,-84.80115913,Yes
354,9,19896697-9dee-4f2a-8caf-31349ca63184,2024-01-09T10:11:03.000Z,2024-01-09T10:39:05.000Z,OH-3 Columbus Rd / OH-226,OH-226 Shreve Rd / OH-226 Market St,Westbound,28,0,1.026,6.29,40.7724,-81.97281,40.69078,-82.02217,Yes
355,341,45bb2367-90ce-4fcd-a918-65f2897068e7,2024-01-09T11:01:57.000Z,2024-01-09T11:09:02.000Z,OH-43 / Township Road 472,OH-43 / Township Road 219,Southbound,7,0.497,0.762,5.18,40.45529970336016,-80.91085974,40.441406839149245,-80.83049082,Yes
356,369,9611938a-d55c-4386-934e-8cf01fa1d87a,2024-01-09T11:45:05.000Z,2024-01-09T11:53:06.000Z,CR-30A Old Lincoln Way / CR-30A / Smyser Rd,CR-30A Old Lincoln Way / CR-149 Elyria Rd,Westbound,8,0.157,0.325,4.01,40.80266503102649,-82.0163632,40.807277509779865,-82.09104469,Yes
357,326,b158d177-3c94-4172-8e78-aba77d8a5fe0,2024-01-09T10:01:00.000Z,2024-01-09T10:16:56.000Z,OH-39 / Old Oh-39,I-77  Exit 83 / OH-39,Eastbound,16,0.557,0.75,5.4,40.507646165066966,-81.58547273,40.52781898286242,-81.49502339,Yes
358,208,a6644bb8-00fc-4c0b-8718-4bac046d1350,2024-01-09T21:54:48.000Z,2024-01-09T22:04:46.000Z,"I-71  Exits 17,17A,17B / I-275  Exits 49,49A,49B",I-275  Exit 52 / Loveland Madeira Rd,Northbound,10,0.427,0.05,2.47,39.27108,-84.35152,39.25152999600079,-84.31476996,Yes
359,211,ec2df63d-cf9d-4c37-85d1-e7ec87213118,2024-01-09T13:10:09.000Z,2024-01-09T13:28:05.000Z,CR-18 Tallmadge Rd,CR-18 Tallmadge Rd,Eastbound,18,0.476,0.145,5.02,41.09924,-81.24379998,41.09967,-81.14773578,Yes
360,368,112b881d-ee32-4f39-af2a-4ff085721c76,2024-01-09T11:30:53.000Z,2024-01-09T11:49:50.000Z,OH-423 Marion-Waldo Rd / Klingel Rd,OH-423 Marion-Waldo Rd / Barkswood Rd,Northbound,19,0.345,1.002,6,40.46810865801401,-83.08017665,40.55188010377215,-83.11494005,Yes
361,246,f08d96f3-0c3b-4639-8d7b-8005d7974b5d,2024-01-09T21:37:03.000Z,2024-01-09T22:03:04.000Z,I-71 / I-70,I-71  Exit 105 / Greenlawn Ave,Westbound,26,0.047,0.066,1.79,39.95435783054941,-82.98911603,39.94639969516805,-83.01448978,Yes
362,251,e112134d-f0de-44da-9740-080e3c1b4bfb,2024-01-09T21:19:43.000Z,2024-01-09T22:03:45.000Z,I-275  Exit 44 / Mosteller Rd,"I-71  Exits 17,17A,17B / I-275  Exits 49,49A,49B",Northbound,44,0,0.581,4.31,39.28693,-84.42917,39.27553615786664,-84.35743488,Yes
363,321,f00fcd4d-c3b5-4c89-ae21-17afb34b419e,2024-01-09T10:40:01.000Z,2024-01-09T10:55:00.000Z,US-30 / CR-44 Apple Creek Rd,US-30 / Kansas Rd,Eastbound,15,0.341,0,3.92,40.809500438359024,-81.84592633,40.795050758612525,-81.78119989,Yes
364,221,722c3ede-5144-40ff-8ee5-60282c8e531e,2024-01-09T10:42:59.000Z,2024-01-09T10:48:01.000Z,OH-83 Burbank Rd,OH-83 Burbank Rd / CR-78 Hutton Rd,Southbound,5,0.173,0.545,5.82,40.96478254,-81.99575275,40.88354298,-81.96740578,Yes
365,222,3e951ff9-ec28-48c4-95fd-2a83b3faba8b,2024-01-09T08:40:58.000Z,2024-01-09T09:03:39.000Z,OH-16  Exit 27 / OH-37 / OH-16 Columbus Rd,OH-37 / OH-161 / OH-37 Johnstown-Alexandria Rd,Northbound,23,0,1.455,4.16,40.05956,-82.5233,40.07339807869767,-82.59708015,Yes
366,242,9731454b-9871-423d-85e9-6c9f52cf9f50,2024-01-09T10:41:55.000Z,2024-01-09T10:54:03.000Z,OH-11,US-30,Southbound,12,0.621,0,3.78,40.756392504977775,-80.71829941,40.70872301505465,-80.68775603,Yes
367,374,b94b2e12-137f-47be-8b60-6680b34b2c36,2024-01-09T19:30:03.000Z,2024-01-09T19:51:13.000Z,CR-100 River Rd / River Rd,CR-100 River Rd / Adams Rd / River Rd,Westbound,21,0.464,1.076,4.23,41.74614546,-81.08399817,41.72983528617973,-81.16230109,Yes
368,216,bd45de97-50da-4d52-a118-b049e6de7198,2024-01-09T09:06:03.000Z,2024-01-09T09:36:06.000Z,I-470,I-70  Exit 219 / I-470  Exit 1 / Banfield Rd,Westbound,30,0.155,0.299,5.02,40.04639079356827,-80.76613124,40.06955,-80.85144998,Yes
369,378,9a70e2a2-ab39-4d23-b1a2-13fc923a9961,2024-01-09T12:57:53.000Z,2024-01-09T14:28:55.000Z,I-675  Exit 7 / Wilmington Pike,I-675,Northbound,91,0.315,0.113,3.54,39.65597025233177,-84.10973622,39.70158519,-84.09413992,Yes
370,283,28bb020e-15d0-493d-bc7a-7ac6bf37f556,2024-01-09T12:42:58.000Z,2024-01-09T13:58:41.000Z,I-71  Exit 104 / Frank Rd Exit 89,I-70  Exit 100B / US-23 Brewer St / US-23 Livingston Ave,Northbound,76,0.68,0.434,2.58,39.92264,-83.01232,39.95336,-83.00505447,Yes
371,214,a281e919-c711-4e6e-991e-3566ddcf601a,2024-01-09T11:32:59.000Z,2024-01-09T11:49:10.000Z,CR-97 Greenwich Rd / Quadral Dr,CR-97 Greenwich Rd,Westbound,16,0.607,1.275,5,41.02534873368431,-81.75967741,41.02522,-81.85698005,Yes
372,380,d7601471-b8bb-492c-b320-672a80a86513,2024-01-09T11:06:59.000Z,2024-01-09T11:32:59.000Z,US-30,US-30 / OH-9 / OH-644,Eastbound,26,0,0.354,5.66,40.74643,-81.06239,40.73480249879526,-80.95900876,Yes
373,325,a3c10cf7-7ed7-49e4-9b93-d38408483c2f,2024-01-09T10:51:57.000Z,2024-01-09T10:56:08.000Z,US-30 / CR-94A Carr Rd,US-30,Eastbound,4,0.252,0.788,4.51,40.79644137780919,-81.7762099,40.79488000267325,-81.69219989,Yes
374,14,1f47cb23-c3c2-4a1b-a0b7-438239679736,2024-01-09T10:21:02.000Z,2024-01-09T10:35:05.000Z,OH-149 Uniontown Flushing Rd / OH-149 Flushing New Athens Rd / OH-331 Uniontown Flushing Rd,OH-331 Main St / Maple Ave,Eastbound,14,0,0.068,5.48,40.1491,-81.0387,40.09877953100096,-80.97737,Yes
375,201,1a49601e-1f89-420a-915e-98a040908d57,2024-01-09T07:49:53.000Z,2024-01-09T08:11:53.000Z,US-33 / US-22,US-33 / CR-33A,Eastbound,22,0,0.967,5.98,39.68439,-82.65679,39.65588,-82.5599,Yes
376,347,c4ca57a7-ac5f-42f0-9584-a10da7c7e562,2024-01-09T11:12:50.000Z,2024-01-09T11:39:49.000Z,OH-229 / OH-314 / Township Road 16,OH-314 / Township Road 190,Northbound,27,0,0.02,5.39,40.39876,-82.70771,40.47231823356074,-82.68694552,Yes
377,199,5163051d-8675-49df-af43-b35100268299,2024-01-09T14:07:28.000Z,2024-01-09T14:34:30.000Z,"I-75  Exit 192 / I-475  Exits 1A,1B,2 / OH-25 Dixie Hwy",US-23,Northbound,27,0.251,0.168,3.8,41.53288430985148,-83.62233423,41.54945460624965,-83.68419456,Yes
378,119,c1db52c9-449a-4aa7-8159-69f0c7aa530c,2024-01-09T10:31:57.000Z,2024-01-09T10:32:57.000Z,I-77  Exit 138 / Ghent Rd,I-77  Exit 144 / I-271  Exit 10,Northbound,1,0.216,0.071,4.79,41.156065814441455,-81.62639294,41.22534059616054,-81.62686006,Yes
379,447,14396093-8ac3-4e7f-bcc5-6037aeb5f0be,2024-01-09T08:22:41.000Z,2024-01-09T08:23:47.000Z,I-70,I-70  Exit 126 / OH-37 Lancaster Rd,Westbound,1,0.359,0.442,3.09,39.94683191091399,-82.45443568,39.94264845481072,-82.51302839,No
380,423,3d31eec9-ccc1-40f7-8ff7-c377931dbd16,2024-01-09T11:26:05.000Z,2024-01-09T11:40:03.000Z,OH-21,OH-21 Main St / Ohio & Erie Canalway Towpath Trl,Northbound,14,0.059,1.042,6.21,40.62602631144232,-81.54680486,40.71019,-81.52251,Yes
381,107,147c1335-3228-4ab9-b0ff-48025477f98f,2024-01-09T10:11:03.000Z,2024-01-09T10:31:06.000Z,US-250 / Fry Rd,US-30 / CR-16 Funk Rd,Westbound,20,1.088,0.821,5.44,40.79390648110389,-81.9935865,40.78567729052218,-82.09260823,Yes
382,109,2706369e-2312-46da-9e6e-325379089722,2024-01-09T22:33:42.000Z,2024-01-09T22:38:45.000Z,I-270,I-270,Northbound,5,0,0.175,3.32,40.03676,-82.90277,40.08399320627381,-82.90671774,Yes
383,449,362215ab-6df1-4db2-a8d6-2f3d901542f2,2024-01-09T11:29:40.000Z,2024-01-09T11:31:42.000Z,US-62 Coshocton St / Benedict Dr,US-62 Johnstown Rd / Clouse Rd,Southbound,2,0.271,0.153,5.23,40.150266272999424,-82.6944027,40.10929517128464,-82.77458738,Yes
384,25,17015d9a-19b2-4d3b-8919-bef073aa88c7,2024-01-09T10:16:04.000Z,2024-01-09T10:23:53.000Z,I-71,I-71,Northbound,8,0.939,0.63,5.13,40.87332217269008,-82.21927457,40.91437022,-82.1360697,Yes
385,118,923d565d-7510-47b0-a1a2-a940bc3bd6d9,2024-01-09T09:38:54.000Z,2024-01-09T09:44:56.000Z,US-62 Main St / OH-39,US-62 Jackson St,Westbound,6,0,0,5.37,40.55723,-81.81207,40.554961954230585,-81.9096049,Yes
386,120,881e4c8e-fe27-4534-8260-b0be052fbeef,2024-01-09T10:07:58.000Z,2024-01-09T10:26:55.000Z,US-22  Exit 241 / John Scott Hwy / John Scott Memorial Hwy,US-22 / CR-22 A,Westbound,19,0.193,0.479,4.02,40.38467883331549,-80.65955102,40.390049918175954,-80.72904012,Yes
387,446,dc890617-035e-4688-863e-5c9d43137091,2024-01-09T13:54:36.000Z,2024-01-09T13:55:47.000Z,OH-49 / County Road,M-49 Edon Rd / Burt Rd,Northbound,1,0.718,0.919,5.41,41.69352019303947,-84.7475,41.76666650913048,-84.74835558,Yes
388,56,2800cca9-d157-4197-8d4c-4b10a308375a,2024-01-09T21:23:05.000Z,2024-01-09T21:50:40.000Z,I-75  Exit 15 / Sharon Ave,I-75,Northbound,28,0,0.289,4.37,39.27451,-84.44036,39.33099641439414,-84.41446721,Yes
389,25,c7177d70-7282-4e84-872c-e9582568f604,2024-01-09T09:51:44.000Z,2024-01-09T09:55:37.000Z,I-71  Exit 169 / OH-13,I-71,Northbound,4,0.769,0,3.49,40.70072148124681,-82.50133081,40.73804389702666,-82.45859299,No
390,47,29de7686-f084-4345-baa0-e2216eb7725a,2024-01-09T08:00:53.000Z,2024-01-09T08:12:45.000Z,"I-270  Exits 46,46A,46B / US-33  Exits 131A,131B / US-33 Columbus-Lancaster Rd Exit 131B",I-270,Northbound,12,0.718,0.043,5.15,39.90542807825685,-82.89483223,39.963815139473546,-82.84279548,No
391,24,e9681d8f-abd3-4603-998a-fbeead729d29,2024-01-09T10:31:57.000Z,2024-01-09T10:35:05.000Z,US-30 / OH-511,US-30 / Township Road 1255,Westbound,3,0.924,0.022,3.36,40.78488,-82.30526806,40.78083999618674,-82.36882004,No
392,453,6f515d6a-5f65-4654-9896-afe718293aa9,2024-01-09T11:42:48.000Z,2024-01-09T12:01:41.000Z,OH-37 / Snoke Hill Rd,OH-664 Logan Thornville Rd / OH-37,Eastbound,19,0.684,0.073,4.93,39.72069984275111,-82.51868413,39.71819007595152,-82.42648956,Yes
393,127,6f3db5d6-e1ff-4c67-822a-cfb479599284,2024-01-09T09:19:03.000Z,2024-01-09T09:36:06.000Z,I-77,I-77,Northbound,17,0.443,0,4.61,39.77328646924742,-81.5476888,39.83732998,-81.54402001,Yes
394,127,7e31dadd-2b63-4e3d-8473-281ee4370536,2024-01-09T10:06:55.000Z,2024-01-09T10:22:58.000Z,I-77,I-77,Northbound,16,0.155,0.465,5.33,40.25803724290568,-81.55186425,40.32731509668788,-81.56927496,Yes
395,61,f230cc26-8b96-468a-b27c-5971df26324b,2024-01-09T21:28:57.000Z,2024-01-09T23:16:40.000Z,"I-270  Exits 17A,17B / OH-161  Exit 108",I-270  Exit 20 / CR-70 Sawmill Rd / Sawmill Rd,Northbound,108,0.5,0.275,4.47,40.10842,-83.11510996,40.11206643675161,-83.03151431,Yes
396,25,0e3623b5-0d9d-4ce1-a044-ec9d25315cb1,2024-01-09T10:33:54.000Z,2024-01-09T10:41:56.000Z,I-71,I-71,Northbound,8,0.477,0.315,5.28,40.87165321625692,-82.22526691,40.91117769339848,-82.14150461,Yes
397,47,8e754b93-7596-4b77-8b4e-7c385ec5bcef,2024-01-09T07:47:46.000Z,2024-01-09T07:59:44.000Z,"I-270  Exits 55A,55A-B,55B / I-71  Exits 100,101 / CR-135 Stringtown Rd",I-270,Northbound,12,0.971,0.195,4.47,39.89554,-83.04454,39.922407604407375,-83.11844839,Yes
398,69,b1bc3e4e-7b43-4648-b838-b0625afe3468,2024-01-09T10:11:03.000Z,2024-01-09T10:18:55.000Z,I-77,I-77,Southbound,8,0.152,0.154,5.23,40.67836124,-81.43506689,40.61345473360591,-81.48019156,Yes
399,438,8121459e-305b-4c20-aee2-2c38a8480ab8,2024-01-09T09:32:51.000Z,2024-01-09T09:47:53.000Z,OH-661 Granville Rd / Lohr Rd,Main St / Ames St,Northbound,15,0.246,0.111,5.18,40.30258003793161,-82.51154999,40.37337019647247,-82.48754997,Yes
400,437,9f8e37a3-6aae-4922-b25b-47176a82ff9b,2024-01-09T10:22:58.000Z,2024-01-09T10:27:58.000Z,I-76,I-76  Exit 10 / I-376  Exit 26 / Shenango Rd,Eastbound,5,0.687,1.15,5.41,40.91099,-80.51898,40.88177956532791,-80.42408934,Yes
401,77,ff3ec1d5-61ca-40d3-8d5c-b9000f37dce8,2024-01-09T10:36:40.000Z,2024-01-09T10:38:50.000Z,I-71,I-71,Southbound,2,0.836,0.876,4.19,40.77230486,-82.42033589,40.72710868222841,-82.47564121,Yes
402,77,d034693c-1062-4dd3-9589-e903c4b8b960,2024-01-09T10:39:05.000Z,2024-01-09T10:41:56.000Z,I-71,I-71,Southbound,3,0,0,4.33,40.90515,-82.15999,40.87121909,-82.22789338,Yes
403,77,990f1909-e4ee-4ce8-9c5d-8bf3a922c19b,2024-01-09T11:11:41.000Z,2024-01-09T12:24:52.000Z,I-71,I-71,Southbound,73,1.084,1.141,3.25,40.29271,-82.92508,40.24683193,-82.92895663,Yes
404,80,ae1de3ab-3929-4789-98de-019c8c542ea5,2024-01-09T22:56:50.000Z,2024-01-09T23:08:52.000Z,OH-315  Exit 4 / Lane Ave,OH-315  Exit 7 / Henderson Rd,Northbound,12,0,0.402,2.8,40.00385,-83.03035,40.03963092277993,-83.03089684,Yes
405,25,083561ee-60c7-4428-8813-570c6cb30b4d,2024-01-09T10:18:01.000Z,2024-01-09T10:25:01.000Z,I-71 / CR-92 Crider Rd / CR-291 Koogle Rd,I-71,Northbound,7,0.166,0.786,5.93,40.79125619775876,-82.40452486,40.83371716827124,-82.3058454,Yes
406,82,1b3056d5-ed99-44f7-9002-ea072bd3e274,2024-01-09T08:35:59.000Z,2024-01-09T08:49:49.000Z,I-70,I-70,Westbound,14,0.31,0.476,5.01,39.94050141211468,-82.34739946,39.9459436,-82.43969069,Yes
407,426,b0c46f74-6cba-4379-bc4c-324a3330f167,2024-01-09T10:02:57.000Z,2024-01-09T10:27:58.000Z,US-250 / Township Road 1404,US-250 / US-250 Ashland Rd / Camp Rd,Eastbound,25,0,0.203,5.54,40.85722,-82.2287,40.85118239460581,-82.12687565,Yes
408,433,55406b51-cf9a-4f67-8c52-6c2977ecd144,2024-01-09T11:36:04.000Z,2024-01-09T11:49:10.000Z,OH-43 Steubenville Rd / Apostle Rd,OH-39 Salineville Rd / OH-43 Steubenville Rd,Westbound,13,0.939,0.625,5.36,40.51748841665453,-81.01823556,40.57207723096084,-81.0783568,Yes
409,69,f29b2146-e353-43ad-b6b2-7a136a30a5cc,2024-01-09T09:42:57.000Z,2024-01-09T09:49:02.000Z,I-77  Exit 99 / Fohl St,I-77,Southbound,6,0.497,1.058,5.33,40.72532,-81.42138,40.653377016156895,-81.44852694,Yes
410,82,af690a79-5ab5-4575-8aad-0f14d49dbc71,2024-01-09T23:05:51.000Z,2024-01-09T23:11:37.000Z,I-70  Exit 97 / US-40 Broad St,I-70,Westbound,6,0.722,0.436,3.29,39.96626,-83.05865999,39.97654674084247,-83.11736424,Yes
411,430,f784bd7d-5994-4363-a111-1d84cf6499ee,2024-01-09T12:22:56.000Z,2024-01-09T12:26:51.000Z,OH-13 / CR-405 Bangorville Rd,OH-13 By Pass Rd / CR-6 Waterford Rd,Southbound,4,0.153,0.888,5.17,40.56322941762949,-82.53316027,40.49320086447109,-82.55772365,Yes
412,82,197e7a12-36d7-4d5a-ac4d-3be307f5df33,2024-01-09T11:15:51.000Z,2024-01-09T11:17:51.000Z,I-70,I-70,Westbound,2,0.622,0.461,4.14,39.94756897503185,-82.65589084,39.95164003456683,-82.73594066,Yes
413,69,f47a17ad-b9eb-4608-bbc8-a92831603673,2024-01-09T09:36:06.000Z,2024-01-09T09:44:56.000Z,I-77,I-77,Southbound,9,0.776,0.753,3.46,39.94020902168582,-81.53326976,39.89130168803276,-81.53170265,Yes
414,64,142ba10c-1287-491c-812f-c0bdcabb6ee3,2024-01-09T11:36:04.000Z,2024-01-09T12:19:57.000Z,I-480  Exit 13 / Tiedeman Rd,"I-480  Exits 17,17A-B / OH-176 Jennings Fwy Exits 16A,16B / OH-17 Granger Rd",Eastbound,44,0.201,0,3.04,41.42586140535877,-81.76283751,41.42119556440773,-81.70584475,Yes
415,29,1fdeb7e7-d4fc-41ee-abd9-ea025ec13af0,2024-01-09T11:03:00.000Z,2024-01-09T11:09:02.000Z,OH-21 / CR-206 Edwards Rd / Great Lakes Blvd,OH-21 / Arcadia St,Southbound,6,0.715,0.585,5.12,40.95192257000832,-81.65802946,40.88972218086662,-81.62155739,Yes
416,74,95d0b000-170d-4f52-ba23-6a6e59fce240,2024-01-09T08:24:44.000Z,2024-01-09T08:32:47.000Z,"I-70  Exits 103A,103B / Alum Creek Dr",I-70,Eastbound,8,0.035,0.044,3.85,39.94360929276999,-82.94150945,39.93670945943828,-82.87783554,Yes
