,BottleneckSummaryIndex,Id,StartDate,EndDate,FromIntersectionName,ToIntersectionName,Direction,MaxDurationMinutes,StartSegmentOffsetMiles,EndSegmentOffsetMiles,MaxLengthMiles,FromPointLat,FromPointLon,ToPointLat,ToPointLon,label
0,155,e880761d-2eda-4acb-90c5-e238197a7e16,2023-03-14T04:37:13.000Z,2023-03-14T04:45:17.000Z,US-30 / OH-267 / OH-7,OH-11  Exit 34 / CR-109 Raccoon Rd,Northbound,8,0.487,1.453,25.94,40.68512,-80.63954,41.01704083846439,-80.73916877,Yes
1,208,d73b084f-cddf-458f-9869-44528d006f81,2023-03-14T04:07:44.000Z,2023-03-14T04:47:40.000Z,OH-11,US-30 / CR-447 Dresden Ave / OH-170,Southbound,40,0.314,0.846,16.77,40.87304414035675,-80.73067635,40.67439790724389,-80.61872695,Yes
2,297,69bc9158-9e04-4fac-8c9f-b2205e5b90b0,2023-03-14T01:36:30.000Z,2023-03-14T03:22:51.000Z,I-77,I-77  Exit 157 / Crossover / Sr-21,Northbound,106,0.913,0.482,16.89,41.18066219884447,-81.62559706,41.42142074071749,-81.64419936,Yes
3,155,cfbfaabe-0b1f-4420-90fb-8f8aa3ecea57,2023-03-14T04:44:06.000Z,2023-03-14T05:13:26.000Z,US-30,OH-11  Exit 34 / CR-109 Raccoon Rd,Northbound,29,0,1.453,23.79,40.70196583,-80.67234636,41.01704083846439,-80.73916877,Yes
4,376,9cdcd34a-6a17-4a0e-bf51-13a51950d9cf,2023-03-14T11:16:09.000Z,2023-03-14T11:51:55.000Z,OH-49 Salem Ave,Riverview Ave / Salem Ave / 1st St,Eastbound,36,0.391,0.023,7.05,39.83289738388001,-84.29782116,39.76238102,-84.20514652,Yes
5,75,6513614f-c4cc-4341-b608-e0bdfdff1b5d,2023-03-14T13:07:24.000Z,2023-03-14T13:51:53.000Z,I-70,I-70,Eastbound,44,0.279,0.805,14.82,39.85592194396897,-85.05416861,39.82849,-84.79985975,Yes
6,75,f342f230-10b1-4f56-a48b-10a801a318ed,2023-03-14T11:58:52.000Z,2023-03-14T13:19:26.000Z,I-70,I-70,Eastbound,81,0.074,0.403,14.16,39.85933,-85.01950792,39.82846001860004,-84.77865038,Yes
7,75,7dfa0558-8ea5-4064-bf61-6aa1fa06dc13,2023-03-14T10:07:06.000Z,2023-03-14T11:58:52.000Z,I-70,I-70,Eastbound,112,0.678,0.634,14.99,39.86512176093031,-84.94112914,39.835365169020925,-84.68557228,Yes
8,4,69a30d1f-48cb-41a2-a0d1-b0bff5801b22,2023-03-14T12:19:11.000Z,2023-03-14T13:40:58.000Z,I-71  Exit 117 / OH-161 Dublin Granville Rd,I-71  Exit 108B / US-40 Broad St,Southbound,82,0.048,0.409,8.18,40.08268953625885,-82.98773004,39.97004,-82.98418,Yes
9,203,7f083cda-0662-42e3-87b9-27bf735383a0,2023-03-14T11:10:06.000Z,2023-03-14T11:14:59.000Z,OH-49 Salem Ave,Salem Ave / Emerson Ave,Eastbound,5,1.077,0,6.86,39.84496,-84.31816,39.78068,-84.22291,Yes
10,63,12749aa9-251a-4065-98b3-ec0f1c2d372d,2023-03-14T04:38:43.000Z,2023-03-14T04:41:57.000Z,US-30 / CR-447 Dresden Ave / OH-170,OH-11,Northbound,3,0.681,0.436,17.7,40.676354413954094,-80.624618,40.88998040294576,-80.7234335,No
11,170,7bd8b12d-be9f-4434-9eb2-d541b8847534,2023-03-14T10:51:22.000Z,2023-03-14T10:55:37.000Z,OH-49 Salem Ave,Salem Ave / Kenilworth Ave,Eastbound,4,0.152,0.445,8.23,39.851129957441024,-84.33362989,39.77577990536061,-84.21755991,Yes
12,78,9c07d102-74e6-4bd6-b2b3-fb6ad1bb7e90,2023-03-14T10:24:10.000Z,2023-03-14T11:45:23.000Z,I-70,I-70,Westbound,81,0.279,0.306,13.59,39.83080788007838,-84.81360351,39.85788287899955,-85.04589934,Yes
13,99,d36c848c-cceb-4ced-b0f7-c441e2e4c790,2023-03-14T03:20:55.000Z,2023-03-14T03:58:50.000Z,US-422,I-271  Exit 29 / US-422 Chagrin Blvd / OH-87 Chagrin Blvd,Westbound,38,0.729,0.334,8.75,41.389322269506174,-81.39800552,41.46218113208535,-81.48863909,Yes
14,99,40e6cd44-a7ba-41e3-909e-646e50d315d5,2023-03-14T03:58:50.000Z,2023-03-14T04:22:23.000Z,US-422  Exit 16 / Harper Rd,I-271  Exit 29 / US-422 Chagrin Blvd / OH-87 Chagrin Blvd,Westbound,24,0.178,0.334,4.86,41.40583042,-81.46632046,41.46218113208535,-81.48863909,Yes
15,73,b09efa0b-ff9b-4b70-ad28-599426179290,2023-03-14T11:18:50.000Z,2023-03-14T12:54:28.000Z,I-275,I-275  Exit 47 / Reed Hartman Hwy,Northbound,96,0.964,0.085,9.31,39.17743277281754,-84.26679035,39.27726053661524,-84.35938073,Yes
16,263,4a1e7e65-b513-48c6-ac8e-7cb49d42b4c3,2023-03-14T11:36:46.000Z,2023-03-14T12:20:46.000Z,I-275  Exit 46 / US-42 Lebanon Rd,I-275  Exit 57 / OH-28,Northbound,44,0.302,1.401,10.06,39.29065999357872,-84.3850198,39.192142329757296,-84.26277941,Yes
17,312,5766ff9e-c10b-4931-8abf-c8a7065a6d9e,2023-03-14T11:28:23.000Z,2023-03-14T11:41:35.000Z,"I-77  Exits 122A,122B / I-277  Exits 4A,4B / US-224  Exit 4B",OH-59  Exit 3B / Gorge Blvd / Corwin Ave,Northbound,13,0.257,0.462,6.23,41.02368009703193,-81.4990001,41.11087672237008,-81.49695491,Yes
18,195,aa86812f-ee66-4567-b700-464bba875bbe,2023-03-14T11:46:45.000Z,2023-03-14T12:32:59.000Z,I-90  Exit 166 / 117th St,I-90  Exit 171 / 14th St / Fairfield Ave,Eastbound,46,0,0.109,4.72,41.46606,-81.77328,41.48032370824834,-81.69268266,Yes
19,63,60670524-3e05-475a-a353-d1b6cff9c7cb,2023-03-14T04:18:48.000Z,2023-03-14T04:57:16.000Z,OH-11  Exit 84 / OH-307,OH-11,Northbound,38,0.486,0.207,9.83,41.70520010082722,-80.71038997,41.83581031881644,-80.76552001,Yes
20,141,715478b5-2007-4f5a-b0cc-df8516a015b5,2023-03-14T13:21:13.000Z,2023-03-14T13:27:38.000Z,I-70,I-70,Eastbound,6,0.953,0.261,9,39.86275535013774,-84.95576577,39.82907992153987,-84.8100297,No
21,73,f82a859c-fda0-4944-a4f3-8c0ee112b362,2023-03-14T12:38:36.000Z,2023-03-14T12:43:10.000Z,I-275  Exit 57 / OH-28,I-275  Exit 47 / Reed Hartman Hwy,Northbound,5,1.247,0.557,9.5,39.18242,-84.26487,39.281891394979226,-84.36564186,No
22,132,5cf078de-43bc-402c-bc5c-0e0043cc08e2,2023-03-14T04:09:22.000Z,2023-03-14T05:15:52.000Z,US-422,US-422 / US-422 Main Market Rd / Shaw Rd,Eastbound,67,1.084,1.017,13.33,41.39486912082554,-81.44678568,41.383470053087656,-81.19296942,Yes
23,73,404810f6-c7bd-4751-9904-3d43325dcfc9,2023-03-14T12:34:57.000Z,2023-03-14T12:37:40.000Z,I-275  Exit 57 / OH-28,I-275  Exit 47 / Reed Hartman Hwy,Northbound,3,1.247,0.085,9.03,39.18242,-84.26487,39.27726053661524,-84.35938073,No
24,141,987583e2-336e-4292-a48f-343f68fc1bcd,2023-03-14T13:36:11.000Z,2023-03-14T13:39:22.000Z,I-70,I-70,Eastbound,3,0.164,0.511,10.04,39.86034332211568,-84.97106343,39.82846000562992,-84.80540981,No
25,379,de38207c-62ff-4cff-b046-7c482ac336e9,2023-03-14T12:28:26.000Z,2023-03-14T12:54:28.000Z,"I-71  Exits 109A,109B,110A / I-670  Exits 4A,4A-B,4B,4C,5,5A-5B / Goodale St",I-71  Exit 115 / Cooke Rd,Northbound,26,0,0.027,4.04,39.97343,-82.98321,40.02863641048808,-82.99412982,Yes
26,141,678f629d-0698-4055-9039-11b69f97063f,2023-03-14T09:45:10.000Z,2023-03-14T10:07:06.000Z,I-70,I-70,Eastbound,22,0.88,0.946,8.67,39.865710766398166,-84.93731468,39.82849,-84.79754354,Yes
27,141,c302b795-d25e-4822-acfd-dfe48e36a7bc,2023-03-14T13:47:44.000Z,2023-03-14T13:52:37.000Z,I-70,I-70,Eastbound,5,0.582,0.368,8.4,39.86489004572944,-84.94253972,39.828779385218745,-84.80869189,No
28,30,9181067c-115e-4de7-9808-fc4555537b69,2023-03-14T03:40:53.000Z,2023-03-14T04:12:09.000Z,I-271,I-271 / I-90,Northbound,31,1.366,0.251,9.72,41.48289,-81.48666,41.60369239795016,-81.43648206,Yes
29,78,73ca6647-7d98-4d1d-8ef4-86cc074cc1ac,2023-03-14T14:02:54.000Z,2023-03-14T14:06:44.000Z,I-70,I-70,Westbound,4,0.792,0.044,10.38,39.83569167733226,-84.68989211,39.86951044571142,-84.86446105,Yes
30,63,01450380-98e2-43f3-945e-49f7b4c4ae1c,2023-03-14T04:12:54.000Z,2023-03-14T04:30:42.000Z,OH-11,OH-11,Northbound,18,0.467,0,7.33,40.86564152098467,-80.73291365,40.968643337199815,-80.71953493,Yes
31,153,26b37307-9c2c-4dd4-ae45-5f69d5b18d2d,2023-03-14T09:57:27.000Z,2023-03-14T12:14:35.000Z,"I-675  Exits 13A,13A-B,13B / US-35",US-35 / Perry St / Zeigler St,Westbound,137,0.047,0.199,5.05,39.73833067097006,-84.09820124,39.75258418444142,-84.18809489,Yes
32,262,fd30d0e5-1dee-49e4-9d80-371d35951e3c,2023-03-14T12:43:10.000Z,2023-03-14T13:14:00.000Z,"I-270  Exits 41-43,43A-B-41 / I-70  Exits 108,108A-B / US-40 Main St","I-70  Exits 101A,101B / I-71  Exits 107,108A / Parsons Ave",Westbound,31,0.078,0,7.19,39.93437011800732,-82.85665197,39.95443,-82.97468,Yes
33,312,f86bc816-67de-4408-98ab-cdb68ccb99e1,2023-03-14T12:18:01.000Z,2023-03-14T12:33:00.000Z,"I-77  Exits 122A,122B / I-277  Exits 4A,4B / US-224  Exit 4B",OH-59  Exit 3B / Gorge Blvd / Corwin Ave,Northbound,15,0.42,0.306,5.91,41.025500099180384,-81.50100011,41.10901900282251,-81.49796982,Yes
34,249,52accdf0-b5a9-4871-80a6-b6cce1eb327f,2023-03-14T13:06:14.000Z,2023-03-14T13:22:32.000Z,I-70,"I-70  Exits 149A,149B / US-35 / IN-38",Westbound,16,0.934,0,9.66,39.83045225221412,-84.73191758,39.8719,-84.89284,Yes
35,97,50119c8c-2705-4960-af23-e6543355fb4e,2023-03-14T12:26:21.000Z,2023-03-14T13:29:37.000Z,US-62 / Stygler Rd,"I-670  Exits 2A,2B,3 / OH-315  Exits 1C,1D,1E,1F,2 / Goodale St",Westbound,63,0,0.189,6.06,40.01452,-82.90482,39.97596931455785,-82.99617714,Yes
36,78,ab26c24d-7e77-4459-8ffd-1747d20bf39d,2023-03-14T13:27:38.000Z,2023-03-14T14:06:44.000Z,I-70,I-70,Westbound,39,1.036,0.044,10.14,39.8357,-84.69688,39.86951044571142,-84.86446105,Yes
37,203,f1ac0315-c0c7-4a3f-bca6-34aa90c2b953,2023-03-14T10:52:30.000Z,2023-03-14T11:01:34.000Z,Salem Ave,Salem Ave / Emerson Ave,Eastbound,9,0.704,0,3.46,39.81395769023274,-84.27044596,39.78068,-84.22291,Yes
38,139,00cc2870-1f03-4fd0-943b-b8ee97a5ce3d,2023-03-14T13:32:34.000Z,2023-03-14T13:44:49.000Z,I-70,I-70  Exit 151 / US-27 Chester Blvd,Westbound,12,0.934,0.967,10.13,39.83506968250914,-84.71424198,39.87282,-84.88077731,No
39,78,89ecc659-9a96-4026-a31d-04208add6416,2023-03-14T13:56:01.000Z,2023-03-14T13:58:55.000Z,I-70,I-70,Westbound,3,1.036,0.167,10.09,39.8357,-84.69688,39.86893769094384,-84.86307032,No
40,249,ecc40a7a-d7ca-41ff-99c8-7a74d15744c3,2023-03-14T13:21:13.000Z,2023-03-14T13:22:32.000Z,I-70,"I-70  Exits 149A,149B / US-35 / IN-38",Westbound,1,0.494,0,9.01,39.828779454641946,-84.74509659,39.8719,-84.89284,No
41,337,e63ac438-9ede-4183-a4d8-65b4b6ffd03e,2023-03-14T03:37:33.000Z,2023-03-14T04:16:15.000Z,CR-400 Georgetown Rd / Perry St,Louisville St / CR-400 Georgetown Rd / Mahoning Ave,Westbound,39,0.679,0.497,11.78,40.89315932801927,-80.87780146,40.83499999808276,-81.07552005,Yes
42,145,3ff84025-3721-487b-ae68-185e53c17f55,2023-03-14T03:20:55.000Z,2023-03-14T04:19:32.000Z,OH-11  Exit 73 / US-322,US-322 / OH-7,Eastbound,59,0.855,0.607,7.35,41.53575,-80.71251597,41.53319276504204,-80.57242074,Yes
43,280,f309e17c-53a5-453d-9c51-3268a4b90118,2023-03-14T12:01:02.000Z,2023-03-14T12:04:00.000Z,Salem Ave / Annapolis Ave,Salem Ave / Kenwood Ave,Eastbound,3,0.757,0.518,2.9,39.803876764760375,-84.25518118,39.774909774516495,-84.21676979,Yes
44,200,d6f96dfb-b9a0-4d2d-aa33-fccffc3886da,2023-03-14T10:58:05.000Z,2023-03-14T11:54:05.000Z,OH-48 Far Hills Ave / Tranquil Trl,OH-48 / Riley Wills Rd,Southbound,56,0.364,0.722,9.28,39.63902483695456,-84.15797327,39.51234825833265,-84.19046465,Yes
45,64,a8271baa-3384-43b1-82e7-f7f3ed3789d0,2023-03-14T10:16:31.000Z,2023-03-14T10:30:29.000Z,OH-571 / Aldrich Rd,OH-571 / Jaysville-St Johns Rd,Westbound,14,0.593,0,10.12,40.015280027815706,-84.43801006,40.09438741102864,-84.59514565,Yes
46,193,ce3b47c6-9e88-4405-9288-c6a75cb26609,2023-03-14T03:57:42.000Z,2023-03-14T04:26:59.000Z,I-480  Exit 26A / I-271  Exit 26 / Rockside Rd,I-271,Northbound,29,0.526,0.175,4.7,41.41903895620967,-81.50861493,41.483055380108816,-81.48637524,Yes
47,104,a1841b44-8b48-4731-a3a9-d83265ff76d7,2023-03-14T14:19:46.000Z,2023-03-14T14:34:02.000Z,I-70,I-70  Exit 153 / IN-227,Westbound,14,0.792,0.301,9.44,39.83569167733226,-84.68989211,39.86278925884192,-84.84900697,Yes
48,148,5dee84c5-6e28-4876-b743-5b3b7216e0c1,2023-03-14T03:48:45.000Z,2023-03-14T04:24:32.000Z,US-422,US-422,Eastbound,36,1.02,0.949,7.37,41.38876577,-81.39495444,41.38245046931379,-81.25580897,Yes
49,215,8f5988e8-b884-4797-8302-0f02e3ff69ea,2023-03-14T11:30:03.000Z,2023-03-14T11:34:52.000Z,I-90,I-90  Exit 165 / Marginal Dr,Eastbound,5,0.939,0.096,7.84,41.46858000037259,-81.96932731,41.47150536,-81.81980563,Yes
50,216,802d58ab-32f2-4971-a9ef-7c7940e84927,2023-03-14T10:58:05.000Z,2023-03-14T12:38:37.000Z,OH-48,OH-48 Far Hills Ave / Rahn Rd,Northbound,101,0.517,0.684,8.87,39.53952607497251,-84.16877383,39.666710394430446,-84.16184554,Yes
51,147,948b1ba1-efbf-41a9-b57b-f1a2c70af205,2023-03-14T10:57:33.000Z,2023-03-14T11:21:52.000Z,US-40 Main St / 13th St,US-40,Eastbound,24,0.212,0.446,9.1,39.82936370014659,-84.88439221,39.841142379932734,-84.71341049,Yes
52,249,bde456b7-579a-4b42-a1c3-467e1e9a099c,2023-03-14T12:34:57.000Z,2023-03-14T13:02:02.000Z,I-70 / I 70 Wb Rest Area,"I-70  Exits 149A,149B / US-35 / IN-38",Westbound,27,0,0.413,8.39,39.82878,-84.76552,39.87114999841308,-84.90057001,Yes
53,132,1a0b0988-8775-443f-ae8d-f5ee2432871a,2023-03-14T04:27:42.000Z,2023-03-14T05:00:57.000Z,US-422,US-422 / US-422 Main Market Rd / Shaw Rd,Eastbound,33,1.02,1.017,10.55,41.38876577,-81.39495444,41.383470053087656,-81.19296942,No
54,1,3e1ee5e8-1899-435f-9b40-073223c06d10,2023-03-14T09:49:14.000Z,2023-03-14T10:31:51.000Z,US-6 Lake Rd / Daylon Ct,US-6 Cleveland Rd / Newport Dr,Westbound,43,0.252,0.201,8.15,41.41551792,-82.38538732,41.38733002144164,-82.52841028,Yes
55,392,66504b1c-5310-43c4-bd3d-808c3f00fedd,2023-03-14T10:18:17.000Z,2023-03-14T10:46:15.000Z,US-6,OH-46 / US-6,Westbound,28,1.044,0,9.73,41.60706,-80.59218,41.60533,-80.78032,Yes
56,367,203325c5-da70-4d3c-bedb-6c451d723b1d,2023-03-14T08:46:08.000Z,2023-03-14T10:27:48.000Z,I-75  Exit 68 / OH-571 Main St,I-75  Exit 59 / Benchwood Rd,Southbound,102,0.387,0.266,7.01,39.95940683,-84.18955614,39.857657365658135,-84.18962523,Yes
57,374,913ca510-2a3f-4201-b68c-bb25b3d00cbc,2023-03-14T10:57:26.000Z,2023-03-14T11:46:45.000Z,OH-162 Chatham Rd,OH-162 Chatham Rd / Carsten Rd,Eastbound,49,0,0.3,7.23,41.09986357,-82.10058,41.101180129293965,-81.96217932,Yes
58,418,b5e16a6f-5fd7-4ea4-b25f-cf437c88248f,2023-03-14T04:30:42.000Z,2023-03-14T04:59:17.000Z,OH-11  Exit 61 / OH-5 Warren Rd / OH-5,OH-7 / OH-7 Main St / OH-5,Northbound,29,0.018,0.174,8.54,41.37019139857338,-80.69818791,41.44033,-80.5884,Yes
59,359,8e552a6a-2414-4126-abd3-04754b29571b,2023-03-14T10:45:56.000Z,2023-03-14T11:14:59.000Z,OH-49 Salem Ave,OH-49 / US-35 / US-35 3rd St,Southbound,29,0.151,0.09,8.67,39.851129957441024,-84.33362989,39.74647,-84.28874,Yes
60,399,257fe3f9-d079-4649-bf88-89953154eda1,2023-03-14T04:26:59.000Z,2023-03-14T04:28:03.000Z,OH-18 / OH-601 / Greenwich Milan Townline Rd,OH-60 / Ferry Rd,Eastbound,1,0.552,0.275,8.52,41.233824241638885,-82.54262117,41.18191870639691,-82.41065102,Yes
61,128,1f2ef523-cf44-4b85-882e-05df41a9ef6d,2023-03-14T11:37:15.000Z,2023-03-14T11:53:07.000Z,I-90  Exit 169 / 44th St,I-90  Exit 173A / Prospect Ave,Eastbound,16,0.429,0.094,3.32,41.474825699067935,-81.71380184,41.49926347,-81.67171479,Yes
62,290,4bfcca10-0a01-428b-81f7-4a1f815c66bc,2023-03-14T10:53:32.000Z,2023-03-14T11:31:12.000Z,OH-73 / Country Brook Ct,OH-73 / Caesars Creek State Park,Eastbound,38,0.306,0.353,8.48,39.545330170013365,-84.1685683,39.51059915787579,-84.02694919,Yes
63,106,56d82098-1142-4ba6-9499-bb5631972831,2023-03-14T07:24:47.000Z,2023-03-14T07:43:04.000Z,OH-10 / US-20 / OH-57,US-20,Westbound,18,0.198,0.783,6.95,41.33138,-82.06931,41.28234916435559,-82.18412125,Yes
64,72,2cbc1d72-1977-456c-a0a6-12f65b5381ab,2023-03-14T12:49:43.000Z,2023-03-14T13:19:23.000Z,CR-4 Smith Rd / Carsten Rd,CR-4 Smith Rd / OH-301 / OH-301 Spencer Rd,Westbound,30,1.136,0,8.35,41.1359,-81.96234,41.136722097316685,-82.12135093,Yes
65,325,ef665188-d9be-47c3-af3b-79275fc1027e,2023-03-14T10:45:56.000Z,2023-03-14T10:49:12.000Z,Salem Ave / Elsmere Ave,Salem Ave / Harvard Blvd,Eastbound,3,0.611,0.708,1.22,39.78528,-84.23037,39.772659962996585,-84.21470997,Yes
66,56,96ea1761-3c91-4940-bd8b-d3e87f8cddca,2023-03-14T11:36:14.000Z,2023-03-14T12:17:18.000Z,OH-73 / Country Brook Ct,OH-73,Eastbound,41,0.368,0.305,10.41,39.54545002355256,-84.16732976,39.49966898386598,-83.99736392,Yes
67,209,aa073a4d-27b4-4315-9c3d-0dd08d6e72b0,2023-03-14T11:47:58.000Z,2023-03-14T11:49:36.000Z,Salem Ave / Elsmere Ave,Salem Ave / Dartmouth Dr,Eastbound,2,0.611,0.615,1.12,39.78528,-84.23037,39.774727586939406,-84.21660028,No
68,164,c37ddc79-542f-477b-aecf-76b26fdb4cab,2023-03-14T04:29:09.000Z,2023-03-14T05:02:43.000Z,OH-11  Exit 61 / OH-5 Warren Rd / OH-5,"OH-11  Exits 51A,51B / OH-82",Southbound,34,0.134,1.116,9.56,41.370599764739175,-80.70008289,41.23397734855651,-80.71015719,Yes
69,50,04895e37-b59e-4d2f-8f72-3d9425bbb3e7,2023-03-14T03:27:23.000Z,2023-03-14T03:55:39.000Z,OH-11,OH-11,Southbound,28,0.613,0.957,9.77,41.75781500268042,-80.71612495,41.619925687367775,-80.71355961,Yes
70,225,e0cce7ae-ed51-481c-b6b8-d50b2a009155,2023-03-14T11:11:49.000Z,2023-03-14T11:18:50.000Z,OH-49 Salem Ave,Salem Ave,Eastbound,7,0.152,0.951,6.61,39.851129957441024,-84.33362989,39.79076023,-84.24152383,Yes
71,57,83220691-6f36-4296-b755-5f262d12e770,2023-03-14T03:11:51.000Z,2023-03-14T03:28:58.000Z,I-480  Exit 21 / Transportation Blvd / Antenucci Blvd,"I-271  Exits 27A-B,27B / I-480  Exit 13A / US-422  Exit 13B",Eastbound,17,0.692,0.246,5.27,41.41365165700754,-81.60265006,41.42893316406911,-81.50672036,Yes
72,288,fec5971a-8733-44ca-99cc-e983057d46b4,2023-03-14T04:53:06.000Z,2023-03-14T05:24:59.000Z,OH-5 Main St / OH-5 / OH-7,OH-7,Northbound,32,0.158,1.022,9.59,41.46009,-80.57596,41.59767,-80.57127,Yes
73,68,16eb5671-abdc-423c-858d-41ed51b1391f,2023-03-14T06:16:57.000Z,2023-03-14T06:26:10.000Z,OH-2,OH-2,Westbound,9,0.492,0.08,6.38,41.36725013789383,-82.50896626,41.40587001164512,-82.59810014,Yes
74,135,5f1cb932-c600-4106-ab49-0d321f4e089e,2023-03-14T06:47:40.000Z,2023-03-14T07:16:25.000Z,US-42 Lafayette Rd / OH-421 Lafayette Rd / US-224,US-42 Lafayette Rd,Eastbound,29,0.113,1.017,7.54,41.04890134573533,-81.99286825,41.12340199473163,-81.89647402,Yes
75,59,a289cf28-d123-4a2c-a267-2cf03026f08c,2023-03-14T09:14:46.000Z,2023-03-14T09:23:56.000Z,US-68 / Winchester Rd,US-68 / CR-5 Port William Rd / CR-5 New Burlington Rd,Southbound,9,0.333,0.297,5.84,39.63524871428266,-83.89742294,39.56189977220448,-83.84786003,Yes
76,243,d6eb3d43-f550-4129-a988-26990add5eee,2023-03-14T09:01:47.000Z,2023-03-14T09:11:56.000Z,OH-571 Martin St,US-36 / CR-28 Old Us-36,Eastbound,10,0,0.595,7.18,40.09898,-84.60831,40.11263216730298,-84.47784862,Yes
77,257,44742530-1e10-4f5e-9498-407dda4c06c5,2023-03-14T20:11:34.000Z,2023-03-14T21:34:18.000Z,"I-75  Exits 2,2B / Winchell Ave / Western Hills Viad",I-71 / I-75,Southbound,83,0.233,0.129,2.1,39.12337989448778,-84.53557,39.097171434839694,-84.52234935,Yes
78,423,fedba189-c4a9-4fc2-8a00-0dbfc30f8de8,2023-03-14T12:06:24.000Z,2023-03-14T12:32:58.000Z,OH-41 / CR-16 Cemetery Rd / Frog Hollow Rd,OH-41 Main St / Grand St,Northbound,27,0.903,0.066,7.05,38.97984861596445,-83.38315477,39.07372019288718,-83.38672,Yes
79,57,95f9aade-8e6d-46b7-8d6e-c27efb0b9a0e,2023-03-14T03:36:04.000Z,2023-03-14T03:45:02.000Z,I-480  Exit 22 / OH-17 Granger Rd,"I-271  Exits 27A-B,27B / I-480  Exit 13A / US-422  Exit 13B",Eastbound,9,0.909,0.246,5.05,41.41461,-81.59828,41.42893316406911,-81.50672036,Yes
80,402,525be662-1a98-455d-b806-8f4b6d8f863e,2023-03-14T05:58:51.000Z,2023-03-14T06:18:08.000Z,OH-511 / OH-303,OH-511 / Bursley Rd,Southbound,19,0.805,0.487,7.9,41.23705197496376,-82.30425827,41.12165520160519,-82.30346959,Yes
81,122,11559678-173e-4d13-acb0-a9c10c702c25,2023-03-14T11:18:50.000Z,2023-03-14T12:43:10.000Z,I-75  Exit 14 / Glendale Milford Rd / Vision Way,I-75  Exit 7 / OH-562,Southbound,84,0.402,0.758,5.31,39.252136613921294,-84.44454679,39.18373999,-84.48389001,Yes
82,50,1166fa1e-02e1-4985-8e95-bcfa333acf75,2023-03-14T03:22:07.000Z,2023-03-14T03:40:53.000Z,OH-11,OH-11,Southbound,19,0.173,0.119,7.37,41.33235109430717,-80.70528905,41.22645274115761,-80.70943871,Yes
83,228,36f41e6f-067f-43af-8561-3d16e14effe1,2023-03-14T10:46:15.000Z,2023-03-14T11:04:53.000Z,OH-303 Main St,OH-511 / OH-303,Westbound,19,0.858,1.375,8.71,41.23725465535422,-82.13440094,41.23755,-82.3033412,Yes
84,122,27cdd731-8a37-491a-9258-8e6216d541a1,2023-03-14T20:46:57.000Z,2023-03-14T22:01:52.000Z,I-75  Exit 13 / Shepherd Ln / Shepherd Ave,I-75  Exit 7 / OH-562,Southbound,75,0,0.758,4.48,39.24069,-84.45119,39.18373999,-84.48389001,Yes
85,237,1dbff9e0-12a3-46b1-bf4a-66acdc12c432,2023-03-14T03:17:47.000Z,2023-03-14T03:33:55.000Z,OH-37 / OH-161 / OH-37 Johnstown-Alexandria Rd,OH-161 / Beech Rd,Westbound,16,0.399,0,7.52,40.07308991297915,-82.61864085,40.07992830915329,-82.75905452,Yes
86,108,98fc20ca-5bd5-452d-9dbc-7c59d3e4b646,2023-03-14T10:55:42.000Z,2023-03-14T11:08:28.000Z,I-90  Exit 155 / Nagel Rd / Avon Rd,I-90  Exit 161 / OH-2 Detroit Rd / OH-254 Detroit Rd,Eastbound,13,0.259,0.209,6.52,41.46663456646037,-81.98219883,41.47225881093109,-81.85874503,Yes
87,78,3971fc3e-361d-4b5b-a609-103d812bec0d,2023-03-14T14:39:24.000Z,2023-03-14T15:37:49.000Z,I-70,I-70,Westbound,58,0,0.186,7.25,39.83567121,-84.67734654,39.83020008494857,-84.81238017,Yes
88,258,555cfbff-eaf9-45c9-9add-f13e72bafbff,2023-03-14T04:01:28.000Z,2023-03-14T04:06:00.000Z,US-42 Lafayette Rd / CR-24 Columbia Rd,US-42 Lafayette Rd / OH-421 Lafayette Rd / US-224,Westbound,5,0.354,0.912,5.84,41.114579053733294,-81.9237331,41.04991990710212,-81.99154012,Yes
89,256,757d050d-6493-4b96-baef-a042bd59063c,2023-03-14T09:10:47.000Z,2023-03-14T09:16:10.000Z,I-75  Exit 57 / Keats Dr / Neff Rd,I-75  Exit 53 / 1st St / 2nd St,Southbound,5,0.256,0.332,3.14,39.802515447689984,-84.18956127,39.76363994789359,-84.20002002,Yes
90,248,0f7da853-02fd-4fee-8933-af7e06f01996,2023-03-14T09:11:24.000Z,2023-03-14T09:18:29.000Z,OH-800 Freeport Rd / OH-800 Hendrysburg Freeport Rd / Blake Rd,OH-800 Hendrysburg Freeport Rd / Main Street Hendrysburg,Southbound,7,0.531,0.145,7.39,40.137087824537325,-81.22525468,40.06086779462243,-81.185043,Yes
91,78,856ad04e-4db5-4d85-a020-a91b739f61a8,2023-03-14T10:15:46.000Z,2023-03-14T13:15:55.000Z,"I-75  Exit 61 / I-70  Exits 33,33A,33B",I-70,Westbound,180,0.766,0.726,5.62,39.86533344919721,-84.19229802,39.85550998616475,-84.29666646,Yes
92,268,17536618-34d6-4094-99dd-e4f3df8c02ed,2023-03-14T10:26:16.000Z,2023-03-14T10:32:55.000Z,OH-58 Main St,OH-58 Main St / Jones St,Southbound,7,1.007,0,7.3,41.27988,-82.21774,41.17538109556381,-82.21736036,Yes
93,284,32b8715b-ddbc-447b-987b-9712eca980cb,2023-03-14T05:22:26.000Z,2023-03-14T05:41:47.000Z,OH-7 / Alley,OH-7 / CR-44 Kingsdale Rd / Kingsdale Rd,Southbound,19,0.107,0.213,7.04,40.51899423,-80.6254096,40.425989863893314,-80.61655996,Yes
94,281,c68b75c5-710c-47fc-b34c-d6f247e3c0eb,2023-03-14T11:54:45.000Z,2023-03-14T11:59:11.000Z,I-90  Exit 155 / Nagel Rd / Avon Rd,OH-2 Detroit Rd,Eastbound,4,0.102,0.477,7.16,41.46607084105189,-81.98385753,41.47527000294756,-81.85050999,Yes
95,394,fe9193d7-4962-4391-a81d-33245e18db34,2023-03-14T11:01:37.000Z,2023-03-14T11:34:25.000Z,OH-309 / Township Road 25,OH-309 Harding Hwy / Pine Haven Dr,Westbound,33,0.632,0.409,7.43,40.732479017789046,-83.87427694,40.73113000903653,-84.01681426,Yes
96,230,e3dbcade-73b6-47d5-a752-d081ae2de0a6,2023-03-14T11:54:57.000Z,2023-03-14T12:57:47.000Z,OH-161,"I-270  Exits 30,33 / OH-161  Exits 40,41,42 / OH-161 Dublin Granville Rd Exits 40A,40B",Westbound,63,0.558,1.37,5.41,40.08133004094765,-82.78968009,40.08077955252486,-82.88269235,Yes
97,389,13a5fb86-41c8-4c93-ab17-90d37e7f5fc7,2023-03-14T04:11:03.000Z,2023-03-14T04:38:03.000Z,OH-18 / OH-601 / Greenwich Milan Townline Rd,OH-18 / OH-60,Eastbound,27,0.551,0.451,8.04,41.233824241638885,-82.54262117,41.18928188863338,-82.41080924,Yes
98,281,750b7cc6-128c-4cf9-a79c-12939fb4c355,2023-03-14T11:21:40.000Z,2023-03-14T11:30:03.000Z,I-90  Exit 155 / Nagel Rd / Avon Rd,OH-2 Detroit Rd,Eastbound,8,0.728,0.393,6.45,41.46860998175238,-81.97257806,41.47468004,-81.85192989,Yes
99,69,abf8cb26-d1da-4d5b-a382-f1dfcbe87018,2023-03-14T12:46:18.000Z,2023-03-14T13:02:02.000Z,"I-71  Exits 109A,109B,110A / I-670  Exits 4A,4A-B,4B,4C,5,5A-5B / Goodale St",I-670  Exit 7 / US-62 5th Ave / 5th Ave,Eastbound,16,0,0.545,3.16,39.97414,-82.99371,39.98244002973882,-82.94047997,Yes
100,353,758c225b-444a-4713-9994-4a0f730fbbb7,2023-03-14T10:34:44.000Z,2023-03-14T11:41:35.000Z,OH-18 Herrick Ave / Cornerstone Ave,OH-18 Norwalk Rd / Zenith Ln,Eastbound,67,0,0,8.7,41.16848,-82.20793,41.16801872162083,-82.0431957,Yes
101,139,9dd836e8-6aa9-4056-9c78-11d2e6b417ea,2023-03-14T12:31:11.000Z,2023-03-14T12:32:00.000Z,I-70,I-70  Exit 151 / US-27 Chester Blvd,Westbound,1,0.604,0.996,6.78,39.82879147302608,-84.77455036,39.87281,-84.88168004,Yes
102,44,05600bf2-0598-4614-8d70-7001fe850da9,2023-03-14T12:03:07.000Z,2023-03-14T12:07:27.000Z,I-275,I-275,Northbound,4,0.589,0.274,5.48,39.24796991082876,-84.30620992,39.18144,-84.26561,Yes
103,178,a0a0e7a8-9f4b-41b3-a769-e270c6e5bd51,2023-03-14T10:55:37.000Z,2023-03-14T12:45:39.000Z,OH-73,OH-73 / Red Lion-5 Points Rd,Westbound,110,0.261,0.847,8.94,39.51977309881535,-84.05723534,39.549820013956506,-84.21033007,Yes
104,148,0fb746b7-1337-4bed-9c26-00d4f966527c,2023-03-14T02:48:46.000Z,2023-03-14T03:32:43.000Z,US-422,US-422,Eastbound,44,0.722,0.447,7.23,41.42526464886255,-81.48641131,41.389185332182365,-81.36591701,Yes
105,190,9eebfc2d-a293-4c29-8eed-225b16be7152,2023-03-14T09:22:37.000Z,2023-03-14T09:46:04.000Z,OH-800 Hendrysburg Freeport Rd / Rouggen Rd,OH-800 Hendrysburg Freeport Rd / Johnson Bethel Rd,Southbound,23,0.732,0.775,6.76,40.13543161097592,-81.22279972,40.06037999846353,-81.19324001,Yes
106,414,9ee5e05f-3a29-4d99-9eb2-8b4a93d2415a,2023-03-14T04:18:48.000Z,2023-03-14T04:40:50.000Z,US-30 / OH-267 / OH-7,OH-7 / Pine Hollow Rd,Northbound,22,0,0.268,7.34,40.6835,-80.63458,40.78176665110133,-80.62558129,Yes
107,50,e0eb04d0-7cf4-4a72-af74-7b3d648676cc,2023-03-14T03:07:19.000Z,2023-03-14T03:30:57.000Z,OH-11  Exit 68 / OH-87 Bloomfield Kinsman / OH-87 Kinsman Rd,OH-11,Southbound,24,0.13,0.464,8.44,41.46406229217111,-80.7125645,41.34471840966207,-80.70186142,Yes
108,327,36c8c012-71a2-40f4-a086-032fad0210f1,2023-03-14T09:53:48.000Z,2023-03-14T10:19:03.000Z,I-70  Exit 32 / Dayton Intl Airport Access Rd,I-70  Exit 24 / OH-49 Dayton Greenville Pike,Westbound,25,1.001,1.146,7.98,39.86459,-84.21861,39.854700274095975,-84.36693411,Yes
109,439,f38c3b4a-502b-4cc9-a216-ab4068ef2958,2023-03-14T11:25:24.000Z,2023-03-14T12:29:53.000Z,I-71,I-71  Exit 15 / Pfeiffer Rd,Southbound,64,0.592,0.279,4.96,39.31816751458253,-84.29053283,39.26751272186697,-84.35544632,Yes
110,156,85b87d8a-d668-497e-b945-32719fb002ec,2023-03-14T21:38:05.000Z,2023-03-14T21:56:10.000Z,I-71 / US-22 Montgomery Rd / Brewster Ave,"I-75  Exits 1C,1D,1F / I-71  Exit 1B / US-50 6th St Expy",Southbound,18,1.283,0.08,3.53,39.14256,-84.48248,39.09901968,-84.50813191,Yes
111,125,38f481cf-f98f-49d4-98a1-7b89105d4262,2023-03-14T10:27:48.000Z,2023-03-14T12:53:00.000Z,I-675,I-675,Southbound,145,0.894,0.581,5.21,39.783480666309096,-84.00416439,39.764810388083625,-84.09273727,Yes
112,117,416dd4e3-0521-46fa-ae31-b1e0adeb1ab1,2023-03-14T19:49:40.000Z,2023-03-14T22:04:01.000Z,"I-75  Exits 3,4 / I-74 / US-52 Hopple St","I-75  Exits 10,10A,10B / OH-126 Ronald Reagan Cross County Hwy Exits 27,27A,27B / Galbraith Rd",Northbound,134,1.241,0.087,3.8,39.16206091444532,-84.51894788,39.19746813,-84.47178222,Yes
113,156,0fc034c2-dfed-42e7-a7bd-771a52cef30d,2023-03-14T20:43:18.000Z,2023-03-14T21:39:38.000Z,I-71  Exit 5 / Dana Ave / Duck Creek Rd,"I-75  Exits 1C,1D,1F / I-71  Exit 1B / US-50 6th St Expy",Southbound,56,0.196,0.172,4.71,39.14299667668702,-84.46245542,39.09874993639639,-84.50981041,Yes
114,436,9fe0b90b-d4f0-45e5-b225-d0a1162536ed,2023-03-14T11:06:37.000Z,2023-03-14T11:31:26.000Z,CR-51 Baumhart Rd / CR-57 Russia Rd,US-20 / Plate Rd / CR-51 Baumhart Rd,Southbound,25,1.021,0.427,5.41,41.33879,-82.27445,41.26225280185309,-82.27442103,Yes
115,154,26cd9051-9798-4061-bb87-8b36ea1dc878,2023-03-14T11:16:40.000Z,2023-03-14T11:53:07.000Z,OH-149 Morristown St / Mill Rd,US-40 National Rd / OH-149 Morristown Flushing Rd,Southbound,36,0.202,1.07,6.61,40.14632,-81.06776,40.066523864062624,-81.06060921,Yes
116,383,03f7ea10-a06e-4567-aa1a-b09bdf388a61,2023-03-14T04:55:52.000Z,2023-03-14T05:23:22.000Z,OH-11 / OH-46 Columbiana Canfield Rd,OH-46 Columbiana Canfield Rd,Northbound,28,0.038,0.397,6.31,40.92750314,-80.71968543,41.01036744434568,-80.76064806,Yes
117,385,c0b32de9-2649-4db1-ba69-7f1aa5f10fe3,2023-03-14T13:02:01.000Z,2023-03-14T13:04:12.000Z,I-70,I-70  Exit 151 / US-27 Chester Blvd,Westbound,2,0.278,0,4.86,39.83080788007838,-84.81360351,39.87280845276159,-84.88228017,Yes
118,257,ec33d43a-e41c-4e39-8c60-696bfa336e1a,2023-03-14T19:55:05.000Z,2023-03-14T20:01:06.000Z,I-75  Exit 1G / Western Ave,I-71 / I-75,Southbound,6,0.491,0.106,1.33,39.11331,-84.53165,39.09749403302085,-84.52241436,Yes
119,239,dacf90f2-5f28-49f8-8abc-85c5e7005d26,2023-03-14T13:40:58.000Z,2023-03-14T14:26:12.000Z,US-52,US-52 / CR-18 Blue Creek Rd,Eastbound,45,0.499,0.921,5.87,38.69717942909072,-83.48009061,38.66845048905117,-83.38586232,Yes
120,142,115a8854-611e-4d7e-af2c-949d594e503e,2023-03-14T03:25:07.000Z,2023-03-14T03:47:00.000Z,US-6 / CR-280 Duffet Rd,OH-2  Exit 131 / US-6 Lima Sandusky Rd / US-6 Fremont Ave,Eastbound,22,0.758,0,7.06,41.41110092,-82.90934113,41.44084067168166,-82.78252543,Yes
121,233,e8957e9c-5768-48ea-97bb-5563c12b8c91,2023-03-14T10:10:29.000Z,2023-03-14T12:09:22.000Z,Turner Rd,Needmore Rd / Wadsworth Rd,Eastbound,119,0.481,0.8,3.8,39.81425,-84.25515985,39.819810215129046,-84.1874329,Yes
122,80,e758bd9b-7d61-424c-971a-259a9633a06b,2023-03-14T12:10:13.000Z,2023-03-14T13:27:38.000Z,I-71  Exit 12 / US-22 Montgomery Rd,I-71,Northbound,77,0.466,0.066,4.96,39.21012286639741,-84.37065422,39.27668043785229,-84.34212913,Yes
123,212,b480ec6a-de10-44f6-933c-75f46c36ab31,2023-03-14T04:00:30.000Z,2023-03-14T04:04:23.000Z,OH-82 / OH-5 Elm Rd / OH-5,OH-5 / US-422 Parkman Rd,Westbound,4,0,0.603,5.44,41.27269,-80.77414,41.26626000662833,-80.87241999,Yes
124,411,6dca19ea-abd7-491d-9edf-39393cb79ad6,2023-03-14T11:51:27.000Z,2023-03-14T12:29:39.000Z,I-77,"I-77  Exit 125B / I-76  Exits 23A,23B / OH-8 I-77",Northbound,38,0.594,0.139,2.57,41.01591476013261,-81.49577949,41.05234152,-81.50524998,Yes
125,2,49c2d990-251a-420d-9206-cbc9a1b283fc,2023-03-14T10:37:43.000Z,2023-03-14T12:32:00.000Z,OH-4 / Lower Valley Pike,OH-235,Eastbound,114,0.231,0.332,3.72,39.80383,-84.09616,39.84534852051471,-84.05864124,Yes
126,112,611a99f9-53a3-4b48-9db2-295eabe6182d,2023-03-14T10:32:55.000Z,2023-03-14T11:28:23.000Z,OH-58,OH-58 Main St,Northbound,55,1.019,0,6.28,41.18750498,-82.21706382,41.27756246874525,-82.21780987,Yes
127,381,084eaad8-8721-4ed7-8fe4-67cdcb341e8a,2023-03-14T03:45:02.000Z,2023-03-14T04:10:56.000Z,OH-11  Exit 78 / US-6,US-6 / Chestnut Ave,Eastbound,26,0.471,0,6.81,41.60674048030041,-80.71568472,41.60709058749784,-80.58467126,Yes
128,108,26561864-fe98-466a-9ccd-b2c05552f448,2023-03-14T11:13:04.000Z,2023-03-14T11:18:37.000Z,I-90,I-90  Exit 161 / OH-2 Detroit Rd / OH-254 Detroit Rd,Eastbound,6,1.202,0,5.37,41.46855809233296,-81.96556282,41.47401,-81.86171,Yes
129,220,3e33e8e6-a851-4b82-a8e5-9ee522080f9e,2023-03-14T09:43:55.000Z,2023-03-14T10:09:25.000Z,OH-18 Norwalk Rd / Martha Cir,OH-18 Herrick Ave / East St,Westbound,26,0.396,1.049,8.22,41.16803502170712,-82.05118043,41.16848119413126,-82.20800224,Yes
130,220,4ea06224-0ba8-4f13-9d07-99f870ae6c97,2023-03-14T10:37:56.000Z,2023-03-14T11:15:38.000Z,OH-18 Norwalk Rd / Yost Rd,OH-18 Herrick Ave / East St,Westbound,38,1.155,1.049,7.46,41.16806225,-82.06578353,41.16848119413126,-82.20800224,Yes
131,130,bb16ec38-bc72-4a40-8516-59fd3b35384e,2023-03-14T03:17:39.000Z,2023-03-14T03:37:33.000Z,US-224,US-224 / Industry Rd,Eastbound,20,0.105,0.631,7.06,41.02672,-81.33055998,41.033246364120274,-81.19967427,Yes
132,405,72ad9f7f-7f74-4b9c-bef7-f59becfd8165,2023-03-14T10:53:32.000Z,2023-03-14T11:08:00.000Z,OH-49 Salem Ave,Salem Ave / Fairgreen Dr,Eastbound,14,0.152,0.232,4.88,39.851129957441024,-84.33362989,39.80919087,-84.26281666,Yes
133,105,bf5f7899-078c-4d80-b8df-35e9039ec792,2023-03-14T10:55:42.000Z,2023-03-14T11:13:05.000Z,US-20 / Plate Rd / CR-51 Baumhart Rd,CR-51 Baumhart Rd,Northbound,17,0.183,0.439,6.43,41.260881201992326,-82.27448994,41.35207937044847,-82.27593756,Yes
134,192,6b1fb289-b324-4742-8cb5-6bf58f812eac,2023-03-14T10:18:17.000Z,2023-03-14T10:32:55.000Z,OH-58 Main St,OH-58 / CR-45 Peck Wadsworth Rd,Southbound,15,1.007,0,6.28,41.27988,-82.21774,41.19125605909932,-82.21695478,Yes
135,190,4cb5cec2-8062-4290-afbd-30f9fb3cbb9e,2023-03-14T09:06:47.000Z,2023-03-14T09:18:29.000Z,OH-800 Freeport Rd / OH-800 Hendrysburg Freeport Rd / Blake Rd,OH-800 Hendrysburg Freeport Rd / Johnson Bethel Rd,Southbound,12,0.531,0.775,6.96,40.137087824537325,-81.22525468,40.06037999846353,-81.19324001,Yes
136,390,08b443dd-74d0-4496-97a5-05a9b71a19a1,2023-03-14T08:42:06.000Z,2023-03-14T09:39:49.000Z,I-75  Exit 63 / US-40 National Rd,I-75  Exit 69 / Cr-25A / County Rd 25A To I 75,Northbound,58,0.382,0,4.94,39.89210110503461,-84.18765133,39.96473,-84.18948,Yes
137,184,c7147ab1-3839-4540-926b-739179ced201,2023-03-14T03:49:38.000Z,2023-03-14T04:12:09.000Z,OH-3 Wooster Pike,OH-3 Court St / Montview Dr,Northbound,23,0.131,0,5.99,41.03446016988677,-81.86425,41.12061829,-81.86407949,Yes
138,138,ca72b7ec-e797-48b0-a8fe-e4933eb0c6b2,2023-03-14T12:17:48.000Z,2023-03-14T12:47:30.000Z,OH-315  Exit 10 / OH-161 Dublin Granville Rd / OH-161 Granville Rd,OH-315  Exit 5 / Ackerman Rd,Southbound,30,0.274,0.42,4.57,40.08997189,-83.03636425,40.02808302761015,-83.03523872,Yes
139,410,4d862e83-72bc-447d-a687-0488400ba778,2023-03-14T11:34:01.000Z,2023-03-14T12:23:28.000Z,OH-309 / OH-235 / CR-35,OH-309 Harding Hwy / Cool Rd,Westbound,49,0.46,0,7.32,40.73263891607292,-83.85030406,40.73120419665618,-83.98833538,Yes
140,112,054676f8-12f4-4b38-8e2e-0fab4d060e2e,2023-03-14T11:27:00.000Z,2023-03-14T11:34:51.000Z,OH-58,OH-58 Main St,Northbound,8,1.019,0,6.28,41.18750498,-82.21706382,41.27756246874525,-82.21780987,Yes
141,397,d4daba65-4c80-4c89-860d-48bee68304b0,2023-03-14T10:22:55.000Z,2023-03-14T10:26:11.000Z,US-35 / Keowee St / Wayne Ave,"I-675  Exits 13A,13A-B,13B / US-35",Eastbound,3,0,0.356,3.76,39.75513,-84.16627,39.73935428816112,-84.100446,Yes
142,82,d46b091a-e7ef-4e44-b395-b96c17c367d3,2023-03-14T10:49:12.000Z,2023-03-14T12:14:35.000Z,OH-444 / OH-444 Dayton Yellow Springs Rd / Old Oh-444,OH-4 / OH-444 / Valley St,Westbound,85,0.071,0.236,3.64,39.79957,-84.04003,39.80051696785527,-84.10158765,Yes
143,268,d04cfa07-8a96-4eaa-b1cf-30012589ebf1,2023-03-14T11:30:03.000Z,2023-03-14T12:04:06.000Z,OH-58,OH-58 Main St / Jones St,Southbound,34,0.816,0,6.48,41.26810997,-82.21728,41.17538109556381,-82.21736036,Yes
144,52,47bdbd33-7f30-4129-bf40-bf37ed0ab578,2023-03-14T11:28:07.000Z,2023-03-14T11:42:04.000Z,OH-28,OH-28 West St / Cox Dr,Eastbound,14,0,0.011,5.57,39.3227917,-83.79759095,39.32386,-83.69349998,Yes
145,74,83cd03c5-7812-49ee-83a8-949c8736fd56,2023-03-14T10:26:16.000Z,2023-03-14T11:11:41.000Z,US-20 / Baird Rd,US-20,Eastbound,45,0.72,0.271,6.79,41.25860937795803,-82.31809588,41.27533159597046,-82.19222945,Yes
146,298,08858db1-fb3e-42aa-8a8f-96f9741557dd,2023-03-14T11:16:40.000Z,2023-03-14T11:49:34.000Z,US-224 / Richman Rd,I-71  Exit 209A-B / I-76  Exit 1A / US-224,Eastbound,33,0.94,0.651,5.79,41.04590121490753,-82.00870454,41.03070919514395,-81.90502948,Yes
147,364,c290a52a-4d51-4afd-bbc7-041def48b49b,2023-03-14T03:10:43.000Z,2023-03-14T03:39:35.000Z,OH-7 / OH-609 Hartford St,OH-7 / OH-7 Main St / OH-5,Northbound,29,0.607,0.563,7.48,41.335054972534415,-80.56928774,41.44007821343453,-80.58844842,Yes
148,326,0933316d-f876-4873-afbd-7c1f0a8bef68,2023-03-14T09:51:11.000Z,2023-03-14T13:31:52.000Z,OH-4 / Upper Valley Pike / Adams Rd,OH-4 / Stanley Ave,Westbound,221,0.602,0.327,5.05,39.83626041097457,-84.06108247,39.791689270649705,-84.13186283,Yes
149,311,ef20f622-8224-4b61-bada-2bf0d3b20cfd,2023-03-14T11:46:40.000Z,2023-03-14T11:50:54.000Z,US-50 / Clear Creek Rd,US-50 / Browning Rd,Eastbound,4,0.979,0.114,6.01,39.215427635491366,-83.53186418,39.21999637673921,-83.41997501,Yes
150,272,77606200-aa67-4165-bf18-a933208ba229,2023-03-14T11:08:00.000Z,2023-03-14T11:19:53.000Z,OH-732 / Lakengren Dr,OH-732 / OH-725,Southbound,12,0.685,0.784,6.65,39.70460998946728,-84.69678003,39.63683699743026,-84.74140904,Yes
151,269,384f2952-5c35-4ba4-b841-6ae1190eae19,2023-03-14T21:00:31.000Z,2023-03-14T21:38:05.000Z,I-71 / Kennedy Ave,I-71  Exit 11 / Kenwood Rd,Northbound,38,0.077,0.545,2.46,39.16944008428319,-84.42007983,39.18933432771047,-84.38926925,Yes
152,44,aec3c01d-229c-4890-beb8-6484baa51f5a,2023-03-14T12:57:47.000Z,2023-03-14T13:22:32.000Z,I-275  Exit 57 / OH-28,I-275,Northbound,25,0.286,0.428,5.36,39.18639012,-84.26333996,39.25036157642973,-84.30886016,Yes
153,331,cfd2293b-d726-44d2-9e81-04e4436a1c42,2023-03-14T09:35:30.000Z,2023-03-14T10:32:45.000Z,OH-16 / OH-13 Mt Vernon Rd / Oh-13,OH-16  Exit 29 / Thornwood Xing,Westbound,57,0.032,0.346,3.19,40.06116986296457,-82.41114046,40.05415851086066,-82.46736893,Yes
154,313,5d7f3101-cd02-4928-9a2d-d6232e53d483,2023-03-14T03:40:52.000Z,2023-03-14T03:43:57.000Z,I-480  Exit 25C / OH-43 / OH-43 Aurora Rd,I-480  Exit 21 / Transportation Blvd / Antenucci Blvd,Westbound,3,0.209,0.375,4.49,41.41977091119607,-81.52105833,41.41415959199996,-81.60227306,Yes
155,380,ac9ac9e2-cfc1-4844-8fd5-74b94038a782,2023-03-14T12:25:53.000Z,2023-03-14T12:46:13.000Z,I-77  Exit 101 / Faircrest St / OH-627 Faircrest St,I-77  Exit 105 / OH-172 Tuscarawas St / Harrison Ave,Northbound,20,0.281,0.037,2.64,40.756928304592165,-81.40369939,40.78820375,-81.38622833,Yes
156,50,b175b816-2928-4076-9bed-8894a6219d3b,2023-03-14T03:24:09.000Z,2023-03-14T04:01:28.000Z,OH-11,OH-11,Southbound,37,0.613,0.338,3.95,41.75781500268042,-80.71612495,41.70248235435231,-80.71147307,Yes
157,35,a85e2fe1-63aa-4406-af72-34525fa4e989,2023-03-14T04:06:00.000Z,2023-03-14T04:15:18.000Z,US-30,US-30 / OH-39 8th St / OH-267 Lisbon St,Eastbound,9,0.499,0,5.78,40.68766895014903,-80.64901593,40.63234941190285,-80.58345966,Yes
158,295,c0ba9c7a-125f-4e1c-821b-701c219453b5,2023-03-14T10:51:22.000Z,2023-03-14T11:13:01.000Z,OH-73,OH-73 / Line Rd,Eastbound,22,0.228,0.464,5.98,39.39071973,-83.74793982,39.317944642616666,-83.69073643,Yes
159,294,b5c5cb05-b6d6-4d7e-a9ca-b142be1733c9,2023-03-14T12:07:26.000Z,2023-03-14T13:21:13.000Z,"I-270  Exits 22,23 / OH-315  Exits 12A,12B / US-23 High St","I-270  Exits 17A,17B / OH-161  Exit 108",Northbound,74,0.196,0.986,4.49,40.11223657812522,-83.02956359,40.10868999,-83.11467005,Yes
160,299,f8859d1a-2a76-4f3d-830a-08709d69e1aa,2023-03-14T11:08:36.000Z,2023-03-14T11:26:09.000Z,US-20 Main St / OH-60 River St,OH-60 State Rd / Trinter Rd,Northbound,18,0.169,0.249,7.55,41.27190377375112,-82.39503262,41.371932853571565,-82.36362835,Yes
161,19,c67669c1-35de-4fa1-9495-e620a0ea27ca,2023-03-14T03:42:03.000Z,2023-03-14T04:04:23.000Z,OH-9 Newgarden Rd / CR-415 Whinnery Rd,US-30 Canal St / OH-9 1st St / 1st St,Southbound,22,0.171,0.93,7.19,40.84300890017485,-80.8981322,40.751427609544606,-80.9366797,Yes
162,115,6b76cfbe-d229-4bcc-8cff-14524c5e7573,2023-03-14T12:02:48.000Z,2023-03-14T12:29:39.000Z,I-90  Exit 178 / Eddy Rd,I-90 / OH-2,Westbound,27,0.109,0.182,2.9,41.55227024898058,-81.60110638,41.53219484048281,-81.64887519,Yes
163,63,5c07e10d-5f96-427d-afec-217d709dd616,2023-03-14T05:04:25.000Z,2023-03-14T05:14:35.000Z,OH-11,OH-11,Northbound,10,0.593,0.474,6.08,41.33846421546418,-80.7033969,41.424599854172925,-80.7116854,Yes
164,43,e0059de0-bbee-4875-93cf-6355c9fbadcb,2023-03-14T08:33:35.000Z,2023-03-14T08:35:40.000Z,Parsons Rd,Parsons Rd,Westbound,2,0.769,0.073,4.4,41.27484,-82.0749268,41.27466,-82.15981147,Yes
165,124,712ebd32-b18d-45c8-be45-aabd5f3d1785,2023-03-14T15:16:41.000Z,2023-03-14T15:25:01.000Z,CR-274 Pymatuning Lake Rd / Camplands Blvd,US-6 Richmond Rd / CR-274 Pymatuning Lake Rd,Northbound,8,0.569,0.767,5.43,41.635800967691736,-80.54192126,41.71396209094743,-80.53823411,Yes
166,200,2c22386a-fbeb-4e2c-bc82-07935203966e,2023-03-14T11:43:27.000Z,2023-03-14T12:26:21.000Z,OH-48 Dayton Lebanon Pike / OH-48 Main St / Jamestown Cir,OH-48 / Riley Wills Rd,Southbound,43,0,0.865,7.16,39.60602,-84.16088,39.50928998832808,-84.19328001,Yes
167,66,9653d514-7160-45f0-b8ac-b34c7f3f0c89,2023-03-14T22:49:31.000Z,2023-03-14T23:18:43.000Z,I-90  Exit 205 / CR-227 Vrooman Rd / Vrooman Rd,I-90,Westbound,29,0.136,0.752,5.66,41.709145037819695,-81.17522188,41.66331076,-81.26359628,Yes
168,42,9ea83aef-326c-45f6-9af4-cb990b9bdfcb,2023-03-14T11:14:26.000Z,2023-03-14T13:44:15.000Z,I-75,I-75,Southbound,150,0.319,0.746,5.67,39.3987883,-84.36092849,39.33402319879533,-84.41194858,Yes
169,309,cf35ffce-4e77-4b57-aa64-c60da02f40f4,2023-03-14T11:51:28.000Z,2023-03-14T11:54:46.000Z,OH-58,OH-58,Northbound,3,1.019,0.258,5.53,41.18750498,-82.21706382,41.26694008886259,-82.21733,Yes
170,307,b98de9fb-f9eb-4ee8-9be7-8205eefa4a14,2023-03-14T11:20:07.000Z,2023-03-14T11:37:15.000Z,OH-83 Elyria St / Grandview Dr,OH-83 Avon Lake Rd / Shank Rd,Northbound,17,1.086,0.908,6.12,41.05022,-82.02,41.13754735,-82.02367802,Yes
171,261,a065e471-0fb4-4dec-8002-3dd284f14277,2023-03-14T04:47:40.000Z,2023-03-14T05:06:04.000Z,OH-7 Depot St / Mill St,OH-7,Southbound,18,0.702,0.294,6.09,40.79087999575925,-80.62599,40.70880670950947,-80.63530072,Yes
172,320,6940db83-fe9b-4a34-995a-735e558f9a96,2023-03-14T11:21:40.000Z,2023-03-14T11:53:07.000Z,US-224,US-224 / Richman Rd,Westbound,31,0.425,0.526,4.43,41.039149839441706,-81.92759626,41.04609521481456,-82.00849562,Yes
173,314,f8c0d452-d3bb-487c-b0e7-5f0f0d945daf,2023-03-14T04:00:30.000Z,2023-03-14T04:06:00.000Z,OH-183 Iowa Ave / OH-619 Gaskill Dr / Gaskill Dr,OH-619 Edison St / Cedarwood Ave,Westbound,6,0.808,0.144,5.02,40.93913,-81.11414,40.95065193744618,-81.20567159,Yes
174,134,df1d05e6-2656-49cb-818c-00f3cb0d0471,2023-03-14T10:56:42.000Z,2023-03-14T11:22:33.000Z,OH-60 State Rd / Trinter Rd,OH-60 / Lincoln Rd,Southbound,26,0.898,0.327,5.88,41.370440896688855,-82.36357962,41.28892244072896,-82.37797592,Yes
175,346,352437e1-5693-497a-be3e-8bf0b6c0686c,2023-03-14T11:58:52.000Z,2023-03-14T12:13:13.000Z,OH-49 / OH-705 / CR-19 New Weston-Fort Loramie Rd,OH-49 / CR-45 Zumbrum Rd,Southbound,14,0.367,0.609,6.51,40.33325586106289,-84.73754943,40.24722169669344,-84.69448141,Yes
176,344,3a8919a2-644d-4a7c-93a3-2e80754aa5f2,2023-03-14T03:33:04.000Z,2023-03-14T03:36:02.000Z,US-250 / Dublin Rd,OH-13 / Omega Rd,Southbound,3,0.64,0.48,5.78,41.16020064900251,-82.54549686,41.087878242809005,-82.48761962,Yes
177,340,8a88a578-bc3d-48f3-922a-35af2be76b7c,2023-03-14T08:37:54.000Z,2023-03-14T08:59:47.000Z,CR-4 Smith Rd / CR-24 Columbia Rd,OH-83 Avon Lake Rd / CR-4 Smith Rd,Westbound,22,0.34,0,5.03,41.13595504732774,-81.92701119,41.13605,-82.02371995,Yes
178,50,270114b3-ca7c-4278-8aa9-1eaa01c5b58f,2023-03-14T05:59:44.000Z,2023-03-14T06:17:12.000Z,OH-11,OH-11,Southbound,17,0.303,0.461,6.31,40.841999857341854,-80.73349008,40.75821126706855,-80.71938358,Yes
179,44,eb6cb1dc-7765-4348-b173-98ef30533f5f,2023-03-14T11:56:55.000Z,2023-03-14T12:01:02.000Z,I-275  Exit 46 / US-42 Lebanon Rd,I-275,Northbound,4,0.302,0.171,3.36,39.29065999357872,-84.3850198,39.26044950382817,-84.33714934,No
180,151,6296122b-8a55-46a1-abcd-8d6998c20d81,2023-03-14T11:28:07.000Z,2023-03-14T12:04:00.000Z,US-33 / CR-18 Diley Rd / CR-18 King's Xing,US-33 Columbus-Lancaster Rd / Rager Rd,Westbound,36,0.137,0.654,3.42,39.84433017955541,-82.78457135,39.86373465606967,-82.84154026,Yes
181,332,2551fbf0-95a4-49fe-821e-ac6b905726d0,2023-03-14T03:38:52.000Z,2023-03-14T03:58:50.000Z,OH-11,OH-11  Exit 73 / US-322,Southbound,20,1.244,0,5.15,41.61490026375352,-80.71358044,41.53954738315762,-80.71357011,Yes
182,55,87045ee4-74a2-429d-9fd4-30ed0c32ee33,2023-03-14T12:28:26.000Z,2023-03-14T12:31:11.000Z,I-71  Exit 117 / OH-161 Dublin Granville Rd,I-71  Exit 112 / Silver Dr,Southbound,3,0.701,0.125,2.96,40.07352318086771,-82.98854236,40.03277948,-82.99553977,No
183,413,0e4f9fe9-b8b4-46de-9321-c92dfd2f8fc7,2023-03-14T10:02:18.000Z,2023-03-14T12:20:46.000Z,OH-4 / OH-444 / Valley St,OH-444 / OH-444 Dayton Yellow Springs Rd / Old Oh-444,Eastbound,138,0,0.834,3.72,39.80114,-84.10312,39.79945,-84.03984,Yes
184,56,abae4d90-eebe-4787-9672-2234e57654a0,2023-03-14T12:03:59.000Z,2023-03-14T12:20:46.000Z,OH-73 / Bunnell Hill Rd,OH-73,Eastbound,17,0.118,0.937,6.14,39.54664731789258,-84.1929993,39.52547751040855,-84.08834704,Yes
185,56,439b7025-681f-450c-a1cd-7e22733b18b1,2023-03-14T11:29:50.000Z,2023-03-14T11:31:12.000Z,OH-73 / Country Brook Ct,OH-73,Eastbound,1,0.321,0.756,6.73,39.54536005102871,-84.1682095,39.51969922922563,-84.05695676,No
186,56,2c5564c6-5e80-47ff-8626-845cd0301968,2023-03-14T10:52:30.000Z,2023-03-14T11:27:27.000Z,OH-73,OH-73,Eastbound,35,1.06,1.033,6.47,39.30954,-83.68756,39.22993476186417,-83.63104973,Yes
187,321,a4b2ee2a-4f51-409e-8511-71daf2e5fc95,2023-03-14T12:43:10.000Z,2023-03-14T13:29:37.000Z,Harshman Rd / OH-4,OH-4 / Upper Valley Pike / Adams Rd,Eastbound,46,0.904,0.616,3.58,39.798550275913904,-84.10960858,39.83223660132276,-84.06206789,Yes
188,138,e2a5a684-f494-425c-971a-a058cfc52382,2023-03-14T12:43:10.000Z,2023-03-14T12:57:47.000Z,OH-315  Exit 10 / OH-161 Dublin Granville Rd / OH-161 Granville Rd,OH-315  Exit 5 / Ackerman Rd,Southbound,15,0.345,0.102,4.18,40.08867309939908,-83.03591592,40.03035457279257,-83.0302193,Yes
189,58,efbb6c64-e2f0-4845-8e03-f716de264b39,2023-03-14T13:24:05.000Z,2023-03-14T17:26:49.000Z,"I-75  Exits 16,16A,16B / I-275  Exits 43A,43B",I-75,Northbound,243,0.347,0.403,5.19,39.287370856702985,-84.44115533,39.344979441259305,-84.38623494,Yes
190,113,8d1c097d-93e1-4d10-b599-726c28ce8c35,2023-03-14T11:54:57.000Z,2023-03-14T12:04:53.000Z,OH-138 / Herdman Rd,OH-138 Greenfield Pike / East St,Westbound,10,0.287,0.95,5.48,39.26236094310909,-83.52354957,39.21709997446595,-83.59628005,Yes
191,302,eac6f8a0-cf42-4fdf-ae85-376aff2fc0dd,2023-03-14T05:41:01.000Z,2023-03-14T05:46:59.000Z,US-30 / CR-12,US-30 / Township Road 177,Eastbound,6,0.475,0.419,5.44,40.82580323074444,-83.75837689,40.82711,-83.65360993,Yes
192,159,c9f1ceb9-8b15-4f29-bc87-fdfdfcc9799a,2023-03-14T11:15:38.000Z,2023-03-14T12:24:24.000Z,US-422,US-422,Westbound,69,0.164,1.028,3.65,41.39389017765784,-81.42607037,41.42167759,-81.4793913,Yes
193,28,0b3de882-ce84-4086-8675-a104c0a0dc9a,2023-03-14T11:45:04.000Z,2023-03-14T12:08:59.000Z,"OH-59  Exits 5,5A / Broad Blvd",OH-59  Exit 3 / OH-261 Tallmadge Ave,Westbound,24,0.297,0.252,2.32,41.13791,-81.47979,41.108089975122766,-81.49869001,Yes
194,77,f33ea581-cafc-453c-a61f-42db6b98bd1e,2023-03-14T11:10:06.000Z,2023-03-14T11:38:30.000Z,OH-32 / White Pine Rd,OH-32 / Dever Rd,Eastbound,28,0.754,0.778,5.25,39.01892000389396,-83.28034999,39.05151471535712,-83.19716389,Yes
195,36,3a678d91-bee9-4db4-9947-2cc9fe0e5108,2023-03-14T09:13:20.000Z,2023-03-14T09:42:47.000Z,I-75  Exit 59 / Benchwood Rd,"I-75  Exits 54A,54B / OH-4 / OH-48 Main St",Southbound,29,0.053,0.096,3.26,39.83567460840697,-84.18966006,39.78968999893412,-84.18422,Yes
196,24,0584d2db-6571-4be6-b62a-59803b6a5f53,2023-03-14T11:04:13.000Z,2023-03-14T11:11:49.000Z,OH-48 Main St / Bristol Dr / Loganwood Dr,OH-48,Southbound,8,0.689,0.122,3.13,39.61869475198491,-84.15985068,39.57322164131577,-84.16371985,No
197,230,a4ef239d-2db5-4f79-b6fe-5b9e495c43d2,2023-03-14T11:27:27.000Z,2023-03-14T13:00:55.000Z,OH-161,"I-270  Exits 30,33 / OH-161  Exits 40,41,42 / OH-161 Dublin Granville Rd Exits 40A,40B",Westbound,93,0.276,0,4.32,40.08044000410878,-82.78452007,40.08238633962347,-82.85832998,Yes
198,93,70af2b2a-9ae4-4016-b30c-39ca77ede9d0,2023-03-14T10:32:55.000Z,2023-03-14T11:11:41.000Z,US-20,US-20 / Baird Rd,Westbound,39,0.822,0.681,6.17,41.27130938213088,-82.19823114,41.25854712426544,-82.3117887,Yes
199,81,84bb1ca4-b35d-408c-8395-437de87afb35,2023-03-14T05:09:22.000Z,2023-03-14T05:28:40.000Z,OH-11,OH-11  Exit 73 / US-322,Northbound,19,0.161,0,5.46,41.45355069776315,-80.71301,41.53197678159778,-80.71325,Yes
200,38,b220ea17-bf2b-4f79-894e-f5c0dc50fed6,2023-03-14T08:18:48.000Z,2023-03-14T08:37:54.000Z,CR-97 Greenwich Rd,CR-97 Greenwich Rd,Eastbound,19,0.839,1.125,5.1,41.0253,-81.86606822,41.02530204652727,-81.77054052,Yes
201,103,791eb21e-5c9d-4294-b9f0-04e13f8788e9,2023-03-14T09:13:29.000Z,2023-03-14T09:22:37.000Z,I-80,I-80,Eastbound,9,0.821,0,4.74,41.34534001976639,-82.32914983,41.376780122937056,-82.25115633,Yes
202,236,9db2ddeb-7a7a-4412-bea4-a4e4511419cd,2023-03-14T03:10:43.000Z,2023-03-14T03:34:09.000Z,US-30 / Township Road 1255,US-30 / Township Road 555,Eastbound,23,1.084,1.001,6.33,40.78388271,-82.35679996,40.78461042,-82.23688664,Yes
203,104,dfacecf2-87a3-41f8-ad4c-a26d0e4a97e0,2023-03-14T12:24:23.000Z,2023-03-14T12:29:53.000Z,I-70,I-70  Exit 153 / IN-227,Westbound,6,0.604,0.452,5.03,39.82879147302608,-84.77455036,39.863840571827865,-84.85097185,Yes
204,252,9b6befd3-40e6-4740-9a9c-8422eb7887b0,2023-03-14T11:50:53.000Z,2023-03-14T12:53:00.000Z,I-75  Exit 6 / Mitchell Ave,I-75  Exit 9 / OH-4 Paddock Rd / Summit Rd,Northbound,62,0.422,0.061,2.2,39.16400512309785,-84.50766223,39.186930587109615,-84.48223975,Yes
205,78,c30b32fb-af63-4a91-b369-8cd30f72faa6,2023-03-14T12:59:46.000Z,2023-03-14T13:00:55.000Z,I-70 / I 70 Wb Rest Area,I-70,Westbound,1,0.909,1.034,4.69,39.82876,-84.75379,39.845702383270336,-84.82992617,No
206,78,809c1877-d4bd-476d-aa8a-7d1c1593ce38,2023-03-14T12:03:06.000Z,2023-03-14T12:13:13.000Z,I-70,I-70,Westbound,10,0.604,0.667,4.13,39.82879147302608,-84.77455036,39.85427890002266,-84.83898995,Yes
207,89,0b0f131f-22b1-4e5b-88c2-d86d53056f2f,2023-03-14T03:27:23.000Z,2023-03-14T03:57:42.000Z,US-322 / US-322 Mayfield Rd / Townline Rd,US-322 Main St / US-322 / Anderson Dr,Eastbound,30,0.663,1.101,6.66,41.53512701,-81.00387758,41.53508167893228,-80.87731492,Yes
208,349,ce5f3dcc-8a47-4074-9421-8912e7a4b94d,2023-03-14T11:36:14.000Z,2023-03-14T12:21:31.000Z,Princeton Rd / Castle Hill Dr,Princeton Rd / Liberty Fairfield Rd,Westbound,45,0.57,0.336,4.48,39.38986997401553,-84.3943501,39.389330017212224,-84.47703034,Yes
209,292,477737f8-d3ce-45f9-a53a-330e1c1f3563,2023-03-14T08:12:32.000Z,2023-03-14T08:27:15.000Z,US-20 / CR-205 Grafton Rd,US-20 / CR-231 Oberlin Elyria Rd / OH-511,Westbound,15,0,0.702,5.55,41.33019,-82.07226,41.29443998743464,-82.16713003,Yes
210,107,d214ba20-cb6c-4564-a407-9de22bedde77,2023-03-14T10:47:43.000Z,2023-03-14T11:28:07.000Z,Salem Ave / Parkway Dr,OH-49 Salem Ave / Hoke Rd,Westbound,40,0.795,0.098,4.36,39.81098408022862,-84.26566399,39.84998035830047,-84.33042092,Yes
211,262,2e280186-0215-45ce-9160-31e9c807a2e4,2023-03-14T13:09:48.000Z,2023-03-14T13:12:41.000Z,I-70  Exit 105A / US-33 College Ave,"I-70  Exits 101A,101B / I-71  Exits 107,108A / Parsons Ave",Westbound,3,1.214,0,2.16,39.944221607269874,-82.9417412,39.95443,-82.97468,No
212,66,b02639f5-d9d8-49db-a104-b685e93a778e,2023-03-14T20:23:08.000Z,2023-03-14T23:16:54.000Z,I-90,I-90,Westbound,174,0.687,0.192,4.86,41.71202834932626,-81.17044569,41.67050999972215,-81.24711,Yes
213,244,e72e41ab-e7c5-43f8-ad53-8c119b645f19,2023-03-14T04:58:07.000Z,2023-03-14T05:07:26.000Z,US-30 / OH-172,OH-172 / Murray Rd,Westbound,9,0,0.51,5.74,40.76998,-80.80488,40.795689263124494,-80.89995332,Yes
214,219,e2a53fd4-50b0-4e33-ae88-71517106c210,2023-03-14T11:00:59.000Z,2023-03-14T11:49:36.000Z,US-50 / CR-83 Overman Rd / CR-83 North Beach Rd,US-50 Main St / US-50 Chillicothe Ave / OH-124 Main St,Westbound,49,0.279,0,5.53,39.21530150399659,-83.5031674,39.20108,-83.6035,Yes
215,234,9815fcc9-77d6-4b4d-8bf1-c1fd62e2ff3b,2023-03-14T06:10:13.000Z,2023-03-14T06:22:49.000Z,OH-521 / OH-656 / CR-52 Olive Green Rd,CR-20 Rich Hill Rd / Updike Rd,Eastbound,13,0,0,5.48,40.31925,-82.8299,40.32156,-82.72636,Yes
216,182,702a0462-645c-47b3-922e-1ef8ef3cddba,2023-03-14T05:19:27.000Z,2023-03-14T05:23:22.000Z,I-90,I-90,Eastbound,4,0.47,0.492,4.89,41.82296993764696,-80.79658416,41.84675521,-80.70955899,Yes
217,181,9d28d1ac-40e5-4688-a3c2-6e489fef1161,2023-03-14T10:58:05.000Z,2023-03-14T11:03:01.000Z,OH-73 / Nordyke Rd,OH-73 / Murphy Rd,Westbound,5,0.502,1.008,4.05,39.34248808346656,-83.70857276,39.39077682279813,-83.74797832,Yes
218,179,92585110-3abd-4296-80f4-5ac81adad023,2023-03-14T09:50:43.000Z,2023-03-14T10:05:11.000Z,CR-231 Oberlin Rd / CR-20 River Rd,Pleasant St / Hamilton St,Westbound,14,0.53,0.474,5.26,41.33497008966806,-82.12494379,41.27928449258051,-82.19047962,Yes
219,250,f4e7f253-ace8-4274-a9b7-8172c9acb6f4,2023-03-14T10:51:22.000Z,2023-03-14T11:36:46.000Z,US-40,US-40 / US-40 Brown School Rd / Brown School Rd,Westbound,45,0,0,2.93,39.89575,-84.14764,39.87814,-84.18017,Yes
220,421,cf98be8f-38f2-473b-98b4-4d03a59596e6,2023-03-14T05:58:56.000Z,2023-03-14T06:11:57.000Z,OH-12,OH-12 Findlay St / Independence Ave,Eastbound,13,1.126,0.518,3.9,41.11782962,-83.49521017,41.14906548657413,-83.43361057,Yes
221,177,2c3f6fde-8657-4194-9fbe-462da48a5710,2023-03-14T03:25:35.000Z,2023-03-14T03:40:53.000Z,I-480,I-480  Exit 21 / Transportation Blvd / Antenucci Blvd,Westbound,15,0.04,0.375,3.64,41.42489006334238,-81.53633095,41.41415959199996,-81.60227306,Yes
222,419,b814e535-a30f-4151-b944-2fd6f270ee4f,2023-03-14T11:42:04.000Z,2023-03-14T11:46:41.000Z,I-275  Exit 57 / OH-28,I-275  Exit 52 / Loveland Madeira Rd,Northbound,5,0.236,0,4.27,39.19109,-84.26246,39.24164341300687,-84.29979312,No
223,420,7ee08a60-f0fb-4b58-b013-5c6462eb227a,2023-03-14T12:53:00.000Z,2023-03-14T13:07:58.000Z,OH-41 / Brushcreek Rd,OH-41 / CR-147 Mccoy Rd,Southbound,15,0,1.125,4.4,39.05871901,-83.38936991,39.00103417121137,-83.37629473,Yes
224,412,c10da567-15d1-413a-951c-0e5ce3bd3489,2023-03-14T11:36:46.000Z,2023-03-14T12:10:13.000Z,OH-126 Ronald Reagan Cross County Hwy,OH-126 Ronald Reagan Cross County Hwy,Eastbound,33,1.047,0.375,2.82,39.21888999958311,-84.52745991,39.20772137730302,-84.47832806,Yes
225,333,58f18d92-a1e0-43dd-916a-c9aa59815c3c,2023-03-14T11:46:40.000Z,2023-03-14T11:59:56.000Z,OH-835 Woodman Dr / Linden Ave,3rd St / Springfield St / Linden Ave,Westbound,13,0.084,1.378,2.77,39.74526011671667,-84.12248011,39.76352147,-84.1661222,Yes
226,169,d9330ac2-1ca0-46ce-afe6-3956ad3af172,2023-03-14T10:46:15.000Z,2023-03-14T11:18:37.000Z,CR-4 Smith Rd / OH-301 / OH-301 Spencer Rd,OH-301 Center St / Commerce Dr,Northbound,32,0,1.059,6.38,41.13674,-82.12281,41.228008464773694,-82.11987938,Yes
227,167,e57f8677-ef82-41c0-8e2b-a1c8cc5fe1dd,2023-03-14T10:55:37.000Z,2023-03-14T11:28:07.000Z,CR-46 Lytle-Five Points Rd,Lytle-Five Points Rd / Gardner Rd,Westbound,33,0.489,1.358,4.25,39.56906999947039,-84.153706,39.57540915878658,-84.23256151,Yes
228,265,da422abd-558b-4455-82c5-e579740f45bd,2023-03-14T11:08:00.000Z,2023-03-14T12:01:52.000Z,Airway Rd / 3rd St / Smithville Rd,Smithville Rd / Alta Vista Dr,Southbound,54,0,0.518,3.06,39.76529,-84.1378,39.72144276409213,-84.14203192,Yes
229,373,26c786d3-c515-45c8-acf4-449545e24454,2023-03-14T09:11:24.000Z,2023-03-14T09:27:24.000Z,CR-2 Medina Line Rd / Wilshire Dr,CR-2 Medina Line Rd / CR-123 Reimer Rd / Reimer Rd,Southbound,16,0.272,0.927,4.48,41.121065572413926,-81.68717874,41.05727466,-81.68765781,Yes
230,347,d3b1ed9f-f48e-4086-a1c8-a345fb4fc8f6,2023-03-14T04:01:28.000Z,2023-03-14T04:19:32.000Z,OH-166 Rock Creek Rd / Williams Rd,OH-166 Rock Creek Rd / Sidley Rd,Eastbound,18,0,1.047,6.59,41.61809,-81.1295,41.66625032965207,-81.02565651,Yes
231,386,ce7b7a8d-27db-4475-a313-94442dd2ea4e,2023-03-14T03:36:04.000Z,2023-03-14T03:46:09.000Z,OH-11  Exit 73 / US-322,OH-11  Exit 78 / US-6,Northbound,10,0.514,0,4.41,41.53994,-80.71327,41.60329990258554,-80.71328,Yes
232,296,668fa6be-5933-4a5c-98f1-8dacb94d4996,2023-03-14T10:24:10.000Z,2023-03-14T11:33:33.000Z,OH-49 / Turner Rd,I-70  Exit 26 / OH-49 Salem Ave / Southway Rd,Northbound,69,0.73,0.493,4.33,39.81642003554369,-84.28486002,39.85494999765885,-84.34273,Yes
233,247,029caf05-e3e5-407c-b6ed-36b11b87273b,2023-03-14T11:06:09.000Z,2023-03-14T11:17:00.000Z,OH-48 Far Hills Ave / Centerwood Ln,OH-48 Main St / Bristol Dr / Loganwood Dr,Southbound,11,0.471,0.571,3.09,39.665232406992814,-84.16096977,39.62016984424549,-84.15970001,Yes
234,372,ff3c7a31-8685-4fc1-9ce2-885c3d7bba9d,2023-03-14T20:54:14.000Z,2023-03-14T21:44:43.000Z,"I-71  Exits 109A,109B,110A / I-670  Exits 4A,4A-B,4B,4C,5,5A-5B / Goodale St",I-71  Exit 111 / 17th Ave,Northbound,50,0.56,0.143,1.6,39.97086007514912,-82.98357999,39.99384140152164,-82.98501986,Yes
235,298,c69e0708-99aa-4289-b247-2afe4a4c990d,2023-03-14T11:41:35.000Z,2023-03-14T11:59:12.000Z,US-42 Lafayette Rd / OH-421 Lafayette Rd / US-224,I-71  Exit 209A-B / I-76  Exit 1A / US-224,Eastbound,18,0.059,0.651,5.08,41.046581845831945,-81.99530785,41.03070919514395,-81.90502948,Yes
236,214,5cee70de-88d7-4473-bb18-dc16ef27a90c,2023-03-14T07:53:30.000Z,2023-03-14T08:06:14.000Z,US-422 Mccartney Rd / OH-616 Coitsville Hubbard Rd / OH-616 Coitsville Center Rd,OH-616 Main St / Clingan St,Northbound,13,0.638,0,4.36,41.09045,-80.56798,41.15231529858717,-80.56891913,Yes
237,289,333ed236-5887-4c37-a141-995fb2229631,2023-03-14T19:41:35.000Z,2023-03-14T20:21:49.000Z,"I-75  Exits 3,4 / I-74 / US-52 Hopple St",I-74,Westbound,40,0,0.367,4.01,39.15255,-84.54132,39.18160187883607,-84.59471955,Yes
238,286,f705c662-b94d-4e0c-987a-328e8d49dfae,2023-03-14T20:45:52.000Z,2023-03-14T20:56:33.000Z,I-71  Exit 10 / Stewart Rd / Stewart Ave,I-71  Exit 15 / Pfeiffer Rd,Northbound,11,0.68,0.172,2.94,39.19110006,-84.38817995,39.22706827219064,-84.36661091,Yes
239,395,6ecb5f84-de1e-44c6-863a-4e29cf50bb3e,2023-03-14T10:22:55.000Z,2023-03-14T10:34:14.000Z,Centerville Rd / Gerhardt Cir,US-42 / Centerville Rd,Eastbound,11,0.257,1.502,4.8,39.61073987544391,-84.10665908,39.60114734577545,-84.01824827,Yes
240,204,7fdfa7ce-8799-4096-8802-9e9b32aca8ac,2023-03-14T08:51:05.000Z,2023-03-14T09:06:47.000Z,CR-52 Bear Swamp Rd / CR-75 Fixler Rd,CR-2 Medina Line Rd / CR-75 Fixler Rd,Eastbound,16,1.054,0.579,4.95,41.08121,-81.78517,41.08106817420952,-81.69203911,Yes
241,283,c29a3be9-4542-43d0-95c6-fc110fe27bd9,2023-03-14T04:06:00.000Z,2023-03-14T04:12:09.000Z,I-271,I-271,Northbound,6,1.366,0.274,3.25,41.48289,-81.48666,41.51488226466429,-81.44903515,No
242,363,9015f0c9-0059-422c-9b31-7d9f7d5958c3,2023-03-14T09:11:24.000Z,2023-03-14T09:22:37.000Z,I-80,I-80,Westbound,11,0.907,0.983,4.8,41.37448011015845,-82.26480828,41.34363187138372,-82.34390337,Yes
243,227,90b7cfc1-7983-4bed-a9e4-61e8d5443cd0,2023-03-14T11:28:07.000Z,2023-03-14T12:24:23.000Z,Princeton Rd / Liberty Knoll Dr,Princeton Rd / Mauds Hughes Rd,Eastbound,56,0.999,0,2.87,39.38863990044326,-84.46219811,39.38688087968705,-84.40847795,Yes
244,356,9e371f38-eb66-4cec-8300-b8a22ae3793e,2023-03-14T11:11:40.000Z,2023-03-14T11:54:46.000Z,I-90  Exit 160 / Clague Rd / Sperry Dr,I-90,Westbound,43,0.438,0.454,4.19,41.47569999237018,-81.88555007,41.46881146205698,-81.96374073,Yes
245,229,265263de-8c18-4002-a695-cfef5c47c79c,2023-03-14T11:21:10.000Z,2023-03-14T11:40:47.000Z,I-70  Exit 1 / US-35 / OH-320,US-35 / CR-16 Crawfordsville Campbellstown Rd,Eastbound,20,0.932,0.03,4.3,39.818099339738296,-84.77684802,39.787618514741744,-84.70634775,Yes
246,198,b9dce6fd-c919-4ee6-af81-692c135a46c2,2023-03-14T11:47:58.000Z,2023-03-14T12:04:53.000Z,Little Richmond Rd / Wolf Creek Pike / James H Mcgee Blvd,James H Mcgee Blvd / 5th St,Eastbound,17,0,0,2.79,39.77613,-84.26451,39.75449408804444,-84.22426653,Yes
247,388,d1379625-47c2-4417-88c1-6628127e40b1,2023-03-14T21:27:59.000Z,2023-03-14T22:49:31.000Z,OH-8  Exit 10 / Seasons Rd,OH-59  Exit 6 / OH-8  Exit 6 / OH-59 Front St,Southbound,82,0.865,0.132,1.94,41.18834329912661,-81.47788899,41.16184951724374,-81.47030968,Yes
248,406,f775cae8-82e6-43e9-915a-f8e5c083ceac,2023-03-14T11:14:59.000Z,2023-03-14T11:43:27.000Z,OH-73 / OH-503 Elkton Rd,OH-73 State St,Eastbound,28,0.205,0.901,3.95,39.49427294,-84.54557374,39.48068,-84.47584999,Yes
249,408,121938ef-98f2-44dd-b75a-cde0e9231483,2023-03-14T06:01:07.000Z,2023-03-14T06:24:06.000Z,US-22 / OH-204 / Township Road 49,US-22 / US-22 Maysville Pike / CR-652 Limestone Valley Rd,Eastbound,23,0.096,0.707,5.88,39.84748000156112,-82.20330998,39.868365761819504,-82.1065576,Yes
250,315,80588e7d-1f28-4de5-ba39-a04468ef65f8,2023-03-14T10:07:46.000Z,2023-03-14T10:24:10.000Z,US-22 Main St,US-22 Cincinnati Zanesville Rd / US-22 / CR-89 County Line Rd,Westbound,16,0.734,0.542,5.24,39.79976580106523,-82.31259993,39.76844949766867,-82.40164285,Yes
251,318,fd7d75c4-b1ab-4eac-873f-329b8e3cbc65,2023-03-14T10:19:03.000Z,2023-03-14T10:24:10.000Z,Turner Rd,Shoup Mill Rd,Eastbound,5,0.383,0.676,1.68,39.81424462379607,-84.25879103,39.81275713930168,-84.22668366,No
252,361,2b68c350-9485-4223-9859-854ae6f0650f,2023-03-14T08:55:15.000Z,2023-03-14T09:09:08.000Z,OH-83 Avon Lake Rd / CR-4 Smith Rd,CR-4 Smith Rd / Kapok Dr,Eastbound,14,0.762,0.938,4.33,41.13605,-82.02371996,41.13593068003441,-81.94261917,Yes
253,276,9fb4f3e6-cd33-463a-bb9f-7d2aafb3ee38,2023-03-14T08:39:26.000Z,2023-03-14T08:46:08.000Z,OH-13 Cassell Rd / Beckley Rd,OH-13 By Pass Rd / CR-49 Quaker Rd,Northbound,7,0.941,0.8,3.88,40.44453551278347,-82.52959813,40.49170529285247,-82.55775761,Yes
254,159,554cbc1e-3209-4345-a3be-9c89c95a7e95,2023-03-14T05:30:44.000Z,2023-03-14T05:32:58.000Z,US-422,US-422,Westbound,2,0.471,0.472,5.29,41.38316985985421,-81.25114148,41.38932479960746,-81.35170251,Yes
255,240,94045b91-728e-4d32-981e-fb42954acf1a,2023-03-14T11:07:08.000Z,2023-03-14T11:16:23.000Z,US-20 Main St / OH-60 River St,OH-60 State Rd,Northbound,9,1.063,0.803,5.04,41.27006563,-82.39531861,41.333618745821255,-82.36031492,No
256,189,78fac77e-21b6-40f4-915d-5e47fe68f388,2023-03-14T08:54:35.000Z,2023-03-14T09:11:56.000Z,I-70  Exit 38 / OH-201 Brandt Pike,I-70  Exit 32 / Dayton Intl Airport Access Rd,Westbound,17,0.907,0.142,4.33,39.86897781076024,-84.12035557,39.86502368528672,-84.20176458,Yes
257,183,069e4152-1229-4cae-8b81-9e80ab07fc91,2023-03-14T04:19:32.000Z,2023-03-14T04:22:23.000Z,I-271  Exit 21 / I-480  Exit 22,I-480  Exit 37 / OH-91 Darrow Rd,Eastbound,3,0.15,0.169,4.97,41.35544972657731,-81.51361994,41.30742050259973,-81.44546897,Yes
258,67,d2e3f5ed-8079-4d1e-9ec1-c68a62585c20,2023-03-14T19:53:43.000Z,2023-03-14T20:06:46.000Z,I-75  Exit 13 / Shepherd Ln / Shepherd Ave,I-75  Exit 9 / OH-4 Paddock Rd / Summit Rd,Southbound,13,0.073,0.116,3,39.23988001912548,-84.45137264,39.2004603,-84.46908122,Yes
259,136,f80252e7-5d38-4eca-8e03-45d518220781,2023-03-14T05:48:04.000Z,2023-03-14T06:11:57.000Z,OH-12 / CR-236,OH-12,Eastbound,24,0.398,0.819,5.74,41.07045000092193,-83.59284,41.11495818,-83.50093364,Yes
260,121,a12b0cd8-0287-4b98-989f-d0875aface1e,2023-03-14T03:57:06.000Z,2023-03-14T04:15:22.000Z,US-250 / Dublin Rd,US-250 / OH-13 / Fitchville River Rd,Southbound,18,0.814,0.34,5.13,41.15661047500688,-82.54242898,41.09483835438678,-82.48844669,Yes
261,119,b75de59e-21c4-44e8-aa69-4ed888c0aaa9,2023-03-14T03:30:11.000Z,2023-03-14T03:33:04.000Z,US-250 / Dublin Rd,US-250 / Bowery St,Southbound,3,0.16,0.212,5.65,41.16458267160993,-82.54923788,41.096159989576506,-82.48962999,Yes
262,117,cb9ff3c0-fbd3-4cca-983a-7c2bd2e066be,2023-03-14T22:06:10.000Z,2023-03-14T22:09:52.000Z,I-75  Exit 7 / OH-562,"I-75  Exits 10,10A,10B / OH-126 Ronald Reagan Cross County Hwy Exits 27,27A,27B / Galbraith Rd",Northbound,4,0.235,0.087,1.81,39.17507388693898,-84.48886465,39.19746813,-84.47178222,Yes
263,110,e99b5c27-8146-416a-88c8-2d49fb256d36,2023-03-14T09:52:33.000Z,2023-03-14T10:01:16.000Z,CR-22 Marks Rd,CR-22 Marks Rd,Southbound,9,0.413,0.087,4.83,41.239289888709706,-81.87825,41.16971530872679,-81.87823576,Yes
264,90,ab853540-f286-487d-9e54-277bb6ae8507,2023-03-14T19:44:58.000Z,2023-03-14T19:50:20.000Z,CR-100 River Rd / CR-43 Wood Rd,CR-100 River Rd / Adams Rd / River Rd,Westbound,5,0.275,0.902,4.3,41.74292991603845,-81.10017282,41.72879,-81.17951,Yes
265,78,97e35827-4b40-4b01-9949-0ed937f81115,2023-03-14T11:40:47.000Z,2023-03-14T12:24:23.000Z,"I-70  Exits 112,112A,112B / OH-256 Reynoldsburg Baltimore Rd",I-70,Westbound,44,1.182,0.1,2.76,39.93498,-82.78474,39.93325003294248,-82.8360106,Yes
266,77,ab1854ee-ee2a-461d-9f40-0358f970cd40,2023-03-14T11:36:14.000Z,2023-03-14T12:06:24.000Z,OH-32 / CR-127 Black Hollow Rd,OH-32 / Dever Rd,Eastbound,30,0.459,0.574,5.37,39.00649537630085,-83.29659077,39.04502205226366,-83.21847231,Yes
267,75,15aa25d1-0c34-4fd5-a62c-a302ce777191,2023-03-14T20:01:58.000Z,2023-03-14T20:33:57.000Z,"I-70  Exits 105A,105B / James Rd",I-70,Eastbound,32,0.357,0.1,2.83,39.932588294867394,-82.90308229,39.93378997294144,-82.85084943,Yes
268,71,835c2bdf-8af9-4bad-9bb8-d5735e3a5955,2023-03-14T11:01:35.000Z,2023-03-14T11:15:38.000Z,CR-24 Oldtown Valley Rd / CR-53 Williams Lake Rd,CR-24 Oldtown Valley Rd / Possum Hollow Rd,Northbound,14,0.164,0.95,5.42,40.39969791239439,-81.52481084,40.45045028,-81.45657949,Yes
269,69,91a80785-1376-44e7-b8ae-5ebd4ffffb5b,2023-03-14T13:04:12.000Z,2023-03-14T13:04:56.000Z,"I-71  Exits 109A,109B,110A / I-670  Exits 4A,4A-B,4B,4C,5,5A-5B / Goodale St",I-670  Exit 7 / US-62 5th Ave / 5th Ave,Eastbound,1,0.232,0.354,2.61,39.97163078394198,-82.98858099,39.98097198952427,-82.94376359,Yes
270,68,6a3eb5b1-0866-48bf-8d96-cb7de852ff24,2023-03-14T06:09:00.000Z,2023-03-14T06:25:17.000Z,OH-2,OH-2,Westbound,16,0.337,1.078,6.12,41.39790610287043,-82.37468197,41.36806100891203,-82.48029187,Yes
271,67,2ab4641b-bbb6-43da-883f-ba133a5308e7,2023-03-14T20:09:58.000Z,2023-03-14T20:32:40.000Z,I-75  Exit 13 / Shepherd Ln / Shepherd Ave,I-75  Exit 9 / OH-4 Paddock Rd / Summit Rd,Southbound,23,0.314,0.116,2.76,39.23683982620476,-84.45114061,39.2004603,-84.46908122,Yes
272,65,c8e65abb-c507-4d2e-a84b-e367afa4c20a,2023-03-14T10:39:23.000Z,2023-03-14T13:02:02.000Z,US-40 National Rd / Corporate Center Dr,US-40 National Rd / US-40 Main St / OH-48 Main St,Westbound,143,0.271,0,4.2,39.88886644879522,-84.22253702,39.866849042850845,-84.28944163,Yes
273,63,07274dc5-e177-48dd-878c-123f87d2e7c0,2023-03-14T04:30:42.000Z,2023-03-14T04:54:28.000Z,OH-11  Exit 34 / CR-109 Raccoon Rd,OH-11,Northbound,24,0.447,0.232,5.01,41.02615176,-80.73929448,41.09813026469135,-80.75166007,Yes
274,61,518eecca-9f2a-4245-8152-b727032b547a,2023-03-14T13:02:41.000Z,2023-03-14T13:06:14.000Z,OH-16 / 21st St,OH-16 / Cherry Valley Rd,Westbound,4,0.44,0.239,2.21,40.06318,-82.43437,40.05364001237655,-82.47344019,Yes
275,58,d977b1c0-8469-4d3e-a007-f1b289e7e939,2023-03-14T10:37:43.000Z,2023-03-14T11:27:27.000Z,I-75  Exit 44 / OH-725 Miamisburg Centerville Rd,I-75,Northbound,50,0.143,0.834,4.18,39.63729586841996,-84.23093032,39.69678237331456,-84.22945972,Yes
276,50,2db0a6e1-f050-4fad-8679-ab35aef79fa9,2023-03-14T03:51:00.000Z,2023-03-14T03:58:50.000Z,OH-11,OH-11,Southbound,8,0.458,0.158,5.02,41.03670877588044,-80.74187254,40.96776895066823,-80.7197677,Yes
277,36,e63b8dcc-f56b-4ad2-8f29-38422d04bfc7,2023-03-14T09:52:27.000Z,2023-03-14T10:03:45.000Z,I-75  Exit 59 / Benchwood Rd,"I-75  Exits 54A,54B / OH-4 / OH-48 Main St",Southbound,11,0.133,0.147,3.23,39.83449840723983,-84.18962996,39.78912919162792,-84.18399712,Yes
278,33,4ba209ef-8058-49ba-b416-b2f4a5004b8a,2023-03-14T10:37:56.000Z,2023-03-14T11:37:15.000Z,I-480  Exit 16 / OH-94 State Rd,I-480  Exit 12B / 130th St,Westbound,59,0.555,0.649,3.26,41.42167,-81.7155,41.42184,-81.77658,Yes
279,27,c64a98fb-df36-4511-b34f-f866aca9cbb0,2023-03-14T11:03:01.000Z,2023-03-14T12:17:48.000Z,Smithville Rd / Highview Ave,Airway Rd / 3rd St / Smithville Rd,Northbound,75,0,0.028,2.63,39.72705,-84.1415,39.76502118762331,-84.13781991,Yes
280,17,2bd0ddb8-95d7-4eb1-b64a-84bcf69fbda0,2023-03-14T11:06:09.000Z,2023-03-14T11:19:53.000Z,I-275,I-275  Exit 50 / US-22 Montgomery Rd / Hetz Dr,Northbound,14,0.734,0.765,2.74,39.23525219143648,-84.29373203,39.25650128087588,-84.33134805,Yes
281,133,b6f781af-363a-460d-83cc-7bb7f8834bbf,2023-03-14T11:00:59.000Z,2023-03-14T11:11:49.000Z,US-62 / CR-90 Old Us-62,US-62 High St / Diamond Dr,Southbound,11,0.838,0.586,4.82,39.30156700345295,-83.58129943,39.23684998448509,-83.60874001,Yes
282,440,9f64c31e-5636-416e-80a8-4e092c5680d2,2023-03-14T10:37:43.000Z,2023-03-14T10:45:56.000Z,CR-48 Frederick-Garland Rd,CR-43 Kessler-Frederick Rd / CR-48 Frederick-Garland Rd,Eastbound,8,0.869,0.7,4.5,39.93501133151719,-84.34943031,39.92537107421829,-84.27537187,Yes
283,147,0b44c4fe-c06f-4e01-8a1e-8a7ae76a1cd2,2023-03-14T11:19:53.000Z,2023-03-14T12:53:00.000Z,US-40 Main St / US-40 11th St / Main St,US-40,Eastbound,93,0,0.136,4.11,39.82915,-84.88767,39.83372000459646,-84.81066994,Yes
284,217,fa7b84da-89b8-4b15-aa3e-b98c2a4b64ac,2023-03-14T11:38:30.000Z,2023-03-14T11:45:23.000Z,OH-73,OH-73 / OH-729,Eastbound,7,0.87,0.24,2.77,39.38249815160976,-83.74234501,39.34829993376927,-83.7166599,Yes
285,242,f7d74500-66c9-47b6-8285-78ed30ab7c1d,2023-03-14T10:37:43.000Z,2023-03-14T11:03:01.000Z,OH-49 Salem Ave,OH-49 / Free Pike,Southbound,25,0.282,0,3.24,39.84250970255324,-84.31390949,39.80730311309336,-84.28231549,Yes
286,241,37d099e7-f7c0-4423-a31c-201ffc836607,2023-03-14T11:42:04.000Z,2023-03-14T11:49:36.000Z,OH-49 Salem Ave / Westbrook Rd,Salem Ave / Covenant House Dr,Eastbound,8,0.348,0.125,1.46,39.83317074577717,-84.29824996,39.81857205,-84.27956133,No
287,51,fb0c4272-1c3d-456c-8975-23b25c4b0c84,2023-03-14T11:30:03.000Z,2023-03-14T12:01:04.000Z,OH-166 Rock Creek Rd / Hambden Hills Dr,OH-166 / OH-166 Footville-Richmond Rd / CR-63 Dawsey Rd,Eastbound,31,0,1.016,5.45,41.63980245,-81.09968716,41.66638406393199,-81.00736832,Yes
288,334,e0b2b650-097d-4e65-9426-844b970b911c,2023-03-14T11:13:01.000Z,2023-03-14T12:03:07.000Z,Raider Rd,Dayton-Xenia Rd / Fairfield Rd,Southbound,50,0,0.458,3.64,39.77995,-84.05354,39.72797999976812,-84.05724,Yes
289,49,34fcdec1-1eac-41a0-b0a3-c5db910fba28,2023-03-14T20:56:33.000Z,2023-03-14T20:58:56.000Z,I-75  Exit 14 / Glendale Milford Rd / Vision Way,"I-75  Exits 10,10A,10B / OH-126 Ronald Reagan Cross County Hwy Exits 27,27A,27B / Galbraith Rd",Southbound,2,0.954,0.171,1.57,39.24419,-84.44875,39.22370178903797,-84.45456937,No
290,94,e18ed98a-fe9a-4b47-9e2b-dcdd928f7cf0,2023-03-14T06:11:53.000Z,2023-03-14T06:22:39.000Z,CR-18 Tallmadge Rd / OH-225,OH-14 / OH-225,Southbound,11,0,0.01,4.36,41.08949403,-81.051108,41.02641,-81.05042,Yes
291,343,3826f476-7769-4640-b2ce-001a5e7d794b,2023-03-14T11:11:41.000Z,2023-03-14T12:10:37.000Z,CR-6 Ford Rd / CR-217 Blair Rd,CR-6 Ford Rd / Loveland Rd,Eastbound,59,0,0.959,4.13,41.72331,-81.13681,41.72288,-81.05792987,Yes
292,49,4cac2372-1164-4140-ac07-430cbdd936d1,2023-03-14T21:18:59.000Z,2023-03-14T21:20:05.000Z,I-75  Exit 14 / Glendale Milford Rd / Vision Way,"I-75  Exits 10,10A,10B / OH-126 Ronald Reagan Cross County Hwy Exits 27,27A,27B / Galbraith Rd",Southbound,1,0.954,0.049,1.45,39.24419,-84.44875,39.22461094344544,-84.45363909,No
293,232,89412ce1-c9af-4e23-a2e0-6020fd7a6d1c,2023-03-14T11:42:04.000Z,2023-03-14T12:01:02.000Z,I-71  Exit 104 / Frank Rd,"I-70  Exits 100A,100B / Fulton St / US-33 3rd St",Northbound,19,0.44,0.132,1.79,39.928310369681874,-83.01115309,39.95272012119621,-83.01014955,Yes
294,48,23c48ee5-3e52-4c35-a266-0b15f3855edc,2023-03-14T10:35:45.000Z,2023-03-14T10:45:21.000Z,I-75  Exit 68 / OH-571 Main St,"I-75  Exit 61 / I-70  Exits 33,33A,33B",Southbound,10,0.482,0.227,2.31,39.919682577322064,-84.18855824,39.88511558657463,-84.18766955,Yes
295,352,494f07f3-b875-41e0-8a54-0fe2cdedf5c2,2023-03-14T12:14:35.000Z,2023-03-14T12:54:28.000Z,OH-48,OH-48 Dayton Lebanon Pike / Calverda Dr,Northbound,40,0.484,1.1,4.72,39.52584278402872,-84.17717658,39.59093312605033,-84.16216626,Yes
296,279,66836529-d141-4206-b95e-283c4b69a7f4,2023-03-14T11:09:36.000Z,2023-03-14T11:18:50.000Z,Little York Rd / Stoner Dr,Little York Rd / Webster St,Eastbound,9,0.503,0.075,3.84,39.85937671121136,-84.25613046,39.85508998403416,-84.18700971,Yes
297,40,a5673fc3-5b40-42fd-b63d-b45f92d4c5bb,2023-03-14T14:04:46.000Z,2023-03-14T14:37:53.000Z,"I-75  Exit 24 / OH-129 Butler County Veterans Hwy Exits 25A,25B / Liberty Way",I-75  Exit 19 / Union Centre Blvd,Southbound,33,0.695,1.214,3.31,39.35895595723766,-84.37046414,39.32938238,-84.41707938,Yes
298,362,9827ce20-af50-4e38-a82d-357d217f947d,2023-03-14T13:04:12.000Z,2023-03-14T13:04:56.000Z,OH-315  Exit 10 / OH-161 Dublin Granville Rd / OH-161 Granville Rd,"OH-315  Exits 6,6A-B / North Broadway / Olentangy River Rd",Southbound,1,0.345,0.819,3.27,40.08867309939908,-83.03591592,40.04201416764363,-83.03257878,Yes
299,362,2c7b1f04-502d-4b9b-b2e3-95909b9f0b44,2023-03-14T12:59:13.000Z,2023-03-14T12:59:46.000Z,OH-315  Exit 10 / OH-161 Dublin Granville Rd / OH-161 Granville Rd,"OH-315  Exits 6,6A-B / North Broadway / Olentangy River Rd",Southbound,1,0.345,0.66,3.11,40.08867309939908,-83.03591592,40.04421988852906,-83.03338775,Yes
300,39,2c1e75c2-ab10-494b-b560-2cd68a303620,2023-03-14T12:09:22.000Z,2023-03-14T12:54:28.000Z,Tylersville Rd / 2nd St,OH-747 / Tylersville Rd,Westbound,45,0.844,0.269,3.64,39.35726,-84.39276004,39.36264109170727,-84.45991528,Yes
301,223,ded1c195-3b28-4510-8420-db3d9fd1d9ca,2023-03-14T10:47:11.000Z,2023-03-14T10:52:30.000Z,OH-47 / CR-22 Hillgrove-Fort Recovery Rd / Hillgrove-Fort Recovery Rd,OH-47 / Duncan Rd,Eastbound,5,0.986,0.841,4.06,40.22260421483471,-84.75576496,40.22009189813602,-84.67879032,Yes
302,221,e373ac68-3e41-4e41-89bf-1384050999a0,2023-03-14T10:40:41.000Z,2023-03-14T10:41:22.000Z,OH-571,OH-571 Main St / Garber Dr,Eastbound,1,0.389,0.063,3.87,39.96232000026001,-84.25929997,39.96086,-84.18846974,Yes
303,365,a26e59b3-e98d-4a62-ae90-700e2f2f6bf8,2023-03-14T20:45:00.000Z,2023-03-14T20:50:44.000Z,I-76  Exit 21C / OH-59 Innerbelt,"I-77  Exit 125B / I-76  Exits 23A,23B / OH-8 I-77",Southbound,6,0.445,0.352,1.24,41.06200000333455,-81.53768969,41.06248409946546,-81.51468249,Yes
304,108,4922c800-1d07-482b-bcab-3f99d5915ec2,2023-03-14T12:12:03.000Z,2023-03-14T12:24:24.000Z,I-90,I-90  Exit 161 / OH-2 Detroit Rd / OH-254 Detroit Rd,Eastbound,12,1.005,0.175,2.52,41.46754585,-81.92644487,41.47585555330973,-81.87967322,Yes
305,369,093bebfe-c0f2-46eb-b874-664d3e8136eb,2023-03-14T09:17:06.000Z,2023-03-14T09:45:56.000Z,I-80,I-80,Westbound,29,0.18,0.474,4.79,41.34276760888706,-82.34709151,41.33190119696633,-82.43752621,Yes
306,87,7b522161-351b-46dd-95db-84df3e849a37,2023-03-14T04:24:32.000Z,2023-03-14T04:30:42.000Z,OH-11,OH-11  Exit 61 / OH-5 Warren Rd / OH-5,Northbound,6,0.893,1.476,4.28,41.30467904632653,-80.70485013,41.36619266396464,-80.69842044,Yes
307,56,3b41f378-8502-485d-af28-a9cde00e7b50,2023-03-14T10:55:37.000Z,2023-03-14T10:57:33.000Z,OH-73 / Stone Ridge Dr,OH-73,Eastbound,2,0.88,0.608,3.88,39.54735483190297,-84.19765456,39.54468378155567,-84.1245569,No
308,323,290a2c82-d355-4a45-9b2b-f6cfb1f3dac8,2023-03-14T11:45:23.000Z,2023-03-14T12:03:07.000Z,National Rd / Kauffman Ave Bike Path Spur,Grange Hall Rd / La Grange Rd,Southbound,18,0.053,0.028,2.86,39.79275981617864,-84.07866002,39.7565373,-84.08146028,Yes
309,310,0ee989cc-9a96-47cf-9ff6-9bcd75cce991,2023-03-14T10:57:33.000Z,2023-03-14T11:03:01.000Z,OH-73 / Diven Rd,OH-73 / Powell Rd / CR-9 Powell Rd,Westbound,5,0.345,0.169,4.12,39.23692266251735,-83.63909434,39.28834125547096,-83.67379085,Yes
310,283,c1e940d6-418c-4dc4-a722-bb7c7965f802,2023-03-14T04:49:17.000Z,2023-03-14T05:04:25.000Z,"I-271  Exits 27A-B,27B / I-480  Exit 13A / US-422  Exit 13B",I-271,Northbound,15,0.091,0.272,3.78,41.43408,-81.50109,41.48636848230021,-81.48651737,Yes
311,285,0548e06a-7bd9-4318-829c-fdf044a2aba2,2023-03-14T12:28:26.000Z,2023-03-14T12:36:13.000Z,Gettysburg Ave / Melbourne Ave,Gettysburg Ave / Owens Dr,Northbound,8,0.523,0,2.35,39.757030044827744,-84.25319,39.790621266542345,-84.2538,Yes
312,286,a6900e0c-98f8-4820-852f-4d028cb6903d,2023-03-14T21:07:49.000Z,2023-03-14T21:12:58.000Z,I-71  Exit 11 / Kenwood Rd,I-71  Exit 15 / Pfeiffer Rd,Northbound,5,0.305,0.172,2.44,39.19450098432954,-84.38079655,39.22706827219064,-84.36661091,Yes
313,267,923b7a2e-9453-467e-b3ac-093772043231,2023-03-14T12:56:52.000Z,2023-03-14T13:15:09.000Z,I-77  Exit 153 / Pleasant Valley Rd / Forestwood Dr,"I-480  Exit 20A-B / I-77  Exits 155,156 / Rockside Rd",Northbound,18,0.933,0.562,2.02,41.36189,-81.65007,41.39006271038922,-81.65283264,Yes
314,78,6d5fed5c-1934-47e9-a0a6-210ef8c088da,2023-03-14T15:20:03.000Z,2023-03-14T15:42:31.000Z,I-70,I-70,Westbound,22,0.653,0.311,2.93,39.83561208,-84.64747483,39.83570474,-84.70128077,Yes
315,66,2b32add3-5bc2-4a89-b868-fbcd51fb5764,2023-03-14T22:57:41.000Z,2023-03-14T22:58:55.000Z,I-90,I-90,Westbound,1,0.687,0,2.73,41.71202834932626,-81.17044569,41.68761030924874,-81.21085105,No
316,300,e1a94dca-23bd-473f-b374-c885c45da644,2023-03-14T07:20:36.000Z,2023-03-14T07:26:18.000Z,OH-167 / OH-7 / Wey Ave,OH-167 / OH-193,Westbound,6,0.277,0.814,4.79,41.75161768393411,-80.57482951,41.75166898209568,-80.66495415,Yes
317,301,11931d95-ec83-4ba7-bc17-108e1c2205e1,2023-03-14T20:21:34.000Z,2023-03-14T21:18:32.000Z,US-23  Exit 6 / CR-91 Dussel Dr / Dussel Dr,I-475,Southbound,57,1.511,0.671,3.29,41.58542,-83.69147,41.53966494607911,-83.67827403,Yes
318,260,53d9c46c-66f2-4965-a574-01d5d5bed8da,2023-03-14T04:47:40.000Z,2023-03-14T04:49:17.000Z,US-30,US-30 / CR-447 Dresden Ave / OH-170,Eastbound,2,0.167,0.474,3.84,40.698840016444464,-80.66845001,40.67239068213453,-80.60725665,Yes
319,63,6a0e6f3d-deb3-467e-8810-79454a71bf3d,2023-03-14T04:16:14.000Z,2023-03-14T04:17:26.000Z,OH-11,OH-11,Northbound,1,0.934,0.391,3.44,40.85614624631607,-80.73115467,40.90477159536442,-80.72157889,No
320,322,d7bf6776-ffb7-45a9-940b-8087e2f71006,2023-03-14T08:29:23.000Z,2023-03-14T08:55:15.000Z,New Castle Columbiana Rd / Stateline Rd / CR-62 Columbiana Rd,CR-8 Garfield Rd / CR-62 Columbiana Rd,Westbound,26,0.155,0.503,4.59,40.94923228541287,-80.53559781,40.91445001,-80.60831999,Yes
321,255,61a4675e-2e69-430b-af82-840396acdfbd,2023-03-14T21:02:15.000Z,2023-03-14T21:33:09.000Z,OH-315 / Hard Rd,OH-315 Olentangy River Rd / Retreat Ln,Northbound,31,0.139,0.76,2.78,40.11957032184933,-83.03445011,40.15827000681317,-83.04576,Yes
322,166,c69285d3-bf1d-41b7-97e4-19f56e674310,2023-03-14T05:48:04.000Z,2023-03-14T06:01:02.000Z,Railroad St / Hyde St,OH-60,Southbound,13,0,0.041,4.61,41.25553,-82.40665,41.197132621780696,-82.40915961,Yes
323,253,f4174615-5515-460f-8c3b-129c0fbbf1cd,2023-03-14T10:53:32.000Z,2023-03-14T11:06:10.000Z,CR-135 Lytle Ferry Rd / Elm Tree Rd,Clyo Rd,Northbound,13,0,0.653,4.24,39.57677,-84.11428,39.63019540630376,-84.13919756,Yes
324,79,2a76152f-e058-419b-97b3-c1986d3f7179,2023-03-14T10:44:00.000Z,2023-03-14T11:00:59.000Z,I-75,I-75  Exit 44 / OH-725 Miamisburg Centerville Rd,Northbound,17,0,0.073,3.73,39.57841395,-84.25132846,39.628660723386815,-84.22953007,Yes
325,60,367f8bcb-b4d3-47b2-8e9f-0d1a619eecc1,2023-03-14T03:49:38.000Z,2023-03-14T04:09:22.000Z,US-224,US-42 Lafayette Rd / OH-421 Lafayette Rd / US-224,Westbound,20,1.093,0.783,3.94,41.0368877,-81.92011915,41.04648502617872,-81.99059165,Yes
326,317,89cde8c4-f86e-4d68-824c-84d4d7db059b,2023-03-14T12:19:11.000Z,2023-03-14T12:34:19.000Z,OH-47 / County Road 9,County Road 9,Northbound,15,0.009,0.898,5.36,40.38187164232914,-83.74276947,40.44590123065685,-83.68539637,Yes
327,80,204baff9-33d0-44e2-a315-06842590e9dd,2023-03-14T11:42:04.000Z,2023-03-14T13:22:32.000Z,I-71,I-71,Northbound,100,0.321,0.317,3.69,39.42296029,-84.09308916,39.446307932542126,-84.03159198,Yes
328,83,47833561-0796-4668-a3e1-061f6b0852f4,2023-03-14T03:37:33.000Z,2023-03-14T03:40:53.000Z,I-480 / I-271,I-480,Westbound,3,0,0.181,3.91,41.38093,-81.51261,41.42483,-81.53557,Yes
329,319,0276b435-32d0-463e-952a-9ca1e2307aea,2023-03-14T12:52:06.000Z,2023-03-14T13:21:15.000Z,"I-480  Exit 20A-B / I-77  Exits 155,156 / Rockside Rd",I-77  Exit 158 / Grant Ave,Northbound,29,0.405,0.794,2.63,41.39782936824408,-81.65235593,41.43403309952408,-81.64900082,Yes
330,371,f383bbbc-20a4-42a3-8d94-69f9ea6c2213,2023-03-14T12:06:10.000Z,2023-03-14T12:16:42.000Z,I-90  Exit 175 / 55th St / Marginal Rd,I-90  Exit 174B / OH-2  Exit 196B,Westbound,11,0.66,0,1.48,41.52796524872401,-81.6563095,41.51586494014349,-81.67961468,Yes
331,66,325b3471-3cc3-4cb9-b5ec-40cc424123b3,2023-03-14T23:10:36.000Z,2023-03-14T23:11:42.000Z,I-90,I-90,Westbound,1,0.687,0,2.73,41.71202834932626,-81.17044569,41.68761030924874,-81.21085105,No
332,175,28ffece1-a5e3-47f0-8a42-11e9eecd02fd,2023-03-14T11:56:55.000Z,2023-03-14T12:24:23.000Z,I-70 / Sullivant Ave,"I-70  Exits 100A,100B / Fulton St / US-33 3rd St",Eastbound,27,0.221,0.132,1.2,39.947733661688254,-83.03185803,39.95272012119621,-83.01014955,Yes
333,144,2da0d0e0-b3df-4d5e-984e-f7bfe24deef0,2023-03-14T05:04:25.000Z,2023-03-14T05:06:04.000Z,OH-7 / CR-428 Sprucevale Rd,OH-7 / CR-419 Middle Beaver Rd,Southbound,2,1.025,0.239,3.54,40.78632,-80.62505,40.73875691831744,-80.63909502,No
334,404,77fa758c-e0bc-45d7-bbd1-59e054d82685,2023-03-14T12:01:02.000Z,2023-03-14T12:04:00.000Z,OH-41 / Parker Ridge Rd,OH-41 / Water Aly,Southbound,3,0.46,0.202,3.73,39.03949340555511,-83.38626451,38.98903971931056,-83.37789007,Yes
335,409,8513c735-4692-43fc-915a-33af682370ac,2023-03-14T13:49:09.000Z,2023-03-14T14:07:41.000Z,CR-149 Bear Swamp Rd / OH-739 Dayton Ave / OH-739,CR-133 Northwest Pkwy / CR-149 Bear Swamp Rd,Southbound,19,0,0.484,4.87,40.33101,-83.47225,40.26365359528408,-83.46928183,Yes
336,14,62831c6c-7811-42ec-b0eb-024f00d5c4c2,2023-03-14T12:37:40.000Z,2023-03-14T12:41:31.000Z,OH-257 Riverside Dr / Bright Rd,OH-257 Riverside Dr / Jerry Borin Trce,Northbound,4,1.001,0.456,3.33,40.11406,-83.1099,40.15927474973525,-83.12095279,Yes
337,13,f2ef1fe2-4874-493d-a5eb-e4609e2ec6c9,2023-03-14T10:54:16.000Z,2023-03-14T11:11:41.000Z,CR-100 River Rd / Adams Rd / River Rd,CR-100 River Rd / Apache Trl,Eastbound,17,0,0.657,4.03,41.72879,-81.17951,41.742127222912295,-81.1061355,Yes
338,199,c94d4cff-d28f-48c9-af1f-660b3ecf98d3,2023-03-14T12:07:26.000Z,2023-03-14T12:43:10.000Z,Harshman Rd / OH-4,OH-4,Eastbound,36,0.904,0.606,1.43,39.798550275913904,-84.10960858,39.81044631030457,-84.0886724,Yes
339,34,add967ae-3e2c-43a3-be76-c636d0714529,2023-03-14T19:53:52.000Z,2023-03-14T20:52:47.000Z,I-480,I-480,Eastbound,59,0.804,0.31,2.43,41.421570893821546,-81.58608844,41.42475,-81.53996939,Yes
340,417,75290248-61d9-4d3c-ac62-a1b159ce116b,2023-03-14T12:55:10.000Z,2023-03-14T13:09:14.000Z,"I-75  Exits 3,4 / I-74 / US-52 Hopple St",I-75  Exit 8 / Towne St,Northbound,14,1.241,0.24,2.37,39.16206091444532,-84.51894788,39.18012013068882,-84.48559993,Yes
341,422,cfc719ca-a38e-4ba0-83b4-8120799a5d12,2023-03-14T12:07:26.000Z,2023-03-14T13:22:32.000Z,"I-270  Exits 17A,17B / OH-161  Exit 108",I-270  Exit 20 / CR-70 Sawmill Rd / Sawmill Rd,Northbound,75,0,0.502,3.63,40.10623,-83.12408,40.11113823342477,-83.05694914,Yes
342,137,6a54d572-8b89-4c30-8a78-bde3356c9364,2023-03-14T11:36:14.000Z,2023-03-14T12:04:53.000Z,OH-73,OH-73 / OH-503 Elkton Rd,Westbound,29,0.64,0.365,1.48,39.484230019678925,-84.51200003,39.49192554247324,-84.53610473,Yes
343,16,5ce4ca96-86d0-4d79-8f8c-483755f52bda,2023-03-14T11:56:13.000Z,2023-03-14T12:29:53.000Z,Cincinnati Dayton Rd / Eagles Wing Dr,Cincinnati Dayton Rd,Southbound,34,0.616,0.45,2.91,39.36496891618727,-84.38947096,39.32985989647212,-84.40892491,Yes
344,137,096bdf2d-9274-4d1c-8677-142260d403d7,2023-03-14T11:21:11.000Z,2023-03-14T11:31:12.000Z,OH-73,OH-73 / OH-503 Elkton Rd,Westbound,10,0.64,1.052,2.17,39.484230019678925,-84.51200003,39.49424791089836,-84.5476561,Yes
345,432,a6364584-4618-40bc-9bb8-e2c740b4c7b9,2023-03-14T11:46:40.000Z,2023-03-14T11:54:05.000Z,Salem Ave / Grant Ave,OH-49 Salem Ave,Westbound,7,0.304,0.289,2.83,39.79706003199519,-84.25093005,39.82324189724097,-84.2898419,Yes
346,186,ee490534-1385-4952-a930-a01d0205e1b2,2023-03-14T10:37:43.000Z,2023-03-14T11:54:57.000Z,I-675  Exit 16 / Grange Hall Rd,I-675,Northbound,77,0.111,0.766,4.22,39.77319170952359,-84.06937461,39.78906832672196,-84.00276043,Yes
347,5,d9bbf9f5-e674-4c48-9132-454da5690d0b,2023-03-14T04:24:32.000Z,2023-03-14T04:40:50.000Z,CR-32 Western Reserve Rd / CR-25 Beloit Snodes Rd,CR-32 Western Reserve Rd / CR-53 Duck Creek Rd,Eastbound,16,0.787,0.773,4.27,40.98778,-80.99396496,40.98768000030949,-80.9127532,Yes
348,140,3bd91b47-6a15-421f-91b8-3a5ff6b81137,2023-03-14T05:04:00.000Z,2023-03-14T05:13:02.000Z,OH-2  Exit 143 / US-6 Jim Campbell Blvd,OH-2  Exit 147 / CR-132 Berlin Rd,Eastbound,9,0.125,0.781,4.45,41.40040177,-82.57938462,41.36843832,-82.52678286,Yes
349,141,ec43d655-4b83-4926-82b2-985d708355ac,2023-03-14T13:52:37.000Z,2023-03-14T13:57:58.000Z,I-70,I-70,Eastbound,5,0.771,0.658,2.46,39.851036715871416,-84.8359372,39.82849000614017,-84.80263526,Yes
350,3,8a31d932-cb29-40ef-99cf-c1f028efbb6c,2023-03-14T21:25:21.000Z,2023-03-14T21:56:10.000Z,"I-71  Exits 3,3A-B / Essex Pl / William Howard Taft Rd","I-71  Exits 7,8A,8B / OH-562 / Ridge Ave",Northbound,31,0.503,0.083,2.5,39.14362388846738,-84.48001121,39.15620807759622,-84.44025825,Yes
351,143,a338572d-4380-46f3-9ab3-0a0fdc181bb8,2023-03-14T11:36:46.000Z,2023-03-14T12:03:07.000Z,I-70  Exit 1 / US-35 / OH-320,I-70,Westbound,26,0.222,0.521,3.06,39.828799364282624,-84.79370497,39.852165371595085,-84.83674811,Yes
352,403,67885b30-ea23-4499-8365-b51a2cfb6b74,2023-03-14T11:59:12.000Z,2023-03-14T12:04:06.000Z,OH-800 Freeport Rd / OH-800 Hendrysburg Freeport Rd / Blake Rd,OH-800 Hendrysburg Freeport Rd / CR-40A Old National Rd,Southbound,5,0.531,0.712,4.71,40.137087824537325,-81.22525468,40.08040999190488,-81.20855,Yes
353,416,277d0941-b814-4190-b855-325c59acb0aa,2023-03-14T12:02:51.000Z,2023-03-14T12:39:08.000Z,US-23  Exit 6 / CR-91 Dussel Dr / Dussel Dr,US-23,Northbound,36,1.281,0.231,2.4,41.57724,-83.69101,41.61120322254053,-83.69114499,Yes
354,355,3e1f30fc-6b2d-4bb1-bcfa-306eb83f91b7,2023-03-14T12:13:13.000Z,2023-03-14T12:20:46.000Z,CR-106 Africa Rd / CR-21 Africa Rd / CR-106 Lewis Center Rd,Africa Rd / Parkmoor Dr,Southbound,8,0.135,0,3.24,40.19342595253276,-82.94342365,40.15526095673905,-82.94522123,Yes
355,398,c6859eb7-6616-47b9-9bc9-dd69aab8a111,2023-03-14T05:07:25.000Z,2023-03-14T05:21:00.000Z,OH-7 / 25th St Hts / Clark Ave,OH-7 / Stratton Heights Rd,Southbound,14,0,0.479,4.77,40.58722,-80.66994,40.52922856837724,-80.62995805,Yes
356,382,f4d0f319-a71f-4878-9aee-2ed4fa578847,2023-03-14T04:15:18.000Z,2023-03-14T04:17:26.000Z,US-422,US-422  Exit 16 / Harper Rd,Westbound,2,0.892,1.241,2.4,41.390979489018896,-81.42109009,41.40266684152794,-81.46144722,No
357,211,f32ca5da-994b-458c-a352-7034944c70b5,2023-03-14T11:46:40.000Z,2023-03-14T12:04:00.000Z,OH-32,OH-32 / Church St,Westbound,17,0.103,0.275,1.39,39.12449005974743,-84.33598064,39.12452999874208,-84.36185003,Yes
358,26,f860c246-baa7-446a-8abb-368af27e4c47,2023-03-14T11:28:07.000Z,2023-03-14T11:36:14.000Z,OH-129 Butler County Veterans Hwy Exit 21 / OH-747 Princeton Glendale Rd,OH-129 Butler County Veterans Hwy Exit 24 / Cincinnati Dayton Rd,Eastbound,8,0.411,0,3.45,39.38119,-84.45114875,39.374169570673246,-84.38807884,Yes
359,24,678ee55e-d9df-48c4-94c2-f0482ded995f,2023-03-14T12:14:35.000Z,2023-03-14T12:29:53.000Z,OH-48 Dayton Lebanon Pike / Nantucket Lndg,OH-48,Southbound,15,0.204,0.147,4.13,39.60306965970031,-84.16111003,39.543686231175926,-84.16622125,Yes
360,23,e9bba989-0f37-40b5-bb72-363ba57d8ff8,2023-03-14T12:41:31.000Z,2023-03-14T13:04:56.000Z,"I-70  Exits 112,112A,112B / OH-256 Reynoldsburg Baltimore Rd","I-270  Exits 41-43,43A-B-41 / I-70  Exits 108,108A-B / US-40 Main St",Westbound,23,0.381,0.383,2.66,39.93329170050142,-82.79157997,39.93352206,-82.84088433,Yes
361,31,d5f17819-8746-486e-97b2-36a3c13621fd,2023-03-14T11:43:27.000Z,2023-03-14T12:46:18.000Z,OH-32,OH-32 / CR-127 Black Hollow Rd,Westbound,63,0.97,1.049,4.41,39.02695721376405,-83.26966404,38.98480373,-83.32135873,Yes
362,146,e7efafc0-a009-44bc-9778-a9ece390d893,2023-03-14T12:21:31.000Z,2023-03-14T13:19:26.000Z,OH-823 / US-52,US-52 / US-52 Gallia St,Westbound,58,0.329,0.428,1.65,38.74838851485958,-82.87303916,38.75725390631459,-82.89958327,Yes
363,401,7c3f8f24-ec08-4f45-bf31-81464469903d,2023-03-14T03:17:39.000Z,2023-03-14T03:30:57.000Z,US-30 / OH-241 Millersburg Rd,US-30,Westbound,13,0.193,0.291,4.95,40.77240377283833,-81.58801953,40.79716997717152,-81.67401026,Yes
364,377,a2795c21-172b-40ba-9095-6722dfe894aa,2023-03-14T12:11:16.000Z,2023-03-14T12:29:53.000Z,OH-161  Exit 106 / US-33  Exit 106,"I-270  Exits 17A,17B / OH-161  Exit 108",Eastbound,19,0,0.609,2.7,40.11334,-83.18175,40.09897,-83.14098,Yes
365,438,ad1ef364-93d8-420b-bda4-b5341a3c3fc2,2023-03-14T11:59:56.000Z,2023-03-14T12:04:00.000Z,Gettysburg Ave / Gotham Ave,Gettysburg Ave / 3rd St,Southbound,4,1.029,0.889,2.97,39.79244,-84.25382,39.7497901,-84.25314973,Yes
366,435,fc88581d-c4b4-4168-bcff-a5180af27197,2023-03-14T11:27:27.000Z,2023-03-14T12:11:17.000Z,OH-73,OH-73 / Cotton Run Rd,Westbound,44,0.64,0.742,0.81,39.484230019678925,-84.51200003,39.489180881526345,-84.52446264,Yes
367,32,31082fa5-2775-45d5-9946-9064c2839054,2023-03-14T11:10:06.000Z,2023-03-14T11:56:13.000Z,OH-835 Woodman Dr,Woodman Dr / Harshman Rd / Springfield St,Northbound,46,0.279,0.647,3.1,39.72658046408763,-84.12236996,39.76959043,-84.12316952,Yes
368,66,93ea52d5-ebf5-4fed-b90f-bd64c6349699,2023-03-14T19:58:51.000Z,2023-03-14T23:14:57.000Z,I-90  Exit 200 / OH-44,I-90,Westbound,196,0.203,0.459,2.4,41.666719967504925,-81.25602007,41.64953991366309,-81.29645035,Yes
369,66,08a763d0-08a7-44c8-bdf3-434a803a70ad,2023-03-14T22:32:08.000Z,2023-03-14T22:33:28.000Z,I-90  Exit 205 / CR-227 Vrooman Rd / Vrooman Rd,I-90,Westbound,1,0,0,2.59,41.71038,-81.17317,41.68761030924874,-81.21085105,No
370,34,1cc14c22-0217-451f-84c4-aab43172eb7f,2023-03-14T11:45:04.000Z,2023-03-14T12:02:48.000Z,I-480  Exit 15 / Ridge Rd,I-480,Eastbound,18,0.08,0.84,2.71,41.421679969788514,-81.72785742,41.417090241043326,-81.6776157,Yes
371,70,13f34ff5-7e42-466f-a2e0-941f191ddcbc,2023-03-14T11:05:03.000Z,2023-03-14T11:23:15.000Z,Crossley Rd,Yankee St / Yankee Woods Dr,Northbound,18,0.723,0.689,3.23,39.56729797497157,-84.20299054,39.61531693590752,-84.19898213,Yes
372,293,811978c3-301f-4256-892d-cc15c2c17cc7,2023-03-14T10:11:05.000Z,2023-03-14T11:40:47.000Z,Dixie Dr / Cr-25A / Lightner Blvd,Cr-25A / Kerr Rd,Northbound,90,0,0,3.05,39.92274,-84.19868,39.96510115248234,-84.19932278,Yes
373,378,5e389d6e-42a2-4eab-a351-c8f4f2c504d5,2023-03-14T12:28:25.000Z,2023-03-14T12:59:46.000Z,I-75  Exit 19 / Union Centre Blvd,I-75  Exit 22 / Tylersville Rd,Northbound,31,0.738,0.858,2.64,39.32652398532358,-84.41913519,39.34889000628024,-84.37942999,Yes
374,37,119e7a0b-0fbc-43c7-b619-4a80a8f2a54f,2023-03-14T10:07:46.000Z,2023-03-14T11:11:49.000Z,Cr-25A / Harmony Dr,Dixie Dr / Cr-25A / Lightner Blvd,Southbound,64,0.643,0.343,2.91,39.96479995340484,-84.19931,39.92274,-84.19868,Yes
375,66,52d95668-1973-4673-a2c4-68e8d18753f9,2023-03-14T22:24:38.000Z,2023-03-14T22:26:05.000Z,I-90,I-90,Westbound,1,0.773,0.159,1.7,41.71133131369363,-81.17160781,41.69565657771849,-81.1975322,No
376,66,178650e9-5bf8-4eb9-b474-7daef4c15d28,2023-03-14T23:31:42.000Z,2023-03-14T23:42:56.000Z,I-90,I-90,Westbound,11,0.259,0.163,3.13,41.70501778600799,-81.1820497,41.67706062441484,-81.23088844,Yes
377,67,0c1f5fa9-0142-4ca8-9290-90e136a44ba9,2023-03-14T13:54:18.000Z,2023-03-14T14:01:13.000Z,I-75  Exit 12 / Cooper Ave,I-75  Exit 9 / OH-4 Paddock Rd / Summit Rd,Southbound,7,0.627,0.028,1.23,39.21786997361417,-84.46000001,39.20146015052424,-84.46833657,Yes
378,149,420a19b4-41cc-4fac-abf5-08dfae0f83b4,2023-03-14T12:22:49.000Z,2023-03-14T12:41:31.000Z,OH-32 / White Pine Rd,OH-32 / CR-87 Goff Rd,Eastbound,19,0.613,0.769,3.28,39.00860088282135,-83.2961998,39.03748745670064,-83.25328753,Yes
379,150,326a5c5e-dfaf-4605-8f28-eb6519ef2158,2023-03-14T11:05:03.000Z,2023-03-14T11:28:07.000Z,Social Row Rd / Austin Pike / Yankee St,Austin Blvd,Westbound,23,0,0.138,1.71,39.59539,-84.20028,39.59679,-84.23167,Yes
380,286,ac2c8e24-ac74-4db9-a945-ed5228c094fa,2023-03-14T21:34:18.000Z,2023-03-14T21:36:45.000Z,I-71  Exit 12 / US-22 Montgomery Rd,I-71  Exit 15 / Pfeiffer Rd,Northbound,2,0.059,0.172,1.96,39.199681114563006,-84.37469946,39.22706827219064,-84.36661091,Yes
381,291,b9e8e330-a964-435d-a130-e723b2a52711,2023-03-14T12:52:07.000Z,2023-03-14T12:55:38.000Z,I-90  Exit 175 / 55th St / Marginal Rd,"OH-2  Exits 195A,196 / Marginal Rd / 38th St",Westbound,4,0.369,0,1.61,41.5302,-81.65200001,41.51698,-81.67751,Yes
382,338,8500996d-1c30-4869-a57b-ab524c3656b8,2023-03-14T10:40:41.000Z,2023-03-14T11:10:06.000Z,Little Richmond Rd / Wolf Creek Pike / James H Mcgee Blvd,Wolf Creek Pike / Main St,Westbound,29,0,0.78,3.08,39.77613,-84.26451,39.797654837051766,-84.30568738,Yes
383,306,47732d49-d2fc-4c4d-b2ac-ae15c9ee9848,2023-03-14T11:28:07.000Z,2023-03-14T11:36:46.000Z,Mcewen Rd / Alex Bell Rd / Alex-Bell Pike,Alex-Bell Pike,Westbound,9,0,1.038,2.65,39.65201,-84.18614,39.67292003518588,-84.21909025,Yes
384,66,c77bff2a-6dc9-4264-adbf-a45d85dea7e7,2023-03-14T22:21:33.000Z,2023-03-14T22:23:03.000Z,I-90,I-90,Westbound,2,0.687,0.476,2.1,41.71202834932626,-81.17044569,41.692695789347866,-81.20243684,Yes
385,342,8f691bd9-3551-46c6-b691-64b3609ffe01,2023-03-14T12:11:16.000Z,2023-03-14T12:14:35.000Z,Cincinnati Dayton Rd / Eagles Wing Dr,I-75  Exit 21 / Cincinnati Dayton Rd,Southbound,3,0.616,0.39,1.85,39.36496891618727,-84.38947096,39.34158072634355,-84.39641506,No
386,16,79ad1c47-1e07-4204-89c8-b4da87dcc442,2023-03-14T11:51:55.000Z,2023-03-14T12:04:53.000Z,Cincinnati Dayton Rd / Fox Plum Dr,Cincinnati Dayton Rd,Southbound,13,0.676,0.567,1.97,39.36422942,-84.39011049,39.33916998522616,-84.39821001,Yes
387,53,5e78a55c-c49c-4972-b743-a34c2cf79ef3,2023-03-14T11:46:40.000Z,2023-03-14T12:11:16.000Z,Philadelphia Dr / Tall Hickory Trl,Philadelphia Dr / Academy Pl,Southbound,25,0.855,0.326,2.74,39.81441414002782,-84.23532978,39.77535406346129,-84.23450359,Yes
388,328,16a89a5d-aa46-46d4-80de-f98e246128b2,2023-03-14T11:31:12.000Z,2023-03-14T11:43:27.000Z,OH-48 Far Hills Ave / Centerwood Ln,OH-48 Far Hills Ave / Elmwood Dr,Southbound,12,0.593,0.053,1.38,39.66276646001308,-84.15952063,39.64311943024417,-84.15767004,Yes
389,54,c36e8828-b83c-43f8-8b46-29ebda16bee0,2023-03-14T11:08:00.000Z,2023-03-14T11:31:12.000Z,OH-73 / Stone Ridge Dr,OH-73 / Foxdale Dr,Eastbound,23,0.845,0.036,2.31,39.54763866513779,-84.19908231,39.54646017083378,-84.15460572,No
390,22,f0753f80-aadd-49a1-a993-d6d695b5d819,2023-03-14T10:15:46.000Z,2023-03-14T10:47:43.000Z,US-40 / US-40 Brown School Rd / Brown School Rd,OH-202 Old Troy Pike / US-40,Eastbound,32,0,0.403,3.61,39.87814,-84.18017,39.89700051033212,-84.13602225,Yes
391,12,5c3348f1-a7f6-4ed3-bf73-8ab4bac8312a,2023-03-14T10:58:05.000Z,2023-03-14T11:18:50.000Z,OH-49 Dayton Greenville Pike,OH-49 / CR-31 Red River-West Grove Rd,Northbound,21,1.127,0.151,2.33,39.9111,-84.40774,39.93573429965443,-84.43757229,Yes
392,348,c54c4f1c-927c-45ac-ad58-72451ba9b742,2023-03-14T11:16:09.000Z,2023-03-14T11:17:00.000Z,OH-732 / Lakengren Dr,OH-732 / CR-14 Wyatt Rd / Four Mile Sugar Valley Rd,Southbound,1,0.685,0.161,2.34,39.70460998946728,-84.69678003,39.69216001008996,-84.73238543,No
393,351,09e49a65-5135-465b-b1f1-09c24fcc0ff5,2023-03-14T11:04:13.000Z,2023-03-14T11:29:03.000Z,OH-48 Far Hills Ave / Elmwood Dr,OH-48 Far Hills Ave / Landau Dr,Northbound,25,0.884,0.816,2.01,39.64069019436913,-84.15782842,39.668841802192496,-84.16274272,No
394,10,703413ff-14d3-4579-9eaa-12da559f4c21,2023-03-14T10:37:43.000Z,2023-03-14T11:19:53.000Z,US-40 National Rd / Dixie Dr,Dixie Dr / Cr-25A / Lightner Blvd,Northbound,42,0,0.695,2.21,39.89084,-84.19868,39.922515173709456,-84.19868978,Yes
395,8,8444a11d-4c0c-49e9-88ad-6ffe38fa79c5,2023-03-14T11:59:55.000Z,2023-03-14T12:01:02.000Z,I-71  Exit 15 / Pfeiffer Rd,I-71  Exit 12 / US-22 Montgomery Rd,Southbound,1,1.072,0.586,1.04,39.23094036161509,-84.36699732,39.21599572508077,-84.36970744,Yes
396,62,7266dcfb-ff3f-4047-8ef3-17b44edb350d,2023-03-14T11:46:45.000Z,2023-03-14T13:04:14.000Z,"I-480  Exits 17,17A-B / OH-176 Jennings Fwy Exits 16A,16B / OH-17 Granger Rd",I-480  Exit 21 / Transportation Blvd / Antenucci Blvd,Eastbound,77,0.253,0.575,3.42,41.42118755,-81.68696344,41.40965438845864,-81.62731673,Yes
397,425,322dbcb8-7800-4faa-a5f7-ac356a01df1f,2023-03-14T11:11:49.000Z,2023-03-14T12:39:25.000Z,I-675  Exit 17 / OH-844 / Fairfield Rd,OH-844  Exit 3 / OH-444 / Skeel Ave,Northbound,88,0,0.198,1.67,39.77366,-84.05638,39.79344037930008,-84.04816557,Yes
398,426,c1baa7bd-c974-4ae9-8366-6d46f3eb75fa,2023-03-14T10:24:42.000Z,2023-03-14T10:26:16.000Z,US-6,US-6 / CR-147 Hayes Rd,Westbound,2,1.044,0.548,2.61,41.60706,-80.59218,41.60693096914191,-80.6405168,Yes
399,63,2e6c55e1-30ea-48d1-bbc6-395c3a635467,2023-03-14T04:42:44.000Z,2023-03-14T04:59:17.000Z,"OH-11  Exits 51A,51B / OH-82",OH-11,Northbound,17,0.047,0.129,2.77,41.23067224913271,-80.70904047,41.27004056333055,-80.70419001,Yes
400,427,bd4e0b3f-3466-4d4c-8e12-ab26d7a54c4d,2023-03-14T11:14:59.000Z,2023-03-14T11:16:09.000Z,OH-49 / OH-705 / CR-19 New Weston-Fort Loramie Rd,OH-49 / CR-50 Rossburg-Lightsville Rd / Rossburg-Lightsville Rd,Southbound,1,0.183,0.284,3.29,40.33554924359412,-84.73877751,40.29132942,-84.71574967,Yes
401,50,301f8285-6f19-4bd9-aace-8903a947947a,2023-03-14T04:42:44.000Z,2023-03-14T04:46:25.000Z,OH-11,OH-11,Southbound,4,0.473,0.194,2.64,40.79478812523167,-80.74414264,40.76132097595967,-80.72136073,No
402,384,1a65e07e-646c-4fbc-a0e1-77968ced0bb9,2023-03-14T03:27:23.000Z,2023-03-14T03:45:02.000Z,US-322 Mayfield Rd / Cassie Ln,US-322 Mayfield Rd,Eastbound,18,0.819,0.094,2.49,41.52158927958884,-81.30803324,41.52617005879226,-81.25920988,Yes
403,143,044f7e9c-ec1c-4eaf-b48f-49c5bd1f1dad,2023-03-14T12:01:52.000Z,2023-03-14T12:03:07.000Z,I-70  Exit 1 / US-35 / OH-320,I-70,Westbound,1,0.066,0,1.67,39.8288,-84.79110485,39.83566,-84.81933,No
404,100,299aecb7-064e-4fb6-956b-f76c530aa269,2023-03-14T22:27:43.000Z,2023-03-14T23:03:46.000Z,I-75,I-75  Exit 51 / Edwin C Moses Blvd,Northbound,36,0.663,0.418,1.75,39.71009121850821,-84.22802947,39.72901002566103,-84.20701998,Yes
405,194,fd0b2f54-c418-4fdc-8615-b0755a122ee1,2023-03-14T03:51:00.000Z,2023-03-14T03:53:57.000Z,US-422 Mccartney Rd / West Dr,US-422 / Lapin Ln,Eastbound,3,0,0.19,2.55,41.09065,-80.52513,41.07638940717428,-80.48197213,Yes
406,222,c7f138b8-83bb-44e7-9afa-18fb123d8f1e,2023-03-14T12:01:02.000Z,2023-03-14T12:54:28.000Z,US-23 / Park Rd,US-23 Emmitt Ave / Locke St,Southbound,53,0.737,0.249,2.65,39.16327498091799,-82.9762447,39.12678580110117,-82.98551557,Yes
407,123,0a53d8b4-bddc-468f-a9b1-02505c6713ef,2023-03-14T11:59:55.000Z,2023-03-14T12:26:21.000Z,CR-107 / Private Drive 7965,OH-7 / Private Drive 6149,Southbound,26,0.762,0.04,1.75,38.442769983746246,-82.35643009,38.43913009,-82.38753057,Yes
408,78,7a56ffb9-76c9-46f9-b2d1-b4cd7905db3c,2023-03-14T09:07:21.000Z,2023-03-14T09:09:08.000Z,I-70  Exit 32 / Dayton Intl Airport Access Rd,I-70,Westbound,2,0.449,0.453,3.01,39.863884525903046,-84.25820513,39.85520005,-84.31371698,Yes
409,201,5017fed9-89ea-4f3f-a1ad-5587f46ec53f,2023-03-14T10:22:55.000Z,2023-03-14T10:30:29.000Z,I-75  Exit 69 / Cr-25A / County Rd 25A To I 75,I-75  Exit 64 / Northwoods Blvd,Southbound,8,0.628,0.448,2.78,39.97415999959876,-84.19084,39.93486851344017,-84.188925,Yes
410,259,2aa9c600-1565-4c88-ab4e-30cc7f6059d0,2023-03-14T12:49:18.000Z,2023-03-14T12:54:28.000Z,US-62 Nelson Rd,US-40 Broad St,Southbound,5,0.199,0.182,1.02,39.979196040503886,-82.94466317,39.96756999968895,-82.95398,Yes
411,240,8e5c80ed-2392-4c54-8338-7640fe5785a9,2023-03-14T11:23:37.000Z,2023-03-14T11:27:55.000Z,OH-60 / Lincoln Rd,OH-60 State Rd,Northbound,4,0.731,0.661,3.09,41.29069562173957,-82.37698418,41.33073635,-82.36060375,Yes
412,174,d834a637-0a44-41aa-acc5-cf8dc543e038,2023-03-14T11:04:13.000Z,2023-03-14T11:17:00.000Z,Dog Leg Rd / US-40 National Rd / Concorde Dr,Dog Leg Rd / Westbrook Rd / OH-48 Main St,Southbound,13,0.572,0.876,3.49,39.88256766548401,-84.245538,39.8336,-84.25272049,Yes
413,78,4f242ee2-8b43-4ecd-834b-7b5bcd555636,2023-03-14T13:31:52.000Z,2023-03-14T13:32:35.000Z,I-70,I-70,Westbound,1,0,1.014,3.85,39.82945199,-84.73670245,39.82916762,-84.80914996,Yes
414,78,ee3d5e39-844f-4e8b-a229-fa9501e664c2,2023-03-14T13:02:41.000Z,2023-03-14T13:04:12.000Z,I-70,I-70,Westbound,2,0.663,1.014,3.19,39.82876000113358,-84.74759022,39.82916762,-84.80914996,Yes
415,120,90a9ea78-c8a3-4032-92a0-8fa36c736381,2023-03-14T12:31:11.000Z,2023-03-14T12:32:00.000Z,I-71,"I-71  Exits 17,17A,17B / I-275  Exits 49,49A,49B",Southbound,1,0.743,0.32,2.78,39.30356179032091,-84.30291901,39.27723839075606,-84.34146685,Yes
416,109,89751a72-3f9d-4c25-8336-8b993b552db1,2023-03-14T10:29:33.000Z,2023-03-14T10:40:41.000Z,OH-202 Old Troy Pike,OH-202 Old Troy Pike / Powell Rd,Southbound,11,0.596,0.416,2.85,39.87662883,-84.1369536,39.83517917698138,-84.14051476,Yes
417,254,a6064fb6-bac7-453a-9611-61bdfbc0e4e4,2023-03-14T10:40:41.000Z,2023-03-14T10:45:21.000Z,OH-571 Main St / Cr-25A / OH-571,OH-571 / CR-143 Wheelock Rd,Westbound,5,0,1.059,4.25,39.96206376,-84.20521835,39.96543883,-84.2825404,Yes
