,BottleneckSummaryIndex,Id,StartDate,EndDate,FromIntersectionName,ToIntersectionName,Direction,MaxDurationMinutes,StartSegmentOffsetMiles,EndSegmentOffsetMiles,MaxLengthMiles,FromPointLat,FromPointLon,ToPointLat,ToPointLon,label
0,114,1c1a9388-e765-411e-ba05-50a78e40f124,2023-11-29T21:03:06.000Z,2023-11-29T22:54:59.000Z,"I-71  Exits 3,3A-B / Essex Pl / William Howard Taft Rd",I-71  Exit 189 / KY-1072 Kyles Ln / KY-1072,Southbound,112,0.283,0.735,5.64,39.12836803365203,-84.49649203,39.06201103404371,-84.52527295,Yes
1,30,fea45b7a-0d7f-4d4e-8dd5-db90afe2f827,2023-11-29T21:42:43.000Z,2023-11-29T21:57:02.000Z,I-75  Exit 57 / Keats Dr / Neff Rd,I-75,Southbound,14,0.256,0.348,7.37,39.802515447689984,-84.18956127,39.71034606250184,-84.22824169,Yes
2,59,db009faa-5dc9-4641-8af6-6c84ea10e677,2023-11-29T04:39:50.000Z,2023-11-29T05:18:04.000Z,I-90,I-90,Westbound,38,0.145,0.327,13.79,41.943340003463454,-80.49239766,41.84439195435438,-80.71746366,Yes
3,15,8f52fe52-c336-47b8-b71d-5bd13f8eac23,2023-11-29T04:01:58.000Z,2023-11-29T04:30:57.000Z,I-90,I-90,Eastbound,29,0.385,0.561,12.89,41.83795309098221,-80.72964693,41.93581011179471,-80.521907,Yes
4,28,1b8cca99-e24c-4fd7-ae28-56634ca1ccda,2023-11-29T20:29:53.000Z,2023-11-29T21:35:00.000Z,I-75  Exit 58 / Needmore Rd,I-75  Exit 50B / OH-741 Springboro Rd / Springboro Rd,Southbound,65,0.623,0.159,5.99,39.809374281329326,-84.18902163,39.72899954429225,-84.20722033,Yes
5,17,ff94c6a5-6b1c-4fd3-8876-330a96752568,2023-11-29T20:52:58.000Z,2023-11-29T21:15:49.000Z,I-71  Exit 6 / Edmondson Rd / Smith Rd,"I-71  Exits 17,17A,17B / I-275  Exits 49,49A,49B",Northbound,23,0.483,0.908,9.93,39.154280037167055,-84.44200997,39.26502228223396,-84.35742671,Yes
6,87,ebc5ab1e-7cde-4997-96ec-2f0af7b31d2e,2023-11-29T17:48:45.000Z,2023-11-29T18:34:47.000Z,US-68 / New Hope Rd,US-68 / Patton St / Union Rd,Northbound,46,0.672,0.32,7.81,39.56700318,-83.85248705,39.66698838570222,-83.91491964,Yes
7,17,3f40b70c-fa15-49a6-8682-d027108d8853,2023-11-29T20:25:51.000Z,2023-11-29T20:53:47.000Z,I-71 / Edwards Rd,"I-71  Exits 17,17A,17B / I-275  Exits 49,49A,49B",Northbound,28,0,0.797,9.07,39.16324,-84.43429,39.26347362908018,-84.35840782,Yes
8,68,40358edc-1ecf-443e-a5d8-043fc74327e2,2023-11-29T22:02:42.000Z,2023-11-29T22:36:49.000Z,I-75  Exit 56 / Stanley Ave,I-75  Exit 50A / Dryden Rd,Southbound,34,0.63,0,5.11,39.78014729,-84.18555034,39.71621853191029,-84.21911379,Yes
9,71,e0f63fa2-12f4-4e19-b5d6-ac171dafac38,2023-11-29T13:02:47.000Z,2023-11-29T13:11:55.000Z,"I-71  Exits 17,17A,17B / I-275  Exits 49,49A,49B",I-71  Exit 8 / Highland Ave,Southbound,9,0.286,0.223,8.2,39.272697068225256,-84.34908487,39.17089089383309,-84.40622116,Yes
10,5,5e1a6bde-8f80-4934-bff7-60592c2257e6,2023-11-29T21:52:52.000Z,2023-11-29T22:32:43.000Z,I-71,I-71  Exit 12 / US-22 Montgomery Rd,Southbound,40,0.644,0.731,5.67,39.28399915549964,-84.32855507,39.21395154648619,-84.37012993,Yes
11,79,116b97dd-a67f-4858-81ae-4fe1647836c8,2023-11-30T02:37:52.000Z,2023-11-30T02:55:38.000Z,US-30,US-30,Eastbound,18,0.439,0.054,8.62,40.8063,-83.1372,40.82637994669701,-82.97741875,Yes
12,6,74b13e4b-58bf-4465-9396-ff244bb38ada,2023-11-29T21:26:45.000Z,2023-11-29T22:45:51.000Z,I-75  Exit 2A / Western Ave / Findlay St,I-71  Exit 189 / KY-1072 Kyles Ln / KY-1072,Southbound,79,0.22,0.88,4.54,39.1197,-84.53553,39.06119198887707,-84.52695115,No
13,18,89842766-961a-4a22-839f-9b13b50503bf,2023-11-29T20:45:07.000Z,2023-11-29T23:27:03.000Z,I-90  Exit 175 / 55th St / Marginal Rd,I-90  Exit 171 / 14th St / Fairfield Ave,Westbound,162,0.321,0.233,4.13,41.528622423294905,-81.65505515,41.48534135923061,-81.69157824,Yes
14,46,b2e18499-0442-4093-a7d4-0fbd3db90f58,2023-11-29T12:57:43.000Z,2023-11-29T13:04:55.000Z,I-71,I-71  Exit 10 / Stewart Rd / Stewart Ave,Southbound,7,0.434,0.779,8.35,39.28520984405643,-84.32676023,39.18528649229971,-84.39382531,Yes
15,59,8870c246-f2d4-40ef-8158-2395c8888e3b,2023-11-29T04:59:59.000Z,2023-11-29T05:21:55.000Z,I-90,I-90,Westbound,22,0.821,0.384,8.69,41.94553934,-80.3969502,41.92008232157017,-80.5572344,Yes
16,71,ba9b2c80-5d8f-42af-878e-d05059adcc74,2023-11-29T13:08:03.000Z,2023-11-29T13:21:38.000Z,"I-71  Exits 17,17A,17B / I-275  Exits 49,49A,49B",I-71  Exit 8 / Highland Ave,Southbound,14,0.098,0.223,7.87,39.26931456190707,-84.35326054,39.17089089383309,-84.40622116,Yes
17,48,6ea702aa-9b96-46b4-b6c1-5d2f3b06a8d9,2023-11-29T21:07:46.000Z,2023-11-29T23:06:53.000Z,I-71 / Edwards Rd,I-71  Exit 15 / Pfeiffer Rd,Northbound,119,0.528,0.374,6.76,39.16184264,-84.43600756,39.22989009456879,-84.36675122,Yes
18,15,1fdbf93d-724a-48fa-84c3-56c88f8c3e8b,2023-11-29T05:01:57.000Z,2023-11-29T05:13:00.000Z,I-90,I-90,Eastbound,11,0.93,0.63,7.3,41.89738002849498,-80.62766993,41.94312,-80.5009099,Yes
19,5,36f8d08c-1675-431f-89b5-b1a30f9c5f44,2023-11-29T12:24:54.000Z,2023-11-29T12:57:43.000Z,I-71,I-71  Exit 12 / US-22 Montgomery Rd,Southbound,33,1.044,0.885,7.51,39.30045454370711,-84.3068375,39.21153575157492,-84.37061945,Yes
20,6,c08ac0af-3b4e-45c1-9171-2007464ac550,2023-11-29T20:55:58.000Z,2023-11-29T21:03:06.000Z,I-75  Exit 2A / Western Ave / Findlay St,I-71  Exit 189 / KY-1072 Kyles Ln / KY-1072,Southbound,7,0.273,0.735,4.12,39.11685340045551,-84.53387899,39.06201103404371,-84.52527295,Yes
21,67,2df23840-4d32-412b-a32b-1143ca59f14d,2023-11-29T20:36:04.000Z,2023-11-29T23:10:52.000Z,I-70,I-70,Eastbound,155,0.794,0.241,5.2,39.93158941824133,-82.91713881,39.93209585662377,-82.8201786,Yes
22,131,be8e5ac9-d7d3-4ca6-b687-8f1df6c3abcf,2023-11-29T14:46:49.000Z,2023-11-29T15:06:47.000Z,US-62 / Macy Ln / Purtell Dr,US-62 / CR-47 Miami Trace Rd,Northbound,20,1.154,0.154,7.74,39.34511,-83.56004,39.44691916382479,-83.50256665,Yes
23,129,11d9797b-3153-4c0c-ad00-10096662b489,2023-11-29T22:26:56.000Z,2023-11-29T23:16:48.000Z,"I-75  Exits 16,16A,16B / I-275  Exits 43A,43B",I-275  Exit 33 / US-27 Colerain Ave,Northbound,50,0.449,0.799,7.77,39.29408550135216,-84.45826851,39.26674077748757,-84.5876592,Yes
24,31,56c80f0a-c496-4615-99ae-9e28e6bff086,2023-11-29T22:02:42.000Z,2023-11-29T22:35:01.000Z,I-275  Exit 44 / Mosteller Rd,I-275,Northbound,32,0.48,0.068,5.29,39.28475814616226,-84.41395668,39.256990546746906,-84.3324874,Yes
25,13,93d9441f-35a9-4df4-bb57-0401ab0a9aa1,2023-11-29T22:23:49.000Z,2023-11-29T23:48:53.000Z,I-670  Exit 9 / Stelzer Rd / International Gtwy,"I-670  Exits 2A,2B,3 / OH-315  Exits 1C,1D,1E,1F,2 / Goodale St",Westbound,85,0.402,0.222,4.61,39.99260938870207,-82.93570305,39.97345393105404,-83.01016207,Yes
26,78,2887ef40-ba2e-43d3-855c-b50bc6538f9b,2023-11-29T15:31:47.000Z,2023-11-29T16:07:47.000Z,US-22 / CR-51 Staunton Jasper Rd,US-22 Washington St / OH-729,Westbound,36,0.171,0.677,6.24,39.51604688,-83.52589334,39.48835157346462,-83.63611967,Yes
27,47,b3036d94-75de-41a2-a3f6-2de68f6a21bf,2023-11-29T12:55:52.000Z,2023-11-29T13:39:49.000Z,I-71  Exit 116 / Morse Rd / Sinclair Rd,I-71  Exit 111 / 17th Ave,Southbound,44,0.086,0.263,3.99,40.06480999199651,-82.99630259,40.00998216038193,-82.98817592,Yes
28,59,bdd4ff26-bc05-46d5-9674-12e2e3f8ff11,2023-11-29T04:24:55.000Z,2023-11-29T04:39:50.000Z,I-90,I-90,Westbound,15,0.416,0,7.85,41.93071712184521,-80.53304451,41.87928637135529,-80.66884729,Yes
29,2,a171b1f4-1808-4c02-96f2-cefe88eaed5f,2023-11-29T13:46:12.000Z,2023-11-29T13:53:10.000Z,I-90  Exit 165 / Marginal Dr,I-90  Exit 169 / 41st St,Eastbound,7,0.653,0,4.49,41.46913825211527,-81.79558299,41.47440479291802,-81.71175357,Yes
30,55,78d5ef79-dd3f-4f18-a26a-165736fe3995,2023-11-29T21:54:57.000Z,2023-11-29T23:35:04.000Z,I-270  Exit 29 / OH-3 Westerville Rd / OH-3,I-270  Exit 20 / CR-70 Sawmill Rd / Sawmill Rd,Northbound,100,0.228,0.157,5.42,40.10325001272674,-82.93773007,40.11230417647152,-83.03837206,Yes
31,132,1d704147-2d34-4d93-ac7d-ce61f587ea66,2023-11-29T12:20:00.000Z,2023-11-29T13:21:38.000Z,"I-275  Exits 74A,74B / I-471  Exits 1A,1B","I-471  Exit 6B / I-71  Exits 1A,2 / Columbia Pkwy",Northbound,62,0.281,0.403,4.83,39.05385014559501,-84.46899005,39.107458488971865,-84.50296605,Yes
32,22,dc773b7c-cb8a-4087-ae9e-2516c9be2124,2023-11-29T13:42:42.000Z,2023-11-29T13:57:51.000Z,"I-71  Exit 14 / OH-126 Ronald Reagan Cross County Hwy Exits 32B,32C","I-71  Exits 7,8A,8B / OH-562 / Ridge Ave",Southbound,15,0.152,0.35,5.81,39.22636924152958,-84.36689004,39.16664028,-84.42460695,Yes
33,22,7c520232-d100-4890-81b7-a88c8f46987a,2023-11-29T13:19:04.000Z,2023-11-29T13:27:53.000Z,I-71  Exit 12 / US-22 Montgomery Rd,"I-71  Exits 7,8A,8B / OH-562 / Ridge Ave",Southbound,9,0.19,0.31,3.98,39.20115995342748,-84.37424003,39.16706463863283,-84.4240186,Yes
34,8,6de09d59-9694-4062-86c5-eab7ae382a9e,2023-11-29T22:46:53.000Z,2023-11-29T22:52:44.000Z,I-75  Exit 2A / Western Ave / Findlay St,"I-71  Exits 191,192 / KY-8 5th St / Bullock St",Southbound,6,0.137,0,2.37,39.11786169889253,-84.53464006,39.08758077835426,-84.52278092,No
35,118,d9ee7ab3-13d3-4e96-815c-fc6a21ebaf80,2023-11-29T23:05:54.000Z,2023-11-29T23:12:44.000Z,"I-71  Exits 113,114 / Silver Dr / Oakland Park Ave","I-71  Exits 109A,109B,110A / I-670  Exits 4A,4A-B,4B,4C,5,5A-5B / Goodale St",Southbound,7,0.283,0.132,3.01,40.03060997,-82.99464999,39.99019982274856,-82.98556002,Yes
36,125,af689a12-1a67-43c6-adf4-865c35f3fff0,2023-11-29T21:31:10.000Z,2023-11-29T22:44:11.000Z,"I-271  Exits 27A-B,27B / I-480  Exit 13A / US-422  Exit 13B",I-480,Westbound,73,0.161,0.221,3.66,41.426425417984014,-81.51639375,41.42211358834842,-81.58565163,Yes
37,5,6fc3f3a6-3ce5-47b8-8c4c-f29fcebb9584,2023-11-29T13:14:51.000Z,2023-11-29T13:36:52.000Z,"I-71  Exits 17,17A,17B / I-275  Exits 49,49A,49B",I-71  Exit 12 / US-22 Montgomery Rd,Southbound,22,0.279,1.296,4.45,39.26751272186697,-84.35544632,39.20575772951041,-84.37214316,Yes
38,5,1ed17868-d24c-436c-ac47-104ce35ec641,2023-11-29T22:36:49.000Z,2023-11-29T22:54:59.000Z,I-71,I-71  Exit 12 / US-22 Montgomery Rd,Southbound,18,0.319,0.885,5.03,39.27723839075606,-84.34146685,39.21153575157492,-84.37061945,Yes
39,85,9a750d0b-7d8c-4061-83eb-10742109c613,2023-11-29T05:49:35.000Z,2023-11-29T06:11:41.000Z,County Road 424 / CR-53 River Rd / County Road 1,County Road 424 / County Road 10,Westbound,22,0.162,0.454,8.73,41.41740038652296,-83.88615155,41.41449018757642,-84.04898538,Yes
40,48,6caf8d3f-5d3b-4dc1-beca-145e434935d0,2023-11-29T21:03:06.000Z,2023-11-29T21:04:06.000Z,"I-71  Exits 7,8A,8B / OH-562 / Ridge Ave",I-71  Exit 15 / Pfeiffer Rd,Northbound,1,0.133,0.824,6.67,39.16524014920535,-84.42697953,39.23611200618339,-84.36679677,No
41,42,a8bdfbf6-8c6c-4945-ac5c-600bb54c4d70,2023-11-29T20:25:51.000Z,2023-11-30T00:04:54.000Z,I-75  Exit 14 / Glendale Milford Rd / Vision Way,I-75  Exit 7 / OH-562,Southbound,219,0.402,0.899,5.45,39.252136613921294,-84.44454679,39.18184998869554,-84.48489001,Yes
42,43,9cfeb8f8-ad95-443c-acdc-f31e27e4f42d,2023-11-29T21:45:36.000Z,2023-11-29T23:22:43.000Z,I-75  Exit 203B / US-24 Detroit Ave,"I-75  Exits 199,199B / OH-65 Miami St",Southbound,97,0,0.542,3.38,41.66834,-83.57115,41.62902954442286,-83.54235,Yes
43,48,419422db-062b-4dda-85e2-163f602b012f,2023-11-29T22:15:52.000Z,2023-11-29T22:17:48.000Z,"I-71  Exits 7,8A,8B / OH-562 / Ridge Ave",I-71  Exit 15 / Pfeiffer Rd,Northbound,2,0.364,0.824,6.44,39.16712015247901,-84.42342979,39.23611200618339,-84.36679677,No
44,73,4335c06a-36ac-448f-924c-d77f57ba4a0d,2023-11-29T21:31:44.000Z,2023-11-29T22:05:45.000Z,I-75  Exit 57 / Keats Dr / Neff Rd,"I-75  Exits 52,52B / US-35 / Broadway St",Southbound,34,0.526,0.431,3.39,39.79851037,-84.18985427,39.756767898954095,-84.20314134,Yes
45,31,c365dc9a-f92f-4ec0-8496-df8dec5dc2d3,2023-11-29T21:50:48.000Z,2023-11-29T22:28:59.000Z,"I-75  Exits 16,16A,16B / I-275  Exits 43A,43B",I-275,Northbound,38,0.449,0.281,4.3,39.29408550135216,-84.45826851,39.29640573518216,-84.53626316,Yes
46,29,d50afdb9-f05f-4f3a-a36d-b1f68b9bf780,2023-11-29T19:54:05.000Z,2023-11-29T23:44:54.000Z,"I-75  Exits 3,4 / I-74 / US-52 Hopple St","I-75  Exits 10,10A,10B / OH-126 Ronald Reagan Cross County Hwy Exits 27,27A,27B / Galbraith Rd",Northbound,231,1.241,0.251,3.97,39.16206091444532,-84.51894788,39.19929038176237,-84.46982965,Yes
47,46,d5b00da9-7211-488c-b538-a5cc44fe6abf,2023-11-29T22:50:48.000Z,2023-11-30T00:10:50.000Z,"I-71  Exits 17,17A,17B / I-275  Exits 49,49A,49B",I-71  Exit 10 / Stewart Rd / Stewart Ave,Southbound,80,0.597,0.779,5.69,39.25951630160018,-84.3610377,39.18528649229971,-84.39382531,Yes
48,26,9888c0bc-3e1d-455c-bd5b-4e0dbd83ae66,2023-11-29T22:22:00.000Z,2023-11-29T22:42:43.000Z,I-71  Exit 6 / Edmondson Rd / Smith Rd,I-71  Exit 11 / Kenwood Rd,Northbound,21,0.334,0.037,3.74,39.15196307578472,-84.44353095,39.18381025039249,-84.39524977,No
49,26,29494f60-b2b8-40d4-ab9f-883a433721ac,2023-11-29T20:55:58.000Z,2023-11-29T21:15:49.000Z,I-71 / Edwards Rd,I-71  Exit 11 / Kenwood Rd,Northbound,20,0.057,0.288,3.69,39.15611046507565,-84.44034956,39.18611592113429,-84.39198093,No
50,31,41ce6aaa-6925-40e0-99ef-ca2005053983,2023-11-29T22:28:58.000Z,2023-11-29T22:46:53.000Z,"I-71  Exits 17,17A,17B / I-275  Exits 49,49A,49B",I-275,Northbound,18,0.581,0.598,4.67,39.27539,-84.35724,39.23359217352386,-84.29230435,Yes
51,4,f51a8e30-5471-4b85-be2b-f5f7365449cd,2023-11-29T13:26:52.000Z,2023-11-29T13:34:50.000Z,I-71  Exit 12 / US-22 Montgomery Rd,I-71  Exit 6 / OH-561 Williams Ave,Southbound,8,0.34,0.231,4.36,39.19508244882268,-84.37957421,39.15932924544732,-84.43802045,Yes
52,20,ad4d33ad-c041-49b5-9c89-43eba54c1285,2023-11-29T20:09:07.000Z,2023-11-29T21:20:13.000Z,I-77  Exit 144 / I-271  Exit 10,I-77,Southbound,71,0.609,0.818,3.71,41.23359,-81.62807,41.18048025975163,-81.62600063,Yes
53,8,8d7275fb-7685-4b0b-853a-6d46a9ef5497,2023-11-29T22:32:43.000Z,2023-11-29T23:33:50.000Z,I-75  Exit 2A / Western Ave / Findlay St,"I-71  Exits 191,192 / KY-8 5th St / Bullock St",Southbound,61,0.137,0.527,2.23,39.11786169889253,-84.53464006,39.09107740221266,-84.52258934,Yes
54,8,cf6f2154-a95c-48e6-9298-30561d851b78,2023-11-29T21:03:06.000Z,2023-11-29T21:04:06.000Z,I-75  Exit 2A / Western Ave / Findlay St,"I-71  Exits 191,192 / KY-8 5th St / Bullock St",Southbound,1,0.273,0.133,1.7,39.11685340045551,-84.53387899,39.09496973053394,-84.52238001,No
55,8,3f9b67af-017b-4036-ad27-a639899a3455,2023-11-29T20:24:52.000Z,2023-11-29T20:55:58.000Z,I-75  Exit 2A / Western Ave / Findlay St,"I-71  Exits 191,192 / KY-8 5th St / Bullock St",Southbound,31,0.137,0.133,1.84,39.11786169889253,-84.53464006,39.09496973053394,-84.52238001,Yes
56,115,34e37249-e7a5-4975-bc67-8cae5ebf96e5,2023-11-29T22:43:45.000Z,2023-11-29T22:48:50.000Z,I-71,"I-71  Exit 14 / OH-126 Ronald Reagan Cross County Hwy Exits 32B,32C",Southbound,5,0.964,0,3.09,39.281271833027056,-84.33351452,39.24588245135457,-84.36599306,No
57,116,92c904d7-1257-44ba-bc11-d5603796ac48,2023-11-29T21:24:07.000Z,2023-11-29T23:00:10.000Z,I-480  Exit 13 / Tiedeman Rd,I-480  Exit 9 / Grayton Rd / OH-17 Brookpark Rd,Westbound,96,0.136,0.598,3.66,41.42610271,-81.75938869,41.42044962775703,-81.82855372,Yes
58,108,e814068c-5cf5-429b-91b1-9196882a3b49,2023-11-29T22:15:09.000Z,2023-11-29T22:38:13.000Z,I-77  Exit 161B / I-490,I-77  Exit 157 / Crossover / Sr-21,Southbound,23,0,0.209,3.56,41.48386,-81.66315,41.43424882,-81.64923961,Yes
59,72,4f992caa-9b52-42e1-8660-bc1d3abbc350,2023-11-29T21:05:52.000Z,2023-11-29T23:07:55.000Z,"I-71  Exits 109A,109B,110A / I-670  Exits 4A,4A-B,4B,4C,5,5A-5B / Goodale St",I-71  Exit 112 / Hudson St / Homecroft Dr,Northbound,122,0,0.22,1.9,39.97343,-82.98321,40.00028463133291,-82.98444674,Yes
60,94,3f139b4c-124b-456c-9122-24c8e2cc8ed2,2023-11-29T13:30:40.000Z,2023-11-29T13:56:47.000Z,I-70,"I-70  Exits 101A,101B / I-71  Exits 107,108A / Parsons Ave",Westbound,26,0.061,0,3.65,39.93189364454748,-82.92199307,39.95443,-82.97468,Yes
61,138,56f61de7-2ba2-46f6-836d-0b24ef703720,2023-11-29T11:30:56.000Z,2023-11-29T13:02:47.000Z,I-70,I-70,Westbound,92,0.803,0.151,5.85,39.94585612087747,-82.61746818,39.95132,-82.73008025,Yes
62,8,1be68bff-9cb3-4d65-8fd7-23b76e39657c,2023-11-29T23:47:43.000Z,2023-11-29T23:53:48.000Z,I-75  Exit 1G / Western Ave,"I-71  Exits 191,192 / KY-8 5th St / Bullock St",Southbound,6,0.044,0.133,1.44,39.11272766158032,-84.5315,39.09496973053394,-84.52238001,Yes
63,26,c98064b3-25c0-4e8f-9ed3-b496b94a391e,2023-11-29T21:57:02.000Z,2023-11-29T22:17:48.000Z,"I-71  Exits 7,8A,8B / OH-562 / Ridge Ave",I-71  Exit 11 / Kenwood Rd,Northbound,21,0.248,0.409,2.97,39.1645,-84.42999,39.18734859632527,-84.39047304,No
64,42,8f30b307-e981-4746-9ef7-e6894eabd016,2023-11-29T12:18:48.000Z,2023-11-29T15:16:51.000Z,I-75  Exit 13 / Shepherd Ln / Shepherd Ave,I-75  Exit 7 / OH-562,Southbound,178,0.073,0.758,4.41,39.23988001912548,-84.45137264,39.18373999,-84.48389001,Yes
65,13,472e3a48-cb51-4e00-b68a-9774c4580bea,2023-11-29T21:04:56.000Z,2023-11-29T22:13:51.000Z,I-670  Exit 6 / Leonard Ave,"I-670  Exits 2A,2B,3 / OH-315  Exits 1C,1D,1E,1F,2 / Goodale St",Westbound,69,0.243,0.119,2.73,39.98079138707232,-82.95550944,39.97359998615768,-83.00480004,Yes
66,115,c6b7a113-00cd-41f6-8931-183ccb61d397,2023-11-29T22:23:00.000Z,2023-11-29T22:38:55.000Z,I-71,"I-71  Exit 14 / OH-126 Ronald Reagan Cross County Hwy Exits 32B,32C",Southbound,16,0.472,0.265,3.85,39.28484976752428,-84.32728034,39.24179339968976,-84.36643058,Yes
67,22,ab8950a1-a197-4e15-b614-779a6e6bd952,2023-11-29T13:37:52.000Z,2023-11-29T13:40:43.000Z,"I-71  Exit 14 / OH-126 Ronald Reagan Cross County Hwy Exits 32B,32C","I-71  Exits 7,8A,8B / OH-562 / Ridge Ave",Southbound,3,0.193,0.35,5.41,39.22094934767888,-84.36848057,39.16664028,-84.42460695,Yes
68,26,1782bcd1-6a32-4fac-a8d1-e8eeacf74179,2023-11-29T22:47:48.000Z,2023-11-29T23:10:52.000Z,I-71 / Edwards Rd,I-71  Exit 11 / Kenwood Rd,Northbound,23,0.197,0.545,3.81,39.15756844940026,-84.43897419,39.18933432771047,-84.38926925,No
69,29,a10e6abc-8f61-4ed2-a5fd-8743eb8e6362,2023-11-29T13:01:55.000Z,2023-11-29T13:32:48.000Z,I-75  Exit 6 / Mitchell Ave,"I-75  Exits 10,10A,10B / OH-126 Ronald Reagan Cross County Hwy Exits 27,27A,27B / Galbraith Rd",Northbound,31,0.182,0.251,2.83,39.169927956266925,-84.50263559,39.19929038176237,-84.46982965,Yes
70,54,90a3daa9-9f21-4d3d-a108-570ea8a7dd77,2023-11-29T21:07:46.000Z,2023-11-29T22:08:43.000Z,US-33,US-33 Columbus-Lancaster Rd,Eastbound,61,0.529,0.688,3.19,39.90852813082749,-82.91662253,39.88145553057375,-82.87103991,Yes
71,106,e15a6089-6d16-4c8d-a497-5f99761668e2,2023-11-29T20:34:14.000Z,2023-11-29T20:53:14.000Z,OH-542 Magnolia Rd,OH-542 Magnolia Rd / Fawn Rd,Southbound,19,1.318,1.078,5.84,40.62214646003284,-81.28190945,40.55485063489652,-81.23674757,Yes
72,119,644b55a1-18f5-4dbc-aa2a-d19d3de8b69d,2023-11-29T12:49:14.000Z,2023-11-29T13:39:11.000Z,I-90  Exit 160 / Clague Rd / Sperry Dr,I-90  Exit 166 / 117th St,Eastbound,50,0.606,0.267,4.77,41.47615460830785,-81.87186479,41.46600987732873,-81.78154541,Yes
73,56,ba4a418d-6fca-43ff-a2b5-937a5ec098e4,2023-11-29T21:27:47.000Z,2023-11-29T23:10:52.000Z,US-23 High St,US-23 / Corduroy Rd,Northbound,103,0.037,0.124,4.13,40.12745095694068,-83.01633771,40.18666499548391,-83.02503714,Yes
74,90,b27265e9-6c26-4602-a796-1a243578d539,2023-11-29T19:35:14.000Z,2023-11-29T19:51:23.000Z,OH-542 Magnolia Rd / Gintz St,OH-542 Magnolia Rd,Southbound,16,0.478,0.131,4.63,40.63155154616932,-81.28989164,40.57184963,-81.25630014,Yes
75,109,923ed11a-4875-40fa-b144-78572b9d770a,2023-11-29T12:41:40.000Z,2023-11-29T12:43:49.000Z,OH-274 / County Road 54,OH-274 / Creekview Ct,Eastbound,2,0.196,0.349,4.93,40.43932,-83.91143926,40.44593571085542,-83.81890004,Yes
76,14,efac3ab2-d9e9-4b7a-a4d9-0e058d3e90c9,2023-11-29T13:48:53.000Z,2023-11-29T14:56:49.000Z,I-71  Exit 15 / Pfeiffer Rd,I-71  Exit 11 / Kenwood Rd,Southbound,68,0,0,3.94,39.24546,-84.36604,39.19377726148974,-84.38409495,Yes
77,126,3a3f4e54-a09f-4eb9-aa75-dcd66864bd91,2023-11-29T20:31:00.000Z,2023-11-29T23:22:42.000Z,I-71  Exit 117 / OH-161 Dublin Granville Rd,I-71,Northbound,172,0.37,0.986,6.06,40.098335936948494,-82.98493719,40.179938315412805,-82.95099995,Yes
78,5,789c76a2-3d50-4331-9f1b-1512ecafd3fe,2023-11-29T21:43:47.000Z,2023-11-29T22:00:04.000Z,"I-71  Exits 17,17A,17B / I-275  Exits 49,49A,49B",I-71  Exit 12 / US-22 Montgomery Rd,Southbound,16,0.597,0.885,3.39,39.25951630160018,-84.3610377,39.21153575157492,-84.37061945,Yes
79,52,c9d2ee4b-2dc2-4a5d-909b-2106ef7fd1dd,2023-11-29T15:18:05.000Z,2023-11-29T15:22:37.000Z,US-68,US-68,Southbound,5,0.514,0.758,6.53,38.99925998919972,-83.92191,38.90842932516242,-83.90270996,Yes
80,91,27ea2b15-eb99-4b77-9322-fc0b58740626,2023-11-29T20:14:03.000Z,2023-11-29T23:38:12.000Z,I-77  Exit 136 / OH-21,I-77,Northbound,204,0.157,0.497,2.54,41.13087917471234,-81.65174283,41.16010002174949,-81.62606,Yes
81,37,d7b9bf17-78f1-472e-9b32-5e1501c60b30,2023-11-29T15:11:42.000Z,2023-11-29T15:33:42.000Z,OH-310 Hazelton Etna Rd / OH-310 / Hazelwood Dr,OH-310 Hazelton Etna Rd / Worthington Ct,Northbound,22,0.788,0.599,4.31,40.01416741281866,-82.67172664,40.076853290167946,-82.66659883,Yes
82,64,cb239c05-69b1-47ca-8521-6ebf5954137f,2023-11-29T05:34:39.000Z,2023-11-29T05:48:38.000Z,County Road 424 / OH-109,County Road 424 / CR-53 River Rd / County Road 1,Eastbound,14,0.106,1.017,6.2,41.411433135884565,-84.00769246,41.41890977459845,-83.892289,Yes
83,26,2458981d-5cf1-410a-986f-e37f2e98d30e,2023-11-29T21:32:44.000Z,2023-11-29T21:46:47.000Z,"I-71  Exits 7,8A,8B / OH-562 / Ridge Ave",I-71  Exit 11 / Kenwood Rd,Northbound,14,0.248,0.545,3.11,39.1645,-84.42999,39.18933432771047,-84.38926925,No
84,24,9a94902a-4e25-4f6e-ae81-be70a4855507,2023-11-29T14:34:45.000Z,2023-11-29T14:49:56.000Z,US-68 Broadway St / Collins Ln,US-68 Apple St,Southbound,15,1.019,0.451,5.94,39.2917,-83.91068,39.21106697873677,-83.91696293,Yes
85,112,2bb96739-4de8-44f1-82e9-3a677bfe08f4,2023-11-29T12:23:45.000Z,2023-11-29T13:04:55.000Z,OH-126 Ronald Reagan Cross County Hwy,OH-126 Ronald Reagan Cross County Hwy,Eastbound,41,0.356,0.697,3.84,39.22361083188465,-84.53901083,39.20530745802807,-84.47351293,Yes
86,103,4e02acc1-8a8e-4be3-a948-ac8820c9bbb9,2023-11-29T21:52:52.000Z,2023-11-29T22:50:48.000Z,I-270  Exit 20 / CR-70 Sawmill Rd / Sawmill Rd,"I-71  Exits 119,119A,119B / I-270  Exit 26",Northbound,58,0.063,0.499,4.72,40.10895121686701,-83.08538175,40.11109,-82.99618996,Yes
87,34,af1d007e-59c3-4f63-88c7-6e1241a7665f,2023-11-29T12:36:49.000Z,2023-11-29T13:03:49.000Z,I-74  Exit 14 / North Bend Rd,"I-75  Exits 3,4 / I-74 / US-52 Hopple St",Eastbound,27,0.349,0.241,4.29,39.18475889,-84.60331282,39.15453243614122,-84.54322082,Yes
88,111,a3431c37-6e74-4f1d-bf3c-2f9e9c508804,2023-11-29T23:20:06.000Z,2023-11-29T23:24:03.000Z,I-90 / OH-2,"I-90  Exits 171,172A,172C / I-77  Exit 162B / OH-10 Carnegie Ave",Westbound,4,0.145,0.294,1.65,41.519200193125535,-81.67312263,41.49821004055418,-81.6739877,No
89,63,e1179625-a1cc-435b-984c-adbf03d37bd2,2023-11-29T21:57:59.000Z,2023-11-29T22:23:00.000Z,"I-270  Exits 17A,17B / OH-161  Exit 108",US-33,Westbound,25,0,0.122,2.77,40.09916,-83.13217,40.10820020549451,-83.1788101,Yes
90,58,1a608fe3-2d95-433e-9259-00fa0dd226b9,2023-11-29T22:29:05.000Z,2023-11-29T22:30:13.000Z,I-90 / I-90 / I-71,I-90  Exit 167B / OH-10 Lorain Ave / 81st St,Westbound,1,0.355,0.44,1.97,41.475741380277455,-81.69381319,41.47263841,-81.72932498,Yes
91,50,666741d3-f72c-405f-8f4f-e625585e9877,2023-11-29T21:20:54.000Z,2023-11-29T21:54:57.000Z,I-75  Exit 13 / Shepherd Ln / Shepherd Ave,I-75,Northbound,34,0.343,0.187,2.37,39.24407012810537,-84.4485299,39.27721096699093,-84.44053007,Yes
92,142,7d66af35-c812-4a58-a961-c57146e0fa6f,2023-11-29T22:35:09.000Z,2023-11-29T22:38:13.000Z,OH-59  Exit 3 / OH-261 Tallmadge Ave,"I-77  Exit 125B / I-76  Exits 23A,23B / OH-8 I-77",Southbound,3,0,0.345,2.31,41.1003,-81.50009,41.06733989414811,-81.50429,Yes
93,74,91a401b1-eb9a-4e86-bae2-58be404586f9,2023-11-29T12:59:56.000Z,2023-11-29T13:00:48.000Z,I-71,I-71  Exit 15 / Pfeiffer Rd,Southbound,1,0.472,0,2.02,39.28484976752428,-84.32728034,39.26677069481114,-84.35626931,No
94,71,c63024e2-4483-4b1a-85a4-274e54eb184b,2023-11-29T12:48:45.000Z,2023-11-29T12:53:52.000Z,I-71  Exit 12 / US-22 Montgomery Rd,I-71  Exit 8 / Highland Ave,Southbound,5,0.342,0.067,2.65,39.20022978226365,-84.3747038,39.17101478836618,-84.40392146,Yes
95,65,1a3d2609-1971-4b3e-8d95-55c5d0dbd132,2023-11-29T21:03:06.000Z,2023-11-29T21:07:46.000Z,US-23 High St / Northwoods Blvd,US-23,Northbound,5,0.194,0.093,3.2,40.12984010385649,-83.01652001,40.175950262384575,-83.02201007,Yes
96,69,9217fde8-120a-49c6-973e-d5dd53953443,2023-11-29T21:05:52.000Z,2023-11-29T23:09:53.000Z,OH-161  Exit 46 / US-62 Johnstown Rd,"I-270  Exits 30,33 / OH-161  Exits 40,41,42 / OH-161 Dublin Granville Rd Exits 40A,40B",Westbound,124,0.02,0.201,3.28,40.08572718,-82.79543679,40.084269983701866,-82.85311004,Yes
97,7,e1d6bda2-79be-4a37-a26f-c1409687881c,2023-11-29T21:47:06.000Z,2023-11-29T22:44:11.000Z,I-77  Exit 143 / OH-176 Wheatley Rd / Wheatley Rd,I-77  Exit 138 / Ghent Rd,Southbound,57,0.18,0.614,4.93,41.22254891217424,-81.62697989,41.151949839023175,-81.62977027,Yes
98,61,517d5f5c-7f0e-47d2-a771-1d80acca5d55,2023-11-29T12:55:12.000Z,2023-11-29T13:04:02.000Z,I-90,I-90  Exit 162 / Hilliard Blvd / Westway Dr,Eastbound,9,0.647,0.14,2.95,41.46998018639412,-81.91438327,41.47314517325948,-81.8596738,Yes
99,51,e39cd6cd-bbbc-4783-9325-4711dac4ea4e,2023-11-29T14:02:58.000Z,2023-11-29T14:48:03.000Z,General Griffin Rd / CR-25 Morse Rd,OH-310 Hazelton Etna Rd / CR-25 Morse Rd,Westbound,45,0,0.341,5.7,40.07016,-82.56626,40.05558003657947,-82.66844059,Yes
100,45,92da9961-74be-444b-8d54-618c5b7a54ce,2023-11-29T12:51:09.000Z,2023-11-29T12:53:15.000Z,"I-77  Exits 122A,122B / I-277  Exits 4A,4B / US-224  Exit 4B","I-77  Exit 125B / I-76  Exits 23A,23B / OH-8 I-77",Northbound,2,0.099,0.497,2.6,41.02168009466464,-81.49752006,41.05751,-81.50526,Yes
101,83,89e9f19a-572c-49f0-8a8f-2ef419015671,2023-11-29T12:45:50.000Z,2023-11-29T13:08:46.000Z,US-33,US-33 Columbus-Lancaster Rd,Westbound,23,0.321,0.724,4.26,39.84700005739965,-82.79574008,39.87749001358042,-82.86451002,Yes
102,81,ca9952e8-a427-4447-bfbf-e88706212de3,2023-11-29T16:30:09.000Z,2023-11-29T16:56:18.000Z,OH-542 Magnolia Rd / Hartwood Rd,OH-542 Magnolia Rd / Imperial Rd,Northbound,26,0.891,0.681,4.14,40.58749315155131,-81.26230232,40.63897736729455,-81.29666316,Yes
103,23,723cbdf9-43c1-4826-9503-35c3cac99ec4,2023-11-29T21:18:47.000Z,2023-11-29T21:35:48.000Z,"I-70  Exits 101A,101B / I-71  Exits 107,108A / Parsons Ave",I-71 / I-70,Southbound,17,0.09,0,1.88,39.95462006034954,-82.97636056,39.95263929978946,-83.0110621,Yes
104,30,a893315c-ce4b-48ef-8a7f-382db2990ec6,2023-11-29T21:45:03.000Z,2023-11-29T21:47:57.000Z,"I-75  Exits 52,52B / US-35 / Broadway St",I-75,Southbound,3,0.207,0,2.01,39.73732925173455,-84.20489,39.71434746,-84.22319309,No
105,102,4739ab33-7c7a-41b9-ab15-151997c68630,2023-11-29T13:00:48.000Z,2023-11-29T13:01:55.000Z,I-75  Exit 59 / Benchwood Rd,"I-75  Exits 54A,54B / OH-4 / OH-48 Main St",Southbound,1,0.722,0.096,2.59,39.827669530770656,-84.18946749,39.78968999893412,-84.18422,Yes
106,34,d8ea6990-d71b-410b-bc50-8f5edf30f5d8,2023-11-29T13:02:47.000Z,2023-11-29T13:04:55.000Z,I-74,"I-75  Exits 3,4 / I-74 / US-52 Hopple St",Eastbound,2,0.681,0,3.14,39.17654305093342,-84.58893859,39.1565,-84.54664,Yes
107,36,bfc829b5-7c75-47ac-9693-8271a088927d,2023-11-29T21:49:54.000Z,2023-11-29T21:54:57.000Z,I-71 / Edwards Rd,I-71  Exit 10 / Stewart Rd / Stewart Ave,Northbound,5,0,0.362,2.64,39.16324,-84.43429,39.181050100901054,-84.39653997,No
108,36,49f73c9a-d8f4-4715-8516-0540145d9a08,2023-11-29T20:31:00.000Z,2023-11-29T20:47:58.000Z,I-71 / Edwards Rd,I-71  Exit 10 / Stewart Rd / Stewart Ave,Northbound,17,0,0.304,2.58,39.16324,-84.43429,39.179916776224765,-84.39687212,No
109,39,db890ed0-4b8f-456d-bd01-0bb716bf6b8e,2023-11-29T04:15:57.000Z,2023-11-29T04:30:57.000Z,I-90  Exit 235 / OH-193 / OH-84,"I-90  Exit 228 / OH-11  Exits 94A,94B",Westbound,15,0.173,1.201,5.81,41.88146640154168,-80.66543176,41.82910066771263,-80.75131666,Yes
110,41,e49c1a4d-e111-47b7-a4f4-aa53229fa015,2023-11-29T22:40:44.000Z,2023-11-29T23:05:09.000Z,OH-315  Exit 1A / US-62 Rich St / US-62 Plato Pl,OH-315  Exit 3 / Cannon Dr / Medical Center Dr,Northbound,24,0.119,0.271,1.52,39.95541409,-83.01814008,39.97710008764329,-83.02109001,Yes
111,120,9ebfcce8-77c0-4334-833e-350141e7ac30,2023-11-29T21:25:00.000Z,2023-11-29T21:27:47.000Z,US-23 / Olentangy Crossings / Columbus Pike,US-23 High St / Windsong Way / Highbluffs Blvd,Southbound,3,0.155,0.596,5.01,40.20431445146439,-83.03024845,40.13254237,-83.01671864,Yes
112,58,8c6b3f0d-069c-45d4-8648-3bb2b2fcc2ef,2023-11-29T21:51:05.000Z,2023-11-29T22:00:16.000Z,I-90 / I-490 / I-90,I-90  Exit 167B / OH-10 Lorain Ave / 81st St,Westbound,9,0.186,0.386,1.61,41.47414,-81.69893,41.47296013359433,-81.7284834,Yes
113,124,8b10f7cb-1cf5-4f60-8431-d2d706425d20,2023-11-29T13:53:00.000Z,2023-11-29T14:14:46.000Z,US-62 High St,US-62 / OH-72,Northbound,22,1.007,1.032,4.4,39.22737,-83.61024,39.28788090995622,-83.59115,Yes
114,12,08d1ceef-5678-492f-8cea-ed5612c56053,2023-11-29T22:23:00.000Z,2023-11-29T23:10:52.000Z,"I-71  Exits 3,3A-B / Essex Pl / William Howard Taft Rd",I-71 / 3rd St,Southbound,48,0.427,0,2.13,39.13806,-84.48782,39.11081110767623,-84.50134496,Yes
115,133,55ecb7ce-0336-40a5-bf3b-c5de31f8597b,2023-11-29T22:12:52.000Z,2023-11-29T23:18:47.000Z,OH-315 / Hard Rd,OH-750 / OH-315 Olentangy River Rd,Northbound,66,0.078,0.639,2.83,40.11720027745685,-83.03421997,40.15640152586589,-83.04574013,Yes
116,80,1809a9b5-11c1-4f0d-8c3f-07c14cf69bfe,2023-11-29T21:25:00.000Z,2023-11-29T21:30:43.000Z,I-70 / Mooberry St,I-70  Exit 105A / US-33 College Ave,Eastbound,6,0.615,0,1.51,39.951202659566334,-82.94453449,39.93230817710996,-82.93149536,Yes
117,101,63cdf231-26b1-4c26-83f4-6a5de72dcabb,2023-11-29T04:35:39.000Z,2023-11-29T04:48:33.000Z,OH-18 Main St / OH-18 Mulberry St / Main St,OH-18 Deshler Rd / Galatea Rd,Westbound,13,0,1.024,4.79,41.1726,-83.55431,41.172868998363874,-83.64276369,Yes
118,75,bf072a28-eacb-41a2-a20e-f8c3525d36c5,2023-11-29T21:57:02.000Z,2023-11-29T21:58:49.000Z,"I-71  Exits 3,3A-B / Essex Pl / William Howard Taft Rd",US-50 / I-71,Southbound,2,0.401,0.488,2.02,39.126409994649805,-84.49744,39.099336664008405,-84.50636186,No
119,71,a087cd84-889c-41c9-a14e-1e32b9161168,2023-11-29T13:28:44.000Z,2023-11-29T13:33:50.000Z,I-71  Exit 12 / US-22 Montgomery Rd,I-71  Exit 8 / Highland Ave,Southbound,5,0.391,0.067,2.18,39.19469496,-84.38086763,39.17101478836618,-84.40392146,No
120,105,6e1bfc34-0ceb-46d6-a369-99e49a261b0f,2023-11-29T11:49:56.000Z,2023-11-29T12:31:53.000Z,I-75  Exit 56 / Stanley Ave,I-75  Exit 59,Northbound,42,0.167,0.398,2.45,39.79257654887654,-84.18622422,39.82759274,-84.18926007,Yes
121,128,2d54bc24-9477-45d5-beb4-4bdd87746f68,2023-11-29T22:26:03.000Z,2023-11-29T22:34:02.000Z,"I-271  Exits 27A-B,27B / I-480  Exit 13A / US-422  Exit 13B",I-480  Exit 24 / Lee Rd / Mccracken Rd,Westbound,8,0.105,0.508,2.05,41.42653963143864,-81.51605111,41.42484969627065,-81.5544595,No
122,71,a1a835c0-2aee-41a0-831c-3907f881e441,2023-11-29T22:39:57.000Z,2023-11-29T22:40:44.000Z,I-71  Exit 12 / US-22 Montgomery Rd,I-71  Exit 8 / Highland Ave,Southbound,1,0.391,0.223,2.34,39.19469496,-84.38086763,39.17089089383309,-84.40622116,Yes
123,74,73526f8a-b71a-4973-ba2d-70c05379eeba,2023-11-29T22:53:37.000Z,2023-11-30T01:03:28.000Z,I-71,I-71  Exit 15 / Pfeiffer Rd,Southbound,130,0,0.143,3.87,39.31216889,-84.2953409,39.27418375998126,-84.34707364,Yes
124,74,534bd62e-5f02-4d93-affc-e11717cb7f3b,2023-11-29T22:39:57.000Z,2023-11-29T22:40:44.000Z,I-71,I-71  Exit 15 / Pfeiffer Rd,Southbound,1,0.319,0.735,1.78,39.27723839075606,-84.34146685,39.25704975135834,-84.36249015,Yes
125,96,cd02d54b-e629-44c9-8ff6-8a06c15cae37,2023-11-29T12:53:52.000Z,2023-11-29T13:02:47.000Z,OH-126 Ronald Reagan Cross County Hwy Exit 31 / Plainfield Rd,"I-71  Exit 14 / OH-126 Ronald Reagan Cross County Hwy Exits 32B,32C",Eastbound,9,0.083,0.07,1.32,39.22524978911336,-84.38847773,39.22406,-84.36467,Yes
126,128,1263c7d3-f9cf-4149-a4ed-120bdb89909b,2023-11-29T22:47:09.000Z,2023-11-29T22:55:06.000Z,I-480  Exit 1 / Miles Rd,I-480  Exit 24 / Lee Rd / Mccracken Rd,Westbound,8,0,0.356,1.48,41.4243,-81.52371,41.42486999,-81.55211053,Yes
127,119,e155b7d3-8dac-4ebd-b9a9-0c79c76039f2,2023-11-29T13:32:03.000Z,2023-11-29T13:35:15.000Z,I-90  Exit 164 / Marginal Dr / Mckinley Ave,I-90  Exit 166 / 117th St,Eastbound,3,0.397,0.199,1.69,41.47019709175711,-81.81437712,41.4665774,-81.78301622,No
128,75,534a7cce-4966-493d-86ab-b4832eb25f55,2023-11-29T21:30:43.000Z,2023-11-29T21:32:44.000Z,"I-71  Exits 3,3A-B / Essex Pl / William Howard Taft Rd",US-50 / I-71,Southbound,2,0.283,0.488,2.14,39.12836803365203,-84.49649203,39.099336664008405,-84.50636186,No
129,76,07f2067e-f375-4299-b9c4-c4896ab2251d,2023-11-29T13:13:01.000Z,2023-11-29T14:43:45.000Z,I-71  Exit 5 / Duck Creek Rd,"I-71  Exits 7,8A,8B / OH-562 / Ridge Ave",Northbound,91,0.052,0.528,2.46,39.14316042369902,-84.47069452,39.16184264,-84.43600756,Yes
130,144,c234451a-d62c-4a21-ba0f-adc6295aa644,2023-11-29T13:08:03.000Z,2023-11-29T13:31:45.000Z,I-675,I-675,Northbound,24,0.57,0.829,3.3,39.707497697160186,-84.09242811,39.75464977683205,-84.09183653,Yes
131,35,d5d18ea5-ba39-4b8a-9dcf-c5d40fbf3a38,2023-11-29T17:47:02.000Z,2023-11-29T18:06:02.000Z,I-90  Exit 166 / 117th St,I-90 / Clark Ave,Eastbound,19,0,0.037,1.45,41.46606,-81.77328,41.46976,-81.74615244,Yes
132,10,af35b0f8-6ee7-44ff-9376-44aef62718ed,2023-11-29T21:10:54.000Z,2023-11-29T21:32:44.000Z,US-23 / Olentangy Crossings / Columbus Pike,US-23 / Green Meadows Dr,Southbound,22,0.155,0.13,3.54,40.20431445146439,-83.03024845,40.15373738744171,-83.01823266,Yes
133,26,4b0964d9-f293-447d-9c3a-8a390191067b,2023-11-29T21:23:54.000Z,2023-11-29T21:27:47.000Z,"I-71  Exits 7,8A,8B / OH-562 / Ridge Ave",I-71  Exit 11 / Kenwood Rd,Northbound,4,0.033,0.545,3.04,39.16480065270177,-84.42874739,39.18933432771047,-84.38926925,No
134,48,3e3cc6c5-aec9-4e94-92e7-d1e7f08f8ddd,2023-11-29T20:02:42.000Z,2023-11-29T20:22:43.000Z,I-71  Exit 12 / US-22 Montgomery Rd,I-71  Exit 15 / Pfeiffer Rd,Northbound,20,0.059,0.172,1.96,39.19968088979332,-84.37469957,39.22706827219064,-84.36661091,Yes
135,9,92cd32f1-e2fb-49d5-a2b0-fe55efeac2fb,2023-11-29T22:37:16.000Z,2023-11-29T23:55:11.000Z,"I-71  Exits 242,242A-B / Bellaire Rd / 130th St","I-71  Exits 237,237A,237B / OH-291 Engle Rd / Snow Rd",Southbound,78,0.752,0.468,3.04,41.438726702537394,-81.79572309,41.40651425473301,-81.81838029,Yes
136,31,6329a7cd-700e-4aab-9d1f-968323123d7f,2023-11-29T12:42:53.000Z,2023-11-29T13:11:55.000Z,I-275,I-275,Northbound,29,0.616,0.093,2.94,39.215255335979805,-84.26793451,39.24657249199655,-84.30446974,Yes
137,50,a8530493-f7e3-448c-8245-e9601c9a0243,2023-11-29T22:03:43.000Z,2023-11-29T22:28:59.000Z,I-75  Exit 13 / Shepherd Ln / Shepherd Ave,I-75,Northbound,25,0.49,0.331,2.23,39.23961,-84.45117,39.27008643752495,-84.44008548,Yes
138,53,81cc5b06-ada6-4176-8ea8-29a325325c1c,2023-11-29T13:39:49.000Z,2023-11-29T14:09:51.000Z,"I-75  Exits 3,4 / I-74 / US-52 Hopple St",I-75  Exit 8 / Towne St,Northbound,30,1.241,0.273,2.4,39.16206091444532,-84.51894788,39.18057001100173,-84.48535999,Yes
139,57,3dabaafb-d937-40e4-b8d8-80d70c1e5467,2023-11-29T21:49:54.000Z,2023-11-29T23:14:55.000Z,"I-670  Exits 2A,2B,3 / OH-315  Exits 1C,1D,1E,1F,2 / Goodale St",I-70 / I-670,Westbound,85,0.129,1.061,2.53,39.96588991964245,-83.02628011,39.970346128266286,-83.07067032,Yes
140,40,18236cd8-331d-480e-b837-d9eb7529da47,2023-11-29T12:27:57.000Z,2023-11-29T13:36:52.000Z,OH-161,OH-161  Exit 43 / Hamilton Rd,Westbound,69,0.28,0.95,3.52,40.08039487321947,-82.78348473,40.08724646364573,-82.84487288,Yes
141,62,d16945f3-70e3-48eb-9d6d-a12b7c0369a9,2023-11-29T19:41:14.000Z,2023-11-29T19:55:14.000Z,OH-542 Magnolia Rd / Flint Rd,OH-542 Magnolia Rd / Gintz St,Northbound,14,0.366,0.307,4.29,40.58091053547209,-81.25790025,40.63394953455385,-81.29357709,Yes
142,12,adc1a138-f6e3-412b-af48-a724933a335b,2023-11-29T20:56:50.000Z,2023-11-29T21:19:45.000Z,"I-71  Exits 3,3A-B / Essex Pl / William Howard Taft Rd",I-71 / 3rd St,Southbound,23,0.263,0.173,1.76,39.13619228367262,-84.49167255,39.11196993783659,-84.50099001,Yes
143,65,88010af9-8f92-4453-ab09-3e7a5fd31ea9,2023-11-29T22:17:48.000Z,2023-11-29T22:23:49.000Z,US-23 / Creekside Dr / Halfway Ave,US-23,Northbound,6,0.738,0.144,2.09,40.18509,-83.0246,40.21456304426589,-83.03302076,Yes
144,65,1248548e-2b55-479d-ae70-cc95a6f68b2a,2023-11-29T22:55:39.000Z,2023-11-29T22:57:52.000Z,US-23,US-23,Northbound,2,0.308,0.144,1.78,40.189450015052834,-83.02583,40.21456304426589,-83.03302076,Yes
145,36,0f2fcbc9-53b1-4b1f-829c-be1ec99ac79c,2023-11-29T21:29:50.000Z,2023-11-29T21:30:43.000Z,"I-71  Exits 7,8A,8B / OH-562 / Ridge Ave",I-71  Exit 10 / Stewart Rd / Stewart Ave,Northbound,1,0,0,2.52,39.16465,-84.42934,39.18335,-84.39561,No
146,11,ada1d589-98d6-499b-b05d-77a9a48db174,2023-11-29T20:56:50.000Z,2023-11-29T22:20:47.000Z,I-71 / I-70,"I-71  Exits 99A,99B,106 / I-70  Exits 99A,99C / OH-315",Westbound,84,0,0.339,1.64,39.9544,-82.98845,39.94900099830777,-83.01642829,Yes
147,33,0042614c-1b35-42b5-8a4d-6d7499db5d28,2023-11-30T01:58:45.000Z,2023-11-30T02:00:52.000Z,I-275  Exit 28 / I-74  Exit 9,I-74,Eastbound,2,1.204,0.495,2.16,39.21445,-84.68342,39.19700984813472,-84.66012787,Yes
148,110,d72c86ec-c7fd-48fc-b698-57ac69d14dbc,2023-11-29T23:03:57.000Z,2023-11-30T01:17:13.000Z,I-675,I-675,Southbound,133,0.958,0.814,2.6,39.70091996285208,-84.09480002,39.66450696969447,-84.09888189,Yes
149,134,34558e20-7045-4070-b46b-dddf8e862259,2023-11-29T10:59:45.000Z,2023-11-29T11:01:35.000Z,Rock Rd,Rock Rd / CR-150 Rock Rd / Walker Lake Rd,Northbound,2,1.023,0,2.12,40.76282,-82.63264,40.79269,-82.62882,Yes
150,27,c3b70fc0-284c-4b52-86ba-48a4b4a49d44,2023-11-29T20:24:52.000Z,2023-11-29T21:26:45.000Z,OH-317 London-Groveport Rd / Hendron Rd,OH-317 Hamilton Rd,Eastbound,62,0.295,0.382,2.75,39.86848783682823,-82.89347059,39.904840162643694,-82.88156999,Yes
151,98,f9ea99a3-a059-48ed-ac3a-55a07ae23da6,2023-11-29T21:52:52.000Z,2023-11-29T22:26:56.000Z,OH-32,OH-32,Eastbound,34,0.46,0.069,2.92,39.05850954231097,-83.99382396,39.04614965343488,-83.94004849,Yes
152,107,72bf18e4-a241-4ed2-9035-bb01df84d510,2023-11-29T22:29:50.000Z,2023-11-29T22:31:47.000Z,US-23,US-23 / Creekside Dr / Halfway Ave,Southbound,2,0.388,1.157,2.13,40.21687983765649,-83.03387996,40.18798787350886,-83.02542304,Yes
153,97,2527fb73-ec48-4cb2-89d1-02bfb346565a,2023-11-29T17:00:46.000Z,2023-11-29T17:37:09.000Z,I-75,I-75  Exit 21 / Cincinnati Dayton Rd,Northbound,36,0.498,0.8,2.87,39.30279702346383,-84.43825743,39.33661423353252,-84.40707944,Yes
154,25,e3323309-fd2b-4831-bf01-c910b106d551,2023-11-29T13:06:45.000Z,2023-11-29T13:14:51.000Z,I-70 / Sullivant Ave,I-70  Exit 100B / US-23 Brewer St / US-23 Livingston Ave,Eastbound,8,0.221,0.388,1.45,39.947733661688254,-83.03185803,39.95335000357394,-83.00540989,Yes
155,32,95d441f4-bdba-4dc1-9007-e909e4ce76e3,2023-11-29T12:50:08.000Z,2023-11-29T13:27:53.000Z,I-75  Exit 19 / Union Centre Blvd,"I-75  Exits 16,16A,16B / I-275  Exits 43A,43B",Southbound,38,0.098,0,2.25,39.32490938626678,-84.4217433,39.29684274643963,-84.44117601,Yes
156,1,5686ca86-6b6b-4fd6-b7ed-8e1b6ac41eca,2023-11-29T22:09:57.000Z,2023-11-29T22:17:48.000Z,"I-71  Exits 191,192 / KY-8 5th St / Bullock St",I-71 / US-50,Northbound,8,0.441,0.449,1.32,39.08765457511199,-84.52274926,39.09878,-84.50843,Yes
157,25,b88704e4-1fca-46d9-9893-86f1ad006a62,2023-11-29T23:05:09.000Z,2023-11-29T23:18:02.000Z,I-70 / Sullivant Ave,I-70  Exit 100B / US-23 Brewer St / US-23 Livingston Ave,Eastbound,13,0.424,0.219,1.08,39.94874000924882,-83.02796997,39.95307002464974,-83.00858975,Yes
158,25,6feef315-52a9-4c03-98c5-254fdd0bef41,2023-11-29T20:20:49.000Z,2023-11-29T21:01:55.000Z,I-70 / Sullivant Ave,I-70  Exit 100B / US-23 Brewer St / US-23 Livingston Ave,Eastbound,41,0,0.388,1.67,39.94783,-83.0357,39.95335000357394,-83.00540989,Yes
159,113,5122bd07-96ab-4b55-b932-457adab8c11b,2023-11-29T22:46:53.000Z,2023-11-29T22:55:39.000Z,I-275  Exit 46 / US-42 Lebanon Rd,"I-75  Exits 16,16A,16B / I-275  Exits 43A,43B",Northbound,9,0.76,0,1.1,39.28481158415834,-84.41816079,39.28951074686059,-84.43819336,Yes
160,25,ee41da11-467f-4355-a64b-0491c15a8e3f,2023-11-29T21:19:45.000Z,2023-11-29T22:12:52.000Z,I-70 / Sullivant Ave,I-70  Exit 100B / US-23 Brewer St / US-23 Livingston Ave,Eastbound,53,0.221,0.219,1.28,39.947733661688254,-83.03185803,39.95307002464974,-83.00858975,Yes
161,95,75f5bade-9923-461b-a42d-41218d33f9b5,2023-11-29T13:06:08.000Z,2023-11-29T13:11:10.000Z,I-90,I-90  Exit 161 / OH-2 Detroit Rd / OH-254 Detroit Rd,Eastbound,5,0.485,0.458,2.32,41.468965730562736,-81.91941142,41.47603906,-81.87480774,Yes
162,117,f8cedbb9-8e7d-4c46-96e4-8d6db913b80b,2023-11-29T12:59:56.000Z,2023-11-29T13:01:55.000Z,I-71  Exit 12 / US-22 Montgomery Rd,I-71  Exit 9 / Red Bank Expy,Southbound,2,0.342,0.105,1.9,39.20022978226365,-84.3747038,39.17961354311452,-84.39722492,No
163,19,953472f0-ba54-4bd7-8a67-0a8b2a019258,2023-11-30T02:53:33.000Z,2023-11-30T02:54:37.000Z,US-30 / County Line Rd,US-30 / CR-330 Lincoln Hwy / US-30-BL Lincoln Hwy,Eastbound,1,0,0,2.8,40.81170911,-83.10533788,40.825980690766535,-83.05702944,No
164,16,8becc976-0d16-420d-a7ba-0fab645ba834,2023-11-29T19:52:50.000Z,2023-11-29T20:20:49.000Z,I-75,I-75  Exit 51 / Edwin C Moses Blvd,Northbound,28,0.324,0.418,2.09,39.70532350180615,-84.22867514,39.72901002566103,-84.20701998,Yes
165,121,55c13a42-a493-44ed-bb33-1adbf49fa822,2023-11-29T13:10:50.000Z,2023-11-29T13:13:01.000Z,"I-71  Exits 119,119A,119B / I-270  Exit 26",I-270  Exit 29 / OH-3 Westerville Rd / OH-3,Northbound,2,0.664,0.172,1.47,40.11038999543525,-82.9798399,40.106005009996174,-82.9526808,Yes
166,12,aa95e250-28c9-4eaf-8f69-f7ac2b2c2ffc,2023-11-29T22:08:43.000Z,2023-11-29T22:18:51.000Z,"I-71  Exits 3,3A-B / Essex Pl / William Howard Taft Rd",I-71 / 3rd St,Southbound,10,0.283,0,1.25,39.12836803365203,-84.49649203,39.11081110767623,-84.50134496,No
167,12,a9657f93-21b8-4b3c-9b79-332780ea0a76,2023-11-29T22:00:48.000Z,2023-11-29T22:05:13.000Z,"I-71  Exits 3,3A-B / Essex Pl / William Howard Taft Rd",I-71 / 3rd St,Southbound,4,0.283,0.063,1.31,39.12836803365203,-84.49649203,39.109792580508646,-84.50183055,No
168,127,54aa070d-635c-47b8-a168-ccf7f2056f6a,2023-11-29T13:02:47.000Z,2023-11-29T13:14:51.000Z,I-70,I-70 / I-670,Eastbound,12,0,0.386,2.27,39.97606,-83.11035,39.96946997017877,-83.06871991,Yes
169,10,bd75b58a-733b-468a-a4dc-9f8198ae4b52,2023-11-29T22:25:47.000Z,2023-11-29T22:38:12.000Z,US-23 / Slate Ridge Dr,US-23 / Green Meadows Dr,Southbound,12,0.941,1.003,2.43,40.19030741189572,-83.02608632,40.15556342590991,-83.01835958,Yes
170,25,5efe8db7-80ab-46d9-8cb1-e4223f8ee8f6,2023-11-29T20:02:42.000Z,2023-11-29T20:07:56.000Z,I-70 / Sullivant Ave,I-70  Exit 100B / US-23 Brewer St / US-23 Livingston Ave,Eastbound,5,0.347,0.219,1.16,39.94837007,-83.02932973,39.95307002464974,-83.00858975,Yes
171,10,d8c7acc0-d777-44b4-a671-9f3380854b7f,2023-11-29T22:51:46.000Z,2023-11-29T22:59:57.000Z,US-23 / Olentangy Crossings / Columbus Pike,US-23 / Green Meadows Dr,Southbound,8,0.102,1.003,3.47,40.20474224059325,-83.03037167,40.15556342590991,-83.01835958,Yes
172,77,376b9cb3-ee50-4155-b1a1-f293c7f0ef7b,2023-11-29T21:04:56.000Z,2023-11-29T21:05:52.000Z,OH-16 Broad St / Hallowell Dr,OH-16 Broad St / Eastpointe Ridge Dr / Blacklick Xing,Westbound,1,0.33,0.552,2.04,39.98657999,-82.77948013,39.98245152209207,-82.81686461,Yes
173,60,6fd8ff15-f59d-426e-9cf3-829fc85be17c,2023-11-29T13:27:53.000Z,2023-11-29T14:01:47.000Z,I-71  Exit 105 / Greenlawn Ave,I-70  Exit 100B / US-23 Brewer St / US-23 Livingston Ave,Northbound,34,0.277,0.434,1.44,39.93900003,-83.00950001,39.95336,-83.00505447,Yes
174,136,c48d3f00-e7d6-46ed-9691-f812b9608538,2023-11-29T18:09:47.000Z,2023-11-29T18:10:57.000Z,Memorial Dr / Union St,CR-33A Memorial Dr / Memorial Dr / Ety Rd,Northbound,1,0.823,0.998,2.53,39.717650084121225,-82.60694,39.74094693022669,-82.63746295,Yes
175,50,3139b6e2-2f50-4fc5-b2c4-f2f7807b83a5,2023-11-29T23:50:53.000Z,2023-11-30T00:00:39.000Z,I-75  Exit 12 / Davis St,I-75,Northbound,10,0.723,0.208,1.7,39.22771053505268,-84.44944536,39.25109433417904,-84.44476646,Yes
176,46,7a6f8189-59d8-49ee-9ef2-44aba264eec3,2023-11-29T13:36:52.000Z,2023-11-29T13:37:52.000Z,"I-71  Exit 14 / OH-126 Ronald Reagan Cross County Hwy Exits 32B,32C",I-71  Exit 10 / Stewart Rd / Stewart Ave,Southbound,1,0.885,0.483,2.01,39.21153575157492,-84.37061945,39.18848995931768,-84.39001169,Yes
177,60,07fb781c-43b0-417f-a6e6-373bf8f8f070,2023-11-29T13:11:55.000Z,2023-11-29T13:13:47.000Z,I-71  Exit 105 / Greenlawn Ave,I-70  Exit 100B / US-23 Brewer St / US-23 Livingston Ave,Northbound,2,0.1,0.388,1.57,39.93620031756808,-83.00947346,39.95335000357394,-83.00540989,Yes
178,86,782be32a-b15a-4779-b56b-69ff5c525c26,2023-11-29T22:38:55.000Z,2023-11-29T22:49:56.000Z,OH-315  Exit 10 / OH-161 Dublin Granville Rd / OH-161 Granville Rd,OH-315 / Hard Rd,Northbound,11,0.239,0.08,1.28,40.09487522577362,-83.03699269,40.113628974534095,-83.03486019,Yes
179,60,301b1b22-c19b-4fc4-ad8f-950e62d084d3,2023-11-29T20:54:57.000Z,2023-11-29T20:58:47.000Z,I-71  Exit 105 / Greenlawn Ave,I-70  Exit 100B / US-23 Brewer St / US-23 Livingston Ave,Northbound,4,0.424,0.218,1.08,39.94060032065653,-83.01026997,39.95307002464974,-83.00858975,Yes
180,140,801588fa-4ded-46c9-8f17-7dcafec1019d,2023-11-29T22:22:00.000Z,2023-11-29T22:39:57.000Z,I-275  Exit 44 / Mosteller Rd,"I-71  Exits 17,17A,17B / I-275  Exits 49,49A,49B",Northbound,18,0.341,0.614,2.87,39.28461726333112,-84.41580118,39.28241998358108,-84.36673998,Yes
181,89,64acdcfc-8654-4ccd-a358-dedbe138237d,2023-11-29T21:53:12.000Z,2023-11-29T22:08:13.000Z,I-277  Exit 2 / Waterloo Rd,US-224 / Kelly Ave / Starlight Dr,Eastbound,15,0.242,0.122,2.52,41.03188836956103,-81.54959009,41.02518001091104,-81.50364983,Yes
182,70,091c2bf5-c9dd-47a1-b2e8-56ea9633336c,2023-11-30T02:33:50.000Z,2023-11-30T03:13:43.000Z,I-71,I-71,Southbound,40,0.397,0.21,1.93,40.28748452738315,-82.92556555,40.25916914219856,-82.92826509,Yes
183,3,1a4b1029-cd6a-4fd6-bd74-0649c94175f3,2023-11-29T12:11:10.000Z,2023-11-29T12:38:16.000Z,US-422,US-422  Exit 16 / Harper Rd,Westbound,27,0.32,1.241,1.92,41.39475497394193,-81.42846211,41.40266684152794,-81.46144722,Yes
184,143,164ff120-cc97-40cf-b61d-257b24ca8a00,2023-11-29T20:29:53.000Z,2023-11-29T22:18:51.000Z,OH-16 Broad St,OH-16 Broad St / Reynoldsburg-New Albany Rd / Lancaster Ave,Eastbound,109,0,0.752,2.55,39.97754,-82.86169,39.98269239,-82.81456726,Yes
185,77,09359c28-9a3e-4f91-a63b-c94e8a609489,2023-11-29T20:32:52.000Z,2023-11-29T20:36:04.000Z,OH-16 Broad St / Hallowell Dr,OH-16 Broad St / Eastpointe Ridge Dr / Blacklick Xing,Westbound,3,0.403,0.552,1.97,39.98641999915203,-82.78085001,39.98245152209207,-82.81686461,Yes
186,63,f5bd90a3-c521-4b1e-8812-6eb2c4ded62f,2023-11-29T22:02:42.000Z,2023-11-29T22:13:51.000Z,US-33  Exit 96 / CR-105 Scottslawn Rd,US-33,Westbound,11,0,0.456,0.88,40.21268,-83.30438,40.22022041218375,-83.31783074,Yes
187,20,bf57fd5b-0e66-42de-ad0a-562eea491f39,2023-11-29T22:42:02.000Z,2023-11-29T22:44:11.000Z,I-77  Exit 143 / OH-176 Wheatley Rd / Wheatley Rd,I-77,Southbound,2,0.18,0.299,1.94,41.22254891217424,-81.62697989,41.19556163441784,-81.6258125,No
188,122,7d495841-e9fb-48f8-82ee-f3682f68dee7,2023-11-29T22:36:49.000Z,2023-11-29T22:43:45.000Z,OH-317 London-Groveport Rd / OH-317 Hamilton Rd / Bixby Rd,OH-317 Hamilton Rd / Wingate Rd,Eastbound,7,0.181,0.169,2,39.87294007644335,-82.88507995,39.90155979401767,-82.8819373,Yes
189,15,3a33a1ee-ec70-487b-9fae-e7d661bc911a,2023-11-29T04:27:54.000Z,2023-11-29T04:28:59.000Z,I-90,I-90,Eastbound,1,0.214,0.787,2.71,41.88417013005136,-80.65984854,41.90249729852734,-80.61487983,No
190,15,188f8c4c-40f0-4919-891f-43f06ab601e4,2023-11-29T22:08:13.000Z,2023-11-29T22:38:13.000Z,I-90  Exit 189 / OH-91 / OH-91 Som Center Rd,I-90,Eastbound,30,0.034,0.473,2.01,41.60469107637216,-81.43441824,41.62341000091921,-81.40453,Yes
191,66,0fca008c-7bbf-43c2-a65e-55eb932bb667,2023-11-29T12:09:55.000Z,2023-11-29T12:13:47.000Z,OH-32 / Olive Branch Stonelick Rd,OH-32,Westbound,4,0.554,0.792,1.82,39.08877,-84.22797,39.09412255788213,-84.26035921,Yes
192,57,16d4d552-f69a-4eac-b99c-c647d3252d28,2023-11-29T21:30:43.000Z,2023-11-29T21:41:45.000Z,"I-670  Exits 1,1B / Grandview Ave / Watermark Dr",I-70 / I-670,Westbound,11,0.152,1.061,1.56,39.96808014369135,-83.04311061,39.970346128266286,-83.07067032,Yes
193,49,93c3017d-9e3d-46bd-adad-6fff121856b8,2023-11-29T23:21:36.000Z,2023-11-29T23:33:32.000Z,I-475,US-23,Northbound,12,0.449,0.816,1.84,41.53598003,-83.67202005,41.558812418361015,-83.68768042,Yes
194,36,15690765-4324-48a1-9ecb-ba5446244ddf,2023-11-29T13:10:50.000Z,2023-11-29T13:19:50.000Z,I-71 / Kennedy Ave,I-71  Exit 10 / Stewart Rd / Stewart Ave,Northbound,9,0.423,0.148,1.19,39.17050100795087,-84.41446928,39.17751087255124,-84.39758301,Yes
195,115,7c86733c-51b7-466e-a43e-b4695f2bd260,2023-11-29T22:55:39.000Z,2023-11-29T22:56:48.000Z,"I-71  Exits 17,17A,17B / I-275  Exits 49,49A,49B","I-71  Exit 14 / OH-126 Ronald Reagan Cross County Hwy Exits 32B,32C",Southbound,1,0.735,0.782,1.61,39.25704975135834,-84.36249015,39.23416000754747,-84.3671,No
196,141,981a8936-0181-4a68-b0a3-039da8b7106c,2023-11-29T22:35:09.000Z,2023-11-29T22:44:11.000Z,I-77  Exit 161B / I-490,I-77  Exit 159B / Independence Rd / Fleet Ave,Southbound,9,0.034,0.648,1.68,41.48339319890476,-81.66297123,41.45984167786168,-81.6570903,Yes
197,46,c8dbe930-2f5f-494c-bbe0-f2f719fa4aaf,2023-11-29T18:15:55.000Z,2023-11-29T18:17:56.000Z,I-71  Exit 12 / US-22 Montgomery Rd,I-71  Exit 10 / Stewart Rd / Stewart Ave,Southbound,2,0.143,0.779,1.66,39.20178977755664,-84.37393011,39.18528649229971,-84.39382531,Yes
198,44,c4dd0c66-af13-4ed0-aea3-2ea4abeff75e,2023-11-29T12:57:43.000Z,2023-11-29T13:21:38.000Z,US-50 Columbia Pkwy / Strafer St,US-50 Columbia Pkwy / Kemper Ln,Westbound,24,0.554,0.088,1.65,39.11576039,-84.43675039,39.12518992,-84.46440174,Yes
199,82,a7c37619-3e84-4ba3-9d4d-88231ee1757c,2023-11-29T12:50:50.000Z,2023-11-29T12:51:47.000Z,OH-4 Dixie Hwy,OH-4 Springfield Pike,Southbound,1,0.336,0.907,1.75,39.32055943432552,-84.49958887,39.30052311231692,-84.48486839,Yes
200,84,99341adc-3c71-41c6-a561-4b193f985d5a,2023-11-29T14:00:43.000Z,2023-11-29T14:19:56.000Z,General Griffin Rd / CR-25 Morse Rd,CR-25 Morse Rd,Westbound,19,0,0.873,3.04,40.07016,-82.56626,40.06003873310457,-82.61812531,No
201,84,5bc4a947-f5e0-4345-bffe-6e705c3f8d82,2023-11-29T14:21:43.000Z,2023-11-29T14:23:43.000Z,General Griffin Rd / CR-25 Morse Rd,CR-25 Morse Rd,Westbound,2,0,0.873,3.04,40.07016,-82.56626,40.06003873310457,-82.61812531,No
202,38,677813c7-e9f7-439e-bd6a-e7811d53fe6a,2023-11-29T22:18:51.000Z,2023-11-29T22:23:00.000Z,I-75  Exit 6 / Mitchell Ave,"I-75  Exits 3,4 / I-74 / US-52 Hopple St",Southbound,4,0.634,0,1.45,39.162021949233534,-84.51580235,39.15392666288952,-84.53873106,Yes
203,137,a75a425a-619b-4375-96f7-df4eb0719f51,2023-11-29T20:52:05.000Z,2023-11-29T21:39:55.000Z,"I-270  Exits 30,33 / OH-161  Exits 40,41,42 / OH-161 Dublin Granville Rd Exits 40A,40B",OH-161  Exit 45 / New Albany Rd,Eastbound,48,0,0.891,2.67,40.0804,-82.88123,40.090695777830746,-82.83459102,Yes
204,100,ef6d0fba-16c7-4c98-bb52-61240b5e97bb,2023-11-29T21:41:17.000Z,2023-11-29T21:59:06.000Z,Opportunity Corridor,I-490 / Opportunity Corridor,Southbound,18,0.73,0.125,1.42,41.48982401394068,-81.6202648,41.48210176082132,-81.64440739,Yes
205,92,d4c60e55-cb17-4ddf-9c58-eef90a0cd69b,2023-11-29T22:15:52.000Z,2023-11-29T22:31:47.000Z,I-275,I-275  Exit 69 / Five Mile Rd,Northbound,16,0.659,1.334,2.29,39.05541576166308,-84.40467351,39.05603962364911,-84.36574288,Yes
206,138,53317fb8-26fc-457b-8adf-731b5edf37dc,2023-11-29T12:01:45.000Z,2023-11-29T12:04:02.000Z,I-70,I-70,Westbound,2,0.648,0.622,1.09,39.94574293014473,-82.61490017,39.94670383872592,-82.63649736,No
207,135,d65cbf02-417c-42d0-b19b-f1ec47d5851b,2023-11-29T22:17:48.000Z,2023-11-29T22:33:50.000Z,I-270,"I-70  Exits 108,108A-B / I-270  Exits 41-43,43A-B-41 / US-40 Main St",Northbound,16,0.427,1.403,2.03,39.911715686720186,-82.88782634,39.93056772181706,-82.85803533,Yes
208,135,633df581-6165-47de-9cac-375ddb866525,2023-11-29T21:51:46.000Z,2023-11-29T22:13:51.000Z,I-270,"I-70  Exits 108,108A-B / I-270  Exits 41-43,43A-B-41 / US-40 Main St",Northbound,22,0.256,1.403,2.2,39.91015576427308,-82.8897428,39.93056772181706,-82.85803533,Yes
209,130,35f4f028-3e28-4fea-8bc1-43f5d4ed9aff,2023-11-29T20:51:10.000Z,2023-11-29T21:11:17.000Z,I-90 / OH-2,I-80 / I-90,Westbound,20,1.116,0.463,0.46,41.39803238,-82.15819825,41.39161988579088,-82.16069008,Yes
210,31,00b88b1e-ec57-4d6b-9341-46f606d83fab,2023-11-29T22:10:43.000Z,2023-11-29T23:18:47.000Z,"I-74  Exit 5 / I-275  Exits 5,25",I-275,Northbound,68,0,0.729,1.92,39.21518,-84.72828,39.212046324723005,-84.75575735,Yes
211,10,a4b486a8-c7ef-4b7b-8750-3ade33efa980,2023-11-29T21:18:47.000Z,2023-11-29T21:19:45.000Z,US-23 / Windbrush Ave,US-23 / Green Meadows Dr,Southbound,1,0.271,0.13,0.86,40.16609894817952,-83.02006468,40.15373738744171,-83.01823266,No
212,123,fa6144d9-57a7-4df3-bffd-c1951863e561,2023-11-29T13:34:31.000Z,2023-11-29T13:42:42.000Z,"US-23  Exits 4,4A-B / US-24 Anthony Wayne Trl Exits 68A,68B / US-24  Exit 68A",I-475,Southbound,8,0.194,0.955,1.57,41.55726353311752,-83.68749425,41.53726590063999,-83.67500016,Yes
213,21,74be79bb-4687-43f6-96a0-9a3db89ed6b1,2023-11-29T12:58:41.000Z,2023-11-29T13:00:48.000Z,OH-16 Broad St / Reynoldsburg-New Albany Rd / Lancaster Ave,OH-16 Broad St / CR-208 Taylor Station Rd / Sister Carlotta Hart Ln,Westbound,2,0.357,0.864,1.55,39.98282048727895,-82.81331513,39.97949648813864,-82.84234458,Yes
214,104,bc2246fc-f992-4f66-af16-1ebda92f2ce1,2023-11-29T22:56:48.000Z,2023-11-29T23:08:44.000Z,OH-161 Dublin Granville Rd,OH-161 Granville Rd / Evening St,Westbound,12,0,0.176,1.19,40.08806,-82.99845,40.088960046465786,-83.02085128,Yes
215,93,c375a511-616d-43de-b8e5-9f8b8f14d960,2023-11-29T22:03:43.000Z,2023-11-29T22:41:46.000Z,OH-161 Granville Rd / Seabury Dr,OH-161 Dublin Granville Rd,Westbound,38,0.795,0.699,0.93,40.08930239450398,-83.03143578,40.09017,-83.04991464,Yes
216,38,50547cac-27ef-45f5-b431-b1caeaafbda3,2023-11-29T20:56:50.000Z,2023-11-29T21:00:47.000Z,I-75  Exit 6 / Mitchell Ave,"I-75  Exits 3,4 / I-74 / US-52 Hopple St",Southbound,4,0,0,1.33,39.16229,-84.51842,39.15392666288952,-84.53873106,Yes
217,38,1fe64209-0a66-42f6-875e-3566acc42def,2023-11-29T21:39:54.000Z,2023-11-29T21:43:47.000Z,I-75  Exit 7 / OH-562,"I-75  Exits 3,4 / I-74 / US-52 Hopple St",Southbound,4,0,0.547,1.35,39.17184,-84.49514,39.16181212154483,-84.51404864,Yes
218,79,2687b1bb-2c1c-4c36-8e59-d7ebce924163,2023-11-30T02:39:37.000Z,2023-11-30T02:40:40.000Z,US-23 / US-30,US-30,Eastbound,1,0.227,1.347,2.24,40.80883947331392,-83.22304952,40.80778,-83.17966998,Yes
219,67,72d8ac0d-bef7-4940-805b-9e57b0ace75f,2023-11-29T06:21:50.000Z,2023-11-29T06:27:52.000Z,I-70,I-70,Eastbound,6,0.324,0.318,1.08,39.97895796153479,-83.19015738,39.97793470374501,-83.16841803,Yes
220,67,f13b388e-b6ad-4c58-a5f9-ee887b4637aa,2023-11-29T06:47:48.000Z,2023-11-29T06:53:43.000Z,I-70,I-70,Eastbound,6,0,0.318,0.32,39.97821884,-83.17441324,39.97793470374501,-83.16841803,Yes
221,99,c0cd58bf-4a32-4ead-9950-24af91fdfadc,2023-11-29T20:45:49.000Z,2023-11-29T20:48:49.000Z,OH-16 Broad St / Wickfield Rd,OH-16 Broad St,Eastbound,3,0.214,0.959,0.75,39.98375809304566,-82.80463716,39.98539000786725,-82.79004994,No
222,5,a3a7004c-cb96-4b69-9511-e22f69b2ce73,2023-11-29T13:41:41.000Z,2023-11-29T13:42:42.000Z,"I-71  Exit 14 / OH-126 Ronald Reagan Cross County Hwy Exits 32B,32C",I-71  Exit 12 / US-22 Montgomery Rd,Southbound,1,0.129,1.39,1.26,39.22158981138057,-84.36822008,39.204064403595446,-84.37287237,No
223,88,bf40815b-f714-45f9-9110-0b4e4e8a279f,2023-11-29T14:45:39.000Z,2023-11-29T14:48:03.000Z,General Griffin Rd / CR-25 Morse Rd,CR-25 Morse Rd / CR-39 York Rd,Westbound,2,0,0.77,0.77,40.06345634,-82.58276921,40.06157733342867,-82.59615466,No
224,139,58724223-f045-4ee4-9311-9c05fbcd1a88,2023-11-29T22:58:12.000Z,2023-11-29T23:07:10.000Z,I-90 / I-90 / I-71,"I-71  Exits 245,246,247A / I-90 Exit 170B / I-490  Exit 1A",Southbound,9,0,0.616,0.62,41.48063,-81.69301,41.472507170111385,-81.69302518,No
225,67,a425cfb1-5e95-426c-8da8-ab6596a777f7,2023-11-29T06:09:47.000Z,2023-11-29T06:16:02.000Z,I-70,I-70,Eastbound,6,0.162,0.649,0.49,39.97903677649243,-83.1918455,39.97865509079423,-83.18366303,Yes
226,67,9951cff4-206f-4223-9595-b91f05363e56,2023-11-29T06:36:53.000Z,2023-11-29T06:42:47.000Z,I-70,I-70,Eastbound,6,0,0.318,0.32,39.97821884,-83.17441324,39.97793470374501,-83.16841803,Yes
