,BottleneckSummaryIndex,Id,StartDate,EndDate,FromIntersectionName,ToIntersectionName,Direction,MaxDurationMinutes,StartSegmentOffsetMiles,EndSegmentOffsetMiles,MaxLengthMiles,FromPointLat,FromPointLon,ToPointLat,ToPointLon,label
0,26,0ab22cac-2bc7-4321-95c2-75557852ef9a,2024-01-20T05:30:52.000Z,2024-01-20T06:26:01.000Z,I-77,I-77,Northbound,55,0.461,0.286,19.9,39.33251915067303,-81.46235801,39.598541055871145,-81.45958971,Yes
1,25,1ce9e71c-05d2-402a-86e2-338cdc5d86b1,2024-01-20T03:32:57.000Z,2024-01-20T04:29:06.000Z,OH-43 / US-22,US-22 Cadiz-Steubenville Rd,Westbound,56,0.026,0.604,17.16,40.39371980425792,-80.72203083,40.28783452656949,-80.99347727,Yes
2,168,456accc7-d075-432c-8f44-a388919df261,2024-01-20T06:57:38.000Z,2024-01-20T07:41:45.000Z,US-30,US-30 / Longview Ave,Eastbound,44,0.723,0.276,10.89,40.76256521263968,-82.72799132,40.77653000115402,-82.53178999,Yes
3,52,5eb91dfa-5994-41db-831c-941833c5feff,2024-01-20T22:49:08.000Z,2024-01-20T23:21:11.000Z,I-271 / I-480,"I-480  Exit 20A-B / I-77  Exits 155,156 / Rockside Rd",Westbound,32,0.367,0.958,7.02,41.40005,-81.50775,41.41159964892687,-81.61712201,Yes
4,21,61adb6c7-66f4-43b6-a407-b17c2316822a,2024-01-20T23:17:02.000Z,2024-01-20T23:37:13.000Z,I-271,I-271,Northbound,20,0.384,0.861,8,41.42995026824188,-81.50540976,41.52658,-81.44512,Yes
5,14,bc9c4c48-4266-4bb5-be43-e0028480d988,2024-01-20T06:42:01.000Z,2024-01-20T07:41:04.000Z,I-90  Exit 241 / OH-7,I-90,Eastbound,59,0,0.319,9.25,41.91802,-80.5636,41.94544548288531,-80.39462163,Yes
6,85,271da175-e328-4ff2-a386-0cccffa64207,2024-01-20T23:25:07.000Z,2024-01-20T23:36:12.000Z,I-271,I-480  Exit 21 / Transportation Blvd / Antenucci Blvd,Westbound,11,0.525,0.267,7.22,41.38472,-81.51214,41.41454651465538,-81.60011772,Yes
7,153,b055a23f-bf8e-4c98-a7aa-7e30b3e0d385,2024-01-20T04:22:08.000Z,2024-01-20T04:47:09.000Z,OH-16 / Obannon Ave,OH-16,Westbound,25,0.828,0.062,5.71,40.06324,-82.36714,40.05378538,-82.46981687,Yes
8,211,c6f1c4f9-125b-4887-95db-a0f4f6965615,2024-01-20T08:07:58.000Z,2024-01-20T08:16:03.000Z,I-480  Exit 9 / Grayton Rd / OH-17 Brookpark Rd,"I-480  Exits 17,17A-B / OH-176 Jennings Fwy Exits 16A,16B / OH-17 Granger Rd",Eastbound,8,0.09,0.302,7.49,41.42124998308197,-81.84078995,41.42101510085434,-81.6987794,Yes
9,40,dbf9e21b-fbac-4a86-8bfa-3a296e3ec0c9,2024-01-20T08:21:44.000Z,2024-01-20T08:26:02.000Z,"I-275  Exits 74A,74B / I-471  Exits 1A,1B","I-471  Exit 6B / I-71  Exits 1A,2 / Columbia Pkwy",Northbound,4,0,0.028,5.31,39.04365,-84.45571,39.10204015639252,-84.49743034,Yes
10,36,2a11a300-e9e1-4bee-90a0-5944dd244ac2,2024-01-20T07:46:58.000Z,2024-01-20T08:13:02.000Z,OH-78 Main St / Apple Ave,OH-78 / Township Road 16,Westbound,26,0,0.668,12.77,39.76556,-80.87063,39.75051831658693,-81.05365982,Yes
11,174,1945596f-e740-41b2-a3c4-7b2aecee13b5,2024-01-20T23:06:58.000Z,2024-01-20T23:29:07.000Z,US-422,I-271  Exit 29 / US-422 Chagrin Blvd / OH-87 Chagrin Blvd,Westbound,22,1.093,0,4.94,41.40177200296204,-81.45981366,41.45775298328469,-81.49051,Yes
12,17,906eaa26-5797-4579-abf8-04914cff8989,2024-01-20T15:08:06.000Z,2024-01-20T15:41:58.000Z,CR-4 Smith Rd / Bachtell Rd,CR-4 Smith Rd / CR-63 Foster Rd / CR-27 River Corners Rd,Westbound,34,0.938,0.157,6.84,41.13589,-81.95844053,41.13652000214145,-82.09006044,Yes
13,115,e0c2e5ab-0377-4cdd-9d6b-9e9b5d2a977c,2024-01-20T07:18:41.000Z,2024-01-20T07:24:36.000Z,I-75,I-75,Southbound,6,0.739,1.008,8.65,40.76670951749277,-84.07503021,40.67005489986576,-84.13157997,Yes
14,161,a0baf554-9c5c-495f-84f1-fbf19116a058,2024-01-20T06:20:47.000Z,2024-01-20T06:55:53.000Z,US-35 / US-35 Dayton Eaton Pike / Preble County Line Rd,Sweet Potato Ridge Rd / Preble County Line Rd / Sonora Rd,Northbound,35,0.181,0,9.61,39.747445066779946,-84.48193748,39.88466780240125,-84.48481493,Yes
15,215,03707125-8a6c-4c4f-9754-120f30bddb21,2024-01-20T06:47:51.000Z,2024-01-20T06:51:51.000Z,US-35 / Perry St / Zeigler St,US-35 / OH-835 Woodman Dr / Woodman Dr,Eastbound,4,0.235,0.204,3.74,39.75014,-84.19695,39.74790999943657,-84.1291,Yes
16,21,ab30b831-1650-406a-9926-d49b38b9bae1,2024-01-20T23:21:58.000Z,2024-01-20T23:37:13.000Z,I-271,I-271,Northbound,15,0.384,0,4.44,41.42995026824188,-81.50540976,41.49087999,-81.4861,No
17,29,5477813b-6b8f-424c-a837-d91183a3dc2b,2024-01-20T07:39:02.000Z,2024-01-20T08:11:50.000Z,I-90,I-90  Exit 223 / OH-45 / OH-45 Center Rd,Eastbound,33,0.704,1.153,10.24,41.756536881800194,-81.0534628,41.78252487081357,-80.8624711,Yes
18,194,96129950-0d8c-4916-9907-d951007bf963,2024-01-20T07:26:04.000Z,2024-01-20T07:27:56.000Z,"OH-59  Exits 2,3A / Gorge Blvd / Glenwood Ave",OH-8  Exit 9 / Steels Corners Rd,Northbound,2,0.209,0.229,4.26,41.10798013857219,-81.49853992,41.16328014,-81.47180018,Yes
19,18,385a3637-4b89-4d66-88b1-ebd6ca05adf9,2024-01-20T11:39:32.000Z,2024-01-20T12:01:27.000Z,CR-33A Plank Pike / Auglaize St / Presar Rd,Plank Pike / Cook St,Westbound,22,0.622,0,7.49,40.5646,-84.21706,40.54818922688326,-84.35462933,Yes
20,150,116f72ec-91e9-4d89-864a-08ff360c2916,2024-01-20T10:34:02.000Z,2024-01-20T11:14:04.000Z,CR-18 Tallmadge Rd / CR-18 Akron Youngstown Rd / Industry Rd,CR-18 Mahoning Ave / CR-18 Tallmadge Rd / Mahoning Rd,Eastbound,40,0.983,1.043,9.71,41.09823000114489,-81.19372998,41.09870902039266,-81.00948741,Yes
21,200,757fa4d7-5d42-4f48-8e48-df7d1753a8a1,2024-01-20T13:36:45.000Z,2024-01-20T13:44:39.000Z,CR-22 / OH-314,OH-97 / OH-314,Northbound,8,1.124,0,8.85,40.56900424,-82.66192315,40.69681335,-82.66523016,Yes
22,38,6cd5b178-40c1-4328-9626-de9dc60c5952,2024-01-20T09:41:55.000Z,2024-01-20T10:01:54.000Z,OH-11,OH-11,Southbound,20,1.042,1.082,10.27,41.59053366,-80.71355978,41.44208823779206,-80.71319994,Yes
23,14,113eb06e-f98d-4b2b-b591-2d2d60cf5173,2024-01-20T12:11:08.000Z,2024-01-20T12:21:56.000Z,I-90  Exit 235 / OH-193 / OH-84,I-90,Eastbound,11,0.412,0.278,8.09,41.88128626052655,-80.66503876,41.93438019599892,-80.52476961,Yes
24,118,fe27be15-6af2-406c-8811-206e3603e9ae,2024-01-20T11:23:55.000Z,2024-01-20T11:46:51.000Z,OH-4 / CR-129 Wolford Maskill Rd,OH-47 / CR-129 Claibourne Rd,Northbound,23,0,1.361,9.21,40.28291,-83.35015,40.41175223865768,-83.35623075,Yes
25,217,a62a0e21-4ba2-487e-8058-16431ae79115,2024-01-20T10:37:39.000Z,2024-01-20T10:51:58.000Z,OH-13 / Base Line Rd / CR-14 Base Line Rd,OH-13 Main St / Chesrown Rd,Southbound,14,0.637,0.164,8,40.98032507810054,-82.49059507,40.86737841621724,-82.51342,Yes
26,117,02a4477d-d09e-41c6-afdd-d508f3a5daf0,2024-01-20T10:12:43.000Z,2024-01-20T11:17:46.000Z,CR-33A Plank Pike / Auglaize St / Presar Rd,OH-29 / Plank Pike,Westbound,65,0.622,0.522,8.01,40.5646,-84.21706,40.54664646789236,-84.36604523,Yes
27,170,7ce3aaf0-e152-45aa-9ef5-a94eb6ab9f0f,2024-01-20T05:13:38.000Z,2024-01-20T05:30:33.000Z,US-30 / Wapak Rd,US-30 / OH-696 Lincoln Hwy / Old Us-30,Eastbound,17,0.308,0.402,8.25,40.83427489371853,-84.16466476,40.82465547423992,-84.00848269,Yes
28,222,4be20279-0299-4602-8cb3-3395cfda4930,2024-01-20T11:49:04.000Z,2024-01-20T11:51:05.000Z,OH-11,US-30 / OH-39 8th St / OH-267 Lisbon St,Southbound,2,0.618,0.701,8.53,40.72495946635396,-80.70738342,40.65109971449745,-80.58880879,Yes
29,107,586e3ae6-985f-4757-8210-f6e460e559b5,2024-01-20T11:04:55.000Z,2024-01-20T12:01:04.000Z,CR-22 Marks Rd / Patriots Way / Yellowstone Dr,CR-22 Marks Rd,Northbound,56,1.034,0.26,5.84,41.15411,-81.87833,41.23800429029448,-81.87825,Yes
30,54,ae576f86-8825-4406-a896-c367594127d7,2024-01-20T11:34:45.000Z,2024-01-20T12:02:46.000Z,CR-105 Scottslawn Rd / CR-1 Industrial Pkwy,CR-1 Industrial Pkwy / Old Industrial Pkwy,Southbound,28,0.782,0,9.42,40.20652980156365,-83.31322925,40.11154929328474,-83.18657153,Yes
31,56,80ca165a-e52d-4fb0-8417-59d2cb79581a,2024-01-20T06:59:55.000Z,2024-01-20T07:26:56.000Z,I-90  Exit 3 / US-6N,I-90,Westbound,27,0.164,0.952,9.28,41.94331000793275,-80.46255988,41.89824308415795,-80.6263583,Yes
32,57,f19677dd-3292-49a0-95bf-78927e965483,2024-01-20T23:19:11.000Z,2024-01-20T23:29:07.000Z,I-271  Exit 32 / Cedar Rd / Brainard Rd,"I-271  Exits 27A-B,27B / I-480  Exit 13A / US-422  Exit 13B",Southbound,10,0.253,0.409,5.34,41.504215277777625,-81.47610024,41.43215,-81.50401,Yes
33,244,433114e6-55c1-4d63-9c01-ee67193cfd32,2024-01-20T06:32:51.000Z,2024-01-20T07:00:58.000Z,US-27 Ross Millville Rd,US-27 / US-27 Colerain Ave / Struble Rd,Southbound,28,1.02,1.006,8.85,39.37710863,-84.6559307,39.26715050836091,-84.60353651,Yes
34,3,e90a2fe7-03c1-42d9-a1da-e0e8079558eb,2024-01-20T06:05:58.000Z,2024-01-20T06:30:57.000Z,OH-11,OH-11,Northbound,25,0.931,0.672,6.37,41.62377026194887,-80.71326,41.71625195187622,-80.70739597,Yes
35,38,a237972e-f16b-4bc4-9ae9-718866a8a1c7,2024-01-20T11:19:05.000Z,2024-01-20T11:34:52.000Z,OH-11  Exit 34 / US-224 Main St / US-224 Boardman Canfield Rd,OH-11,Southbound,16,0.173,0.622,9.06,41.027455411717696,-80.73965044,40.90135373515224,-80.72279443,Yes
36,71,6e6b8346-98a8-48ea-8923-387df13dfeaa,2024-01-20T11:26:58.000Z,2024-01-20T11:32:57.000Z,I-77,I-77,Southbound,6,1.089,0.284,8.69,40.41082207,-81.54775109,40.29073968668528,-81.5570999,Yes
37,32,25626895-3f25-4af7-9888-4dcc0f4036f8,2024-01-20T10:04:55.000Z,2024-01-20T11:01:07.000Z,I-90,"I-90  Exit 228 / OH-11  Exits 94A,94B",Westbound,56,0.28,1.037,7.47,41.894779582382846,-80.63505105,41.82975477038308,-80.7482534,Yes
38,166,3d18eee6-f10c-4abb-90c7-da8f33c9b000,2024-01-20T23:46:06.000Z,2024-01-20T23:57:03.000Z,"I-271  Exits 27A-B,27B / I-480  Exit 13A / US-422  Exit 13B",I-480  Exit 21 / Transportation Blvd / Antenucci Blvd,Westbound,11,0.176,0.267,4.75,41.42747252347652,-81.51325081,41.41454651465538,-81.60011772,Yes
39,38,d941ea19-2837-4062-a83d-573758ad9ac9,2024-01-20T09:26:57.000Z,2024-01-20T09:51:54.000Z,OH-11,OH-11,Southbound,25,0.15,0.133,8.73,41.72959174102183,-80.70757478,41.60369801939579,-80.71355003,Yes
40,142,d50623b8-77fa-44c2-bb01-2b28479ca90f,2024-01-20T05:11:42.000Z,2024-01-20T05:18:41.000Z,I-80,I-80  Exit 39 / OH-109,Eastbound,7,0.773,0,7.42,41.59074509,-84.19694279,41.59143097810796,-84.0550162,Yes
41,126,69b332bb-e53e-423e-a390-bff1305c4a73,2024-01-20T08:04:01.000Z,2024-01-20T08:09:57.000Z,I-80  Exit 151 / I-480  Exit 1 / OH-10,I-480  Exit 9 / Grayton Rd / OH-17 Brookpark Rd,Eastbound,6,0,0.097,6.43,41.38481,-81.98251,41.423806039663496,-81.87189343,Yes
42,31,c4346eb2-32ea-4021-a0e6-a48a65733afd,2024-01-20T12:09:04.000Z,2024-01-20T12:36:04.000Z,US-62 Western Reserve Rd / US-62 Youngstown Salem Rd / CR-32 Western Reserve Rd,CR-32 Western Reserve Rd / Cook Rd,Westbound,27,0.125,0.464,6,40.98823,-80.79956,40.98768106878048,-80.91319875,Yes
43,123,25459580-f502-4fab-acc8-b8b87aefefc0,2024-01-20T12:26:35.000Z,2024-01-20T12:37:32.000Z,OH-66 / Shipman Rd,OH-66 / Deep Cut Rd,Northbound,11,1.085,0.938,8.6,40.56546005,-84.36910544,40.68193085747647,-84.36414023,Yes
44,49,f312ba96-ed68-40f6-8454-86b47126c06e,2024-01-20T21:02:29.000Z,2024-01-20T21:19:44.000Z,OH-598 / Windfall Rd,OH-598 / OH-96,Northbound,17,0.124,0,6.41,40.77208185778454,-82.7922747,40.86218648926644,-82.77655134,Yes
45,116,d61af87f-b3ad-45d9-9356-ca73f2ca593f,2024-01-20T12:46:07.000Z,2024-01-20T12:53:04.000Z,OH-93 / Township Rd 456,Plainfield Rd / Peabody Ln,Eastbound,7,0.504,0.32,5.12,40.21337697725183,-81.72571349,40.18115998888492,-81.66106998,Yes
46,94,aeca4841-5ca8-4ed0-903c-83358d9ca562,2024-01-20T06:42:35.000Z,2024-01-20T06:55:37.000Z,US-30,US-30,Eastbound,13,0.538,0.255,7.61,40.82615,-82.95882975,40.76264246643927,-82.84629497,Yes
47,62,30fc7fc2-18d2-4747-be27-a5b9316819eb,2024-01-20T22:56:09.000Z,2024-01-20T23:03:06.000Z,US-422  Exit 18 / OH-91 Som Center Rd,US-422,Eastbound,7,0.458,0.779,7.09,41.3949,-81.43317,41.38255724307571,-81.29931818,Yes
48,75,af666a39-d007-49b8-b962-98e0fc6131d0,2024-01-20T19:29:10.000Z,2024-01-20T19:52:03.000Z,US-422 / OH-306 Chillicothe Rd,US-422,Westbound,23,0,0.113,6.9,41.38828,-81.3433,41.40747055467321,-81.46817057,Yes
49,124,43d6c397-58ac-4115-bbd1-f3ab21f8ecb0,2024-01-20T05:59:58.000Z,2024-01-20T06:14:54.000Z,OH-294 / OH-231 / Th 148,OH-182 Morrison St / OH-231 / OH-182,Northbound,15,0.574,0.245,6.3,40.73535,-83.13079,40.82620005089573,-83.13144,Yes
50,71,79a129ac-03e5-4d14-ba07-cd3ed3e9e5b6,2024-01-20T06:21:00.000Z,2024-01-20T06:42:56.000Z,I-77,I-77,Southbound,22,1.065,0.144,8.17,39.53237137,-81.44484742,39.42212814908223,-81.42658816,Yes
51,178,ac2e6a6c-2fa1-4bd5-8cef-3d4d38e7ce9f,2024-01-20T12:26:42.000Z,2024-01-20T12:47:47.000Z,OH-674 / East Ringold-Fairfield Rd,OH-674 Canal Winchester Rd / CR-27 Elder Ln / CR-226 Elder Rd,Northbound,21,0.625,0.99,9.19,39.66681112825036,-82.83614986,39.79918134245134,-82.82385878,Yes
52,171,ea50c9f5-aef1-4386-942f-92097a9e6527,2024-01-20T05:39:16.000Z,2024-01-20T05:55:54.000Z,OH-7 / Wells St,OH-7 / Penn St / Dan Dee Ln,Southbound,17,0.841,0,4.31,40.35450923044049,-80.61694176,40.2982,-80.6198,Yes
53,219,7c2cede9-ea7a-4944-b847-8ea301d85c3e,2024-01-20T05:25:59.000Z,2024-01-20T05:49:57.000Z,OH-126 Ronald Reagan Cross County Hwy,Blue Rock Rd / Ronald Reagan Cross County Hwy / Sheed Rd,Westbound,24,0.98,0.99,7.11,39.21105001552653,-84.48653002,39.22748270304766,-84.61123406,Yes
54,8,ffba6ac5-9719-4aeb-9d5b-28fb12628a4d,2024-01-20T12:46:47.000Z,2024-01-20T13:00:53.000Z,OH-188,OH-188 / Rockmill Rd,Eastbound,14,0.71,0.512,8.14,39.65683021698958,-82.87291967,39.70907880276242,-82.74250948,Yes
55,179,230307d4-b7d4-43bf-9e0e-287ea9b58fa0,2024-01-20T15:44:44.000Z,2024-01-20T16:16:35.000Z,US-35 / US-35 Dayton Eaton Pike / Preble County Line Rd,US-40 / US-40 National Rd / Preble County Line Rd,Northbound,32,0,0.145,7.81,39.74482,-84.4819,39.85782752473172,-84.48416002,Yes
56,179,ce1a6582-1983-4137-b484-71898cf705f3,2024-01-20T20:06:49.000Z,2024-01-20T20:36:49.000Z,US-35 / US-35 Dayton Eaton Pike / Preble County Line Rd,US-40 / US-40 National Rd / Preble County Line Rd,Northbound,30,0,0.289,7.95,39.74482,-84.4819,39.85992112522486,-84.48421003,Yes
57,242,96dae207-b857-4a05-9fa7-17ebe600e4ae,2024-01-20T10:41:02.000Z,2024-01-20T11:06:08.000Z,Apple Creek Rd / Northeast St,CR-44 Apple Creek Rd / State St,Southbound,25,0.734,0.228,7.01,40.86088122159227,-81.84258298,40.7588199,-81.84375,Yes
58,14,3e20966a-52dc-48ff-8c5c-0fd5122fc15a,2024-01-20T05:37:12.000Z,2024-01-20T05:59:59.000Z,I-90,I-90,Eastbound,23,0.163,0.305,4.96,41.92530014763793,-80.5432397,41.94309000664898,-80.45372472,Yes
59,243,15cbc8af-720a-4c56-98a8-5dc6e20578fd,2024-01-20T15:21:43.000Z,2024-01-20T15:41:56.000Z,US-127 / CR-31 Wikel Rd / CR-31 Georgetown-Verona Rd,CR-10 Gettysburg Darke Rd / CR-31 B Rd,Westbound,20,0.643,0,6.07,39.89466999945743,-84.62695003,39.90178,-84.73934996,Yes
60,246,daaf2f75-ab49-4045-aaa2-7a5dd4c3208c,2024-01-20T09:32:52.000Z,2024-01-20T09:49:54.000Z,OH-800 Freeport-Tippecanoe Rd,OH-800 / CR-36 Feed Springs Rd / CR-36 Moravian Trail Rd,Northbound,17,0.707,0.629,8.86,40.25715057603914,-81.26240646,40.35196163330061,-81.30236902,Yes
61,28,aa01ed04-35df-4fb8-8fac-24c76c35d2cc,2024-01-20T09:26:57.000Z,2024-01-20T09:49:05.000Z,CR-30A Lincoln Way,CR-30A Lincoln Way,Eastbound,22,1.005,0,5.89,40.79576,-81.8999,40.79511468,-81.78911918,Yes
62,79,e6765408-b963-48f8-993a-cbcb696165a9,2024-01-20T11:22:42.000Z,2024-01-20T11:41:03.000Z,CR-203 Curtis Rd / CR-183 Hoskins Rd,CR-126 Gooding Rd / Cobblestone Creek Rd,Northbound,18,0.25,0,7.09,40.42324015,-83.16215998,40.52279464,-83.15089232,Yes
63,235,445adb3e-83d2-47ae-9703-2fde8522c9dc,2024-01-20T17:03:39.000Z,2024-01-20T17:27:42.000Z,CR-56 Lexington-Salem Rd / Preble County Line Rd,Wysong Rd / Lexington Rd,Westbound,24,0.021,0.824,6.06,39.79493,-84.48285,39.75869875602192,-84.57395276,Yes
64,45,9e55920c-3f9e-4d2f-88a4-aec5970b1965,2024-01-20T08:36:47.000Z,2024-01-20T09:01:47.000Z,OH-4 Marion-Marysville Rd / Hoch Rd,OH-4 / Davis Kirk Rd,Southbound,25,0.617,0.72,6.75,40.51633659468917,-83.1693718,40.43438373123666,-83.2355701,Yes
65,32,ef889854-f5f8-42fd-a5d4-ede7415f0a39,2024-01-20T07:01:58.000Z,2024-01-20T07:22:57.000Z,I-90,"I-90  Exit 228 / OH-11  Exits 94A,94B",Westbound,21,0.653,1.411,7.47,41.892633193707134,-80.64041626,41.82859793068652,-80.75471426,Yes
66,47,df109b2a-65a5-4c84-a60d-11589f09af42,2024-01-20T12:04:07.000Z,2024-01-20T12:25:02.000Z,I-80  Exit 218 / I-76  Exit 218 / CR-18 Mahoning Ave,I-76,Westbound,21,0,0.567,7.09,41.1109,-80.82864,41.10325056837671,-80.96317139,Yes
67,223,dbb6e80b-e407-487c-80ae-583590e5d9ca,2024-01-20T06:30:57.000Z,2024-01-20T07:02:52.000Z,OH-167 / Clay Rd / CR-29 Brown Rd,OH-167 / CR-342 Middle Rd,Eastbound,32,0.889,0.755,8.03,41.75153947923896,-80.67360064,41.765170001014674,-80.53518988,Yes
68,237,4e6dcdc3-294e-4d85-a296-9fdeb80a3740,2024-01-20T09:36:03.000Z,2024-01-20T09:52:58.000Z,I-76,I-80  Exit 218 / I-76  Exit 218 / CR-18 Mahoning Ave,Eastbound,17,0.982,0.508,7.06,41.10194455255312,-80.96705328,41.110292877689695,-80.83212777,Yes
69,53,25bc45c7-40b7-4dd3-81ab-14e29aeb007b,2024-01-20T16:29:32.000Z,2024-01-20T16:57:01.000Z,US-23 Fostoria Rd,OH-795 Fostoria Rd / CR-2 Fostoria Rd / OH-795 South St,Northbound,27,0.437,0,6.07,41.47067005027779,-83.41504,41.55752179619691,-83.4152,Yes
70,80,4ffb6cb4-05c5-4ed2-ae2d-59027d9f5dc5,2024-01-20T17:21:10.000Z,2024-01-20T17:23:06.000Z,CR-22 Marks Rd / Markwood Ct,CR-22 Marks Rd / Patriots Way / Yellowstone Dr,Southbound,2,0.594,0,4.66,41.22212207853364,-81.87833,41.154004833847885,-81.87833,Yes
71,71,a32ebc01-7f50-4676-be85-8b94008c095c,2024-01-20T06:05:58.000Z,2024-01-20T06:32:12.000Z,I-77,I-77,Southbound,26,0,0.438,8.2,39.65588498,-81.4671975,39.54056904120623,-81.44940876,Yes
72,208,d194020a-4454-4ae9-8a87-fdf1d924e09d,2024-01-20T06:36:01.000Z,2024-01-20T06:54:49.000Z,US-23,US-23 / US-35,Northbound,19,1.25,0.617,6.88,39.23777001882692,-82.98402,39.32570574030253,-82.94372169,Yes
73,240,419a2e1a-2712-449e-bbb3-4fb41764c563,2024-01-20T05:27:33.000Z,2024-01-20T05:36:39.000Z,US-30,US-30 / Township Road 52,Eastbound,9,0.227,0.876,7.76,40.82475720683311,-83.99129518,40.82736919517048,-83.84534135,Yes
74,77,a01d3799-8cbf-4318-8052-631f094086d1,2024-01-21T01:00:35.000Z,2024-01-21T01:15:33.000Z,OH-101 / CR-34,OH-101 / Township Road 130,Westbound,15,0.164,1.027,7.69,41.23503991861968,-83.01257564,41.15592870183059,-83.11426339,Yes
75,167,e7b1d8b0-0b90-465c-867c-a4865909d62c,2024-01-20T04:44:10.000Z,2024-01-20T05:03:50.000Z,OH-16  Exit 29 / Thornwood Xing,OH-16 / OH-79 / OH-79 Cedar St,Eastbound,20,0.299,0.12,4.02,40.05345,-82.47328,40.06151614676994,-82.40172486,Yes
76,122,1e71ccad-bfc4-4a08-a002-316054d4f2e4,2024-01-20T10:35:59.000Z,2024-01-20T10:42:49.000Z,I-75,I-75  Exit 104 / OH-219 Botkins Rd / CR-22 Botkins Rd,Northbound,7,1.114,0.464,6.96,40.37140592,-84.16036522,40.47086163590585,-84.16915,Yes
77,202,f151d0bc-7bd3-40de-ab7b-f2dcca45e055,2024-01-20T09:04:43.000Z,2024-01-20T09:31:00.000Z,OH-235 / Mill St,OH-235 Mcconnell St / CR-92 Belmont St,Northbound,26,0.318,0.638,8.66,40.57952978833747,-83.83964936,40.700812964263726,-83.85085139,Yes
78,38,847d5e1f-9433-4fb7-8088-ba46547bd776,2024-01-20T23:05:04.000Z,2024-01-20T23:09:56.000Z,OH-11,OH-11,Southbound,5,0.913,0.315,6.4,41.78132453620116,-80.7324895,41.69327976405486,-80.71353002,Yes
79,169,01360639-c74c-4cf1-bb23-7d6237926e5b,2024-01-20T11:12:38.000Z,2024-01-20T11:21:03.000Z,OH-117 / County Road 96,OH-117 / OH-67 / Township Road 170,Northbound,8,0.16,0.541,6.27,40.497018213216165,-83.81626271,40.57908450763506,-83.85321902,Yes
80,34,936be79a-9e6a-439d-ac69-3ef13ff0384b,2024-01-20T23:57:03.000Z,2024-01-21T00:16:59.000Z,I-480,I-480  Exit 23 / Fair Oaks Rd,Westbound,20,0.174,0.028,6.26,41.29728708687987,-81.42714311,41.35746131,-81.51340043,Yes
81,26,5e0f9389-8433-45a1-813b-39edc3527595,2024-01-20T04:26:03.000Z,2024-01-20T04:50:56.000Z,I-77,I-77,Northbound,25,1.096,0.803,7.68,39.47088262,-81.43658845,39.57547143615901,-81.45395034,Yes
82,160,59d2ecb0-c30f-4a19-8452-8b0f53e3b754,2024-01-20T11:41:03.000Z,2024-01-20T12:02:46.000Z,CR-107 Springdale Rd / CR-135 Dover-Co Line Rd,CR-113 White Stone Rd / OH-347,Northbound,22,0.311,1.012,6.92,40.24731055840079,-83.28994079,40.34398030751567,-83.29776,Yes
83,156,0ecde551-4ef4-4df8-8685-0a8fc894728e,2024-01-20T17:21:10.000Z,2024-01-20T17:34:02.000Z,CR-8 Wilson Mills Rd / Stephens Way,County Line Rd / CR-8 Wilson Mills Rd / Brigham Rd,Westbound,13,0.436,0.254,7.19,41.55411,-81.25462011,41.54292275356003,-81.38783744,Yes
84,181,e4750739-3219-47f9-987f-1bba1e54dc0f,2024-01-20T06:17:55.000Z,2024-01-20T06:32:54.000Z,I-90,I-90  Exit 6 / PA-215,Eastbound,15,0.904,0.28,5.43,41.93943004515732,-80.51464991,41.94442000151878,-80.41036998,Yes
85,101,245b3020-44e3-450a-890e-cbf73634b2ff,2024-01-20T06:51:51.000Z,2024-01-20T06:57:48.000Z,US-23,US-23,Northbound,6,0.074,1.028,8.35,39.36173739874173,-82.96609499,39.48174,-82.97115,Yes
86,201,395111f5-394f-479a-977c-e72c53f97d96,2024-01-20T09:07:58.000Z,2024-01-20T09:36:52.000Z,OH-800 / Water Works Rd,OH-800 Somerton Hwy / OH-800 Washington St / CR-102 Johnson Ridge Rd,Northbound,29,0.365,0,7.98,39.79545003028643,-81.12504003,39.89405,-81.13847,Yes
87,188,7bde918e-486f-4481-9396-df765a120e5b,2024-01-20T05:29:57.000Z,2024-01-20T05:42:54.000Z,US-22 Cadiz-Piedmont Rd / Kanoski Rd,US-22 Cadiz-Steubenville Rd / North Main St,Eastbound,13,0.627,0.533,5.24,40.24648111401122,-81.06433081,40.28901739920939,-80.98979234,Yes
88,143,9ce64d28-cf9f-46d0-8eeb-734a515b358c,2024-01-20T10:28:54.000Z,2024-01-20T10:51:58.000Z,OH-29 / Plank Pike,CR-33A Plank Pike / Auglaize St / Presar Rd,Eastbound,23,0,1.023,8.13,40.5463,-84.3688,40.56455098195002,-84.21743254,Yes
89,108,07f6a957-2d0a-4e5c-b54b-44a867f01b44,2024-01-20T05:08:51.000Z,2024-01-20T05:16:42.000Z,US-30 / Lincoln Hwy,US-30 / Watkins Rd,Eastbound,8,0.531,0.462,6.61,40.84391,-84.30448,40.83493322721386,-84.1830559,Yes
90,230,20cf2352-f618-4f65-b587-91bff2e32b39,2024-01-20T11:21:31.000Z,2024-01-20T11:36:38.000Z,Plank Pike / Oakwood Dr,Plank Pike / Kohler Rd,Eastbound,15,0.897,1.125,6.21,40.54826797783159,-84.35401481,40.56313,-84.23612652,Yes
91,74,16c356fa-d2dd-4403-bf9f-42c93a9e18ab,2024-01-20T09:43:40.000Z,2024-01-20T09:55:32.000Z,US-6 / County Road 24,CR-55 Jewell Rd / CR-175 Domersville Rd,Southbound,12,0.167,0.494,7.68,41.43994923723807,-84.32495995,41.33021171058702,-84.32346409,Yes
92,213,d12905ef-2ca5-41cf-a4a4-73b0438314a0,2024-01-20T10:11:56.000Z,2024-01-20T10:31:56.000Z,OH-11,I-80  Exit 226 / CR-64 Salt Springs Rd,Southbound,20,0,0.467,6.17,41.20514711,-80.70854235,41.14663866438462,-80.71094286,Yes
93,76,c07b2a93-2d4f-4ca0-8a6d-83cde4ac69c2,2024-01-21T01:16:37.000Z,2024-01-21T01:31:51.000Z,OH-31 Main St / OH-31 / OH-292,OH-31 Main St / OH-31,Southbound,15,0.529,0.545,7.54,40.62447187667271,-83.59414046,40.53096992811035,-83.51881856,Yes
94,164,161b7c3c-d486-442b-9bdf-467b850e33c7,2024-01-20T08:51:45.000Z,2024-01-20T09:11:44.000Z,OH-4 / Davis Kirk Rd,OH-4 / OH-347,Southbound,20,1.013,0.609,6.67,40.42970636,-83.239638,40.34701986650288,-83.30472009,Yes
95,163,d7674336-653a-4ab4-b0eb-4bab7e475963,2024-01-20T10:34:58.000Z,2024-01-20T11:04:06.000Z,CR-4 Smith Rd / CR-134 Bryenton Rd,CR-4 Smith Rd,Eastbound,29,0.61,0.731,6.42,41.13609785053651,-82.02884926,41.13603215338386,-81.90459634,Yes
96,173,ec05827b-fb97-4f4a-88f5-5d80a6819daf,2024-01-20T13:52:48.000Z,2024-01-20T14:09:44.000Z,Woodville Pike / Grist Mill Ct,Woodville Pike / Shiloh Rd,Eastbound,17,0.272,0.466,6.24,39.20181998829916,-84.21701973,39.22577999827621,-84.10569002,Yes
97,92,2e55e54f-8f3e-4336-b174-74500c743ad0,2024-01-20T15:48:04.000Z,2024-01-20T16:08:03.000Z,CR-4 Smith Rd / OH-301 / OH-301 Spencer Rd,CR-4 Smith Rd / CR-31 Vandemark Rd,Eastbound,20,0.758,0.587,6.04,41.13674,-82.12281,41.13598537293532,-82.00891708,Yes
98,221,8be8cf66-af1d-431b-8bb2-7a1d5788ed86,2024-01-20T05:50:53.000Z,2024-01-20T05:52:53.000Z,OH-93 Manchester Rd / OH-236,OH-93 Manchester Rd / Overton Dr,Northbound,2,0,0.244,4.84,40.91574,-81.56152,40.98407010529348,-81.56032997,Yes
99,239,1648d9f2-8138-4600-bca8-b26260b5ed62,2024-01-20T07:28:37.000Z,2024-01-20T07:38:37.000Z,US-30 / US-42 Ashland Rd / Beal Rd,I-71  Exit 176 / US-30 / CR-92 Crider Rd,Eastbound,10,0.206,0.216,2.73,40.77846,-82.46617,40.7812795,-82.41563767,Yes
100,144,a69bdf1e-40bf-4a93-bd8d-fceefd60e13d,2024-01-20T20:04:47.000Z,2024-01-20T20:16:53.000Z,US-127 / CR-31 Wikel Rd / CR-31 Georgetown-Verona Rd,CR-31 B Rd / Via Rd,Westbound,12,0.802,0.551,4.65,39.89463958629639,-84.62950352,39.90192371,-84.71350911,Yes
101,95,a1a1611b-b002-43a0-b82b-4777aab14ce2,2024-01-20T22:32:04.000Z,2024-01-20T22:39:08.000Z,I-480,I-271 / I-480,Westbound,7,0.155,0.873,6.01,41.32396767791563,-81.47144473,41.39519925655185,-81.50926562,Yes
102,138,7b122f69-fc06-478c-945e-15ec0c8182f1,2024-01-20T05:10:37.000Z,2024-01-20T05:15:57.000Z,US-22  Exit 1 / WV-2,US-22 / Lovers Ln,Westbound,5,0.144,0.341,3.29,40.37862898,-80.6092857,40.385270084076495,-80.66216087,Yes
103,148,811af40a-f973-485f-97c6-7e9b3114af3f,2024-01-20T18:38:03.000Z,2024-01-20T18:49:10.000Z,US-422,OH-44 Ravenna Rd / US-422,Eastbound,11,0.317,0,6.59,41.38867049542935,-81.34837436,41.38394610138553,-81.22376988,Yes
104,102,c0dfd7f8-7f50-46e5-bdb3-c1532cc25d9f,2024-01-20T07:02:52.000Z,2024-01-20T07:20:58.000Z,OH-7 / Mcguire And Jeffers Rd,OH-7 Powhatan Wshadyside Rd / Little Captina Rd,Southbound,18,0.524,0.966,6.23,39.92391690652192,-80.75899579,39.878606186282425,-80.79580014,Yes
105,226,7f447d05-97cb-4bd9-b074-fc6b91d3ce56,2024-01-20T11:01:07.000Z,2024-01-20T11:31:05.000Z,CR-18 Mahoning Ave / CR-18 Tallmadge Rd / Mahoning Rd,OH-14 / CR-18 Tallmadge Rd,Westbound,30,0.368,0.566,7.6,41.09867001,-81.00237007,41.09967,-81.14778485,Yes
106,146,7aff78b1-c459-4a9f-91ff-a778a6ce0bf1,2024-01-20T08:51:03.000Z,2024-01-20T09:16:54.000Z,OH-4,"OH-4  Exits 91,92 / US-33  Exit 92 / OH-31",Southbound,26,0.065,0.066,6.66,40.34085451781581,-83.30914785,40.25536983501836,-83.3670871,Yes
107,101,12a9ddf9-18b3-440a-a7b8-6ba14dac785e,2024-01-20T07:31:01.000Z,2024-01-20T07:43:56.000Z,US-23,US-23,Northbound,13,0.121,0,6.05,39.55847365928382,-82.95821863,39.642367206185824,-82.95665137,Yes
108,247,a5f9f0f9-b197-41ae-8b7a-7c4af52ed0b3,2024-01-20T11:51:05.000Z,2024-01-20T11:54:58.000Z,OH-11 / US-30 / CR-425 Liverpool Rd,US-30 / OH-39 8th St / OH-267 Lisbon St,Eastbound,4,0,0.701,6.97,40.70848,-80.68727,40.65109971449745,-80.58880879,Yes
109,28,c22dcb43-57b6-410d-bc0d-0bd7a3a8b35f,2024-01-20T10:09:03.000Z,2024-01-20T10:36:05.000Z,CR-30A Lincoln Way / Sunset Trail Court Mobile Home Park,CR-30A Lincoln Way,Eastbound,27,0.636,0.445,6.18,40.795620001787725,-81.90695973,40.794990045158144,-81.78956984,Yes
110,65,c9790fbf-8fd9-4f18-9085-72c14802a91a,2024-01-20T10:57:55.000Z,2024-01-20T11:33:59.000Z,CR-4 Smith Rd / CR-31 Vandemark Rd,CR-4 Smith Rd / OH-301 / OH-301 Spencer Rd,Westbound,36,0.12,0,6.18,41.13596,-82.00402,41.136722097316685,-82.12135093,Yes
111,35,e10ce868-3bd2-422f-8f94-8e9d487f1c65,2024-01-20T06:31:54.000Z,2024-01-20T06:50:53.000Z,US-50 / US-35 / Schrader Rd,US-35,Eastbound,19,0,0.162,7.44,39.30457,-82.91864,39.226025735131664,-82.83087397,Yes
112,33,3b32921c-77b7-4ab5-8242-2acbae174217,2024-01-20T23:31:09.000Z,2024-01-20T23:33:02.000Z,I-271,I-271  Exit 21 / I-480  Exit 22,Southbound,2,1.203,1.121,5.26,41.43775996,-81.49785003,41.36539702817543,-81.51647986,Yes
113,26,0337d6b2-0bed-4548-b065-de8bdf8a667f,2024-01-20T04:10:59.000Z,2024-01-20T04:35:59.000Z,I-77  Exit 185 / WV-14 Highland Ave / CR-3/2 Access Rd,I-77,Northbound,25,0.038,0.609,5.47,39.39323004791156,-81.43911999,39.46246794615213,-81.43725692,Yes
114,38,c82aec36-c056-4812-ad78-ff82c7390311,2024-01-20T09:11:55.000Z,2024-01-20T09:36:52.000Z,OH-11,OH-11,Southbound,25,0.657,0.587,5.99,41.81380978340972,-80.761957,41.73990471702082,-80.7082553,Yes
115,62,1b66a797-167d-42b5-b9de-eaafda32133b,2024-01-20T23:06:58.000Z,2024-01-20T23:21:11.000Z,US-422,US-422,Eastbound,14,0.383,0.312,6.27,41.38965981147055,-81.407663,41.38112600301999,-81.28789317,Yes
116,63,ca586451-e30d-4e28-a227-c0bb51211a49,2024-01-20T11:41:54.000Z,2024-01-20T11:47:56.000Z,I-77,I-77  Exit 54 / OH-541 / OH-541 Plainfield Rd,Southbound,6,0.609,0,7.06,40.26593050853675,-81.54452598,40.16945554,-81.54825339,Yes
117,64,531746f1-3a99-4d3f-8329-ec0666dc743f,2024-01-20T06:05:56.000Z,2024-01-20T06:06:58.000Z,US-23,US-23,Northbound,1,0.814,0.83,5.32,40.55810898759829,-83.07416908,40.63189487492157,-83.09722977,Yes
118,14,c3eaa5e5-f790-47d8-884b-897b4f1c0380,2024-01-20T07:27:56.000Z,2024-01-20T07:49:00.000Z,I-90  Exit 205 / CR-227 Vrooman Rd / Vrooman Rd,I-90,Eastbound,21,0.067,0.305,5.93,41.70667036628428,-81.17867939,41.745946289174725,-81.08011075,Yes
119,38,c88b772f-518a-4670-9371-0eaebb6fdbc6,2024-01-20T16:36:58.000Z,2024-01-20T16:44:09.000Z,OH-11,OH-11,Southbound,7,1.033,0.391,6.87,41.55951001,-80.713525,41.46026368838489,-80.71302066,Yes
120,67,3988379e-c33b-439a-bef3-5e500ee57d4f,2024-01-20T17:39:53.000Z,2024-01-20T18:01:47.000Z,CR-10 Gettysburg Darke Rd / Lee Rd / CR-31 New Paris-Eldorado Rd,CR-31 Wikel Rd / CR-9 Monroe Central Rd,Eastbound,22,0.157,0.424,5,39.89612408351024,-84.73941768,39.90013726472393,-84.65269111,Yes
121,14,480f2bd6-f431-461c-836d-4730d3fe6baf,2024-01-20T09:49:54.000Z,2024-01-20T10:57:55.000Z,I-90,I-90,Eastbound,68,0.492,0.629,6.27,41.84675521,-80.70955899,41.90228207558751,-80.61541853,Yes
122,66,f4b91c10-5548-491a-9995-5a9ad5f35535,2024-01-20T11:19:03.000Z,2024-01-20T11:44:37.000Z,OH-93 / Private Drive 80210,OH-93 / Township Road 294,Southbound,26,1.066,0.876,6.4,38.71797,-82.63159,38.64564428164782,-82.67132696,Yes
123,11,5ce6998f-7f5b-4582-a6c1-3abfcaf1778d,2024-01-21T03:28:52.000Z,2024-01-21T03:53:42.000Z,CR-113 White Stone Rd / OH-347,US-36 / US-36 Dover-Co Line Rd / CR-113 White Stone Rd,Southbound,25,0.025,1.067,6.41,40.34377635306499,-83.2977915,40.25354933,-83.29307399,Yes
124,151,a8fe6945-d252-4569-8cd6-ecdb2ff27b0f,2024-01-20T23:45:02.000Z,2024-01-20T23:52:55.000Z,I-271 / I-480,I-480,Southbound,8,0.515,1.063,5.59,41.39389773848691,-81.51048899,41.32593567206793,-81.47426549,Yes
125,150,8d2a9371-8799-42a4-9347-91e8583d43d2,2024-01-20T14:24:59.000Z,2024-01-20T14:48:03.000Z,CR-18 Tallmadge Rd / Porter Rd,CR-18 Mahoning Ave / CR-18 Tallmadge Rd / Mahoning Rd,Eastbound,23,0.313,0.25,6.23,41.099367554024674,-81.12353796,41.09868937922508,-81.00251534,Yes
126,51,4f7eb05b-44c7-4e8d-853b-dd415c83eadb,2024-01-20T16:36:46.000Z,2024-01-20T16:48:42.000Z,CR-21 Camden West Elkton Rd / CR-37 Camden West Elkton Rd / CR-37 Free Short Pike,Camden West Elkton Rd / CR-21 Camden West Elkton Rd / CR-25 Northern Rd,Eastbound,12,0.076,0,5.1,39.62826,-84.64415,39.58880810862747,-84.56772584,Yes
127,110,a44b085a-ae76-40be-873f-f4ab26e028b3,2024-01-20T10:58:52.000Z,2024-01-20T11:13:44.000Z,US-30 / OH-37,US-30 / US-68,Westbound,15,0.323,0,5.28,40.82481438986279,-83.55330767,40.82733,-83.65274804,Yes
128,149,1216d646-e902-4bd3-9aec-c9a1a0e95f27,2024-01-20T11:39:48.000Z,2024-01-20T12:03:51.000Z,OH-47 / CR-129 Claibourne Rd,CR-129 Wolford Maskill Rd / CR-209 Martin Welch Rd,Southbound,24,0.015,1.212,5.79,40.41175079563314,-83.35623027,40.32986,-83.35871,Yes
129,113,6d276b66-f65e-409a-8669-4bae49255ab7,2024-01-20T23:56:10.000Z,2024-01-20T23:57:56.000Z,I-480,I-271  Exit 21 / I-480  Exit 22,Southbound,2,0.084,0.041,4.71,41.42421980482501,-81.53172883,41.365679003783136,-81.51681996,Yes
130,149,9f4dd300-5e6d-46d3-8ff7-e4e8bb565290,2024-01-21T02:15:56.000Z,2024-01-21T02:36:46.000Z,OH-47 / CR-129 Claibourne Rd,CR-129 Wolford Maskill Rd / CR-209 Martin Welch Rd,Southbound,21,0.015,1.081,5.66,40.41175079563314,-83.35623027,40.332119624185005,-83.35814259,Yes
131,147,89551188-93d9-4a78-9fc1-607db2057970,2024-01-20T11:04:01.000Z,2024-01-20T11:26:42.000Z,OH-93 / CR-39,OH-93 / Private Drive 80210,Southbound,23,0.464,0.503,6.41,38.80450997186433,-82.60948001,38.72561935969959,-82.63359,Yes
132,121,6f53b37b-0af5-49f6-9b3f-b1019e411c38,2024-01-20T10:40:36.000Z,2024-01-20T10:59:44.000Z,OH-81 Ada Rd / Thayer Rd,OH-81 Ada Rd / OH-81 / CR-15 Hardin Rd,Eastbound,19,0.757,0.654,6.49,40.76372044954518,-84.00731206,40.77608412964033,-83.88640613,Yes
133,121,f44915cf-c442-437e-9b5b-cee0e2dbdda6,2024-01-20T07:36:47.000Z,2024-01-20T07:48:40.000Z,OH-81 Ada Rd / Thayer Rd,OH-81 Ada Rd / OH-81 / CR-15 Hardin Rd,Eastbound,12,0.757,0.491,6.33,40.76372044954518,-84.00731206,40.77606405,-83.88953141,Yes
134,39,56c37d4b-05d8-4bd1-9459-c2380c5b76a0,2024-01-20T05:37:53.000Z,2024-01-20T06:02:02.000Z,I-271,I-271,Southbound,24,0.532,0.748,4.64,41.31094672181565,-81.51434058,41.25745957358761,-81.56518106,Yes
135,39,1f670f34-0bb7-4f4c-b961-bcce3f14e32d,2024-01-20T05:52:53.000Z,2024-01-20T06:02:52.000Z,I-271,I-271,Southbound,10,0.172,0.682,5.21,41.25529371426637,-81.57390648,41.21743619020126,-81.65137482,Yes
136,41,d961abca-cda2-46f5-ab4b-1d8afc74eb56,2024-01-20T09:54:00.000Z,2024-01-20T10:23:59.000Z,US-250 Dover Rd / CR-501 Fredericksburg Rd,CR-501 Mill St / Apple St / Barney St,Southbound,30,0,0.922,6.15,40.76363,-81.8959,40.679146808772494,-81.87218735,Yes
137,136,1f051538-f614-4257-bf6c-6b3e75304163,2024-01-20T19:29:10.000Z,2024-01-20T19:31:06.000Z,US-422  Exit 18 / OH-91 Som Center Rd,"I-271  Exits 27A-B,27B / I-480  Exit 13A / US-422  Exit 13B",Westbound,2,0.189,0.571,3.66,41.39503999448215,-81.43637019,41.42595647,-81.48722295,No
138,38,a4dee701-1940-40bf-9de5-097424c5e89f,2024-01-20T08:16:03.000Z,2024-01-20T08:26:55.000Z,OH-11,OH-11,Southbound,11,0.358,0.451,5.83,41.80178012121284,-80.75074388,41.72669317745788,-80.70738787,Yes
139,132,e77d0a2f-a294-4f69-9e5b-a80bac903dd7,2024-01-20T11:33:38.000Z,2024-01-20T11:52:47.000Z,OH-93 / CR-10C,OH-93 / CR-7F,Southbound,19,0.308,0.64,6.85,38.64111998884497,-82.67897001,38.56012268364115,-82.63893931,Yes
140,47,429db1b3-191d-487b-84a4-965054552d0c,2024-01-20T10:31:56.000Z,2024-01-20T10:39:03.000Z,I-76  Exit 57 / CR-65 Bailey Rd,I-76,Westbound,7,0.089,1.138,6.33,41.10708991866676,-80.89447125,41.099970420410045,-81.01455123,Yes
141,125,7b53552c-c757-4f7e-be29-52a5d6fc4ae5,2024-01-20T10:07:49.000Z,2024-01-20T10:26:03.000Z,US-127,US-127 / Grubbs-Rex Rd,Southbound,18,0.228,0.15,6.26,40.05286445159541,-84.63013806,39.96175953306563,-84.63181001,Yes
142,133,01d33900-72ce-446b-bcf3-f24b31507927,2024-01-20T16:09:48.000Z,2024-01-20T16:25:46.000Z,CR-31 Wikel Rd / Trone Rd,CR-31 Georgetown-Verona Rd / OH-503,Eastbound,16,0.586,0.827,4.05,39.89461076109314,-84.63044514,39.90239276674927,-84.55646335,Yes
143,67,55177e79-ca3d-4ddd-b481-9e65a1dd82e0,2024-01-20T21:47:46.000Z,2024-01-20T22:00:58.000Z,CR-10 Gettysburg Darke Rd / CR-31 B Rd,CR-31 Wikel Rd / CR-9 Monroe Central Rd,Eastbound,13,0,0.424,4.53,39.90178,-84.73935,39.90071140864317,-84.6544303,Yes
144,158,592e8bed-5ff4-43d4-bb1c-e9510cbac829,2024-01-20T12:59:39.000Z,2024-01-20T13:03:42.000Z,OH-188,OH-188 / Reigle Rd,Eastbound,4,0.71,0.896,5.28,39.65683021698958,-82.87291967,39.697540880696174,-82.79114739,Yes
145,198,de23b42c-95d4-463f-80fe-a7a299ed670a,2024-01-20T14:56:49.000Z,2024-01-20T15:20:55.000Z,OH-41 / Barrett Rd,OH-41 / Wilson-Silcott Rd,Northbound,24,0.486,0.496,6.52,39.39838458257984,-83.39171134,39.48289686,-83.43547626,Yes
146,3,94c0f168-6e3c-47a1-893c-ef2edf6c40d2,2024-01-20T22:05:01.000Z,2024-01-20T22:11:59.000Z,OH-11,OH-11,Northbound,7,0.594,0.348,5.09,41.74641281308817,-80.70923427,41.80954764528398,-80.75877054,Yes
147,238,a2d852c9-d926-478a-9a59-ba553d35c744,2024-01-20T04:59:58.000Z,2024-01-20T05:18:41.000Z,OH-49 / OH-107 / County Road L,OH-107,Eastbound,19,0.334,1.098,7.22,41.58538002482017,-84.75945457,41.58635,-84.6198299,Yes
148,10,9117de2f-4e68-4df9-8225-95956558ef04,2024-01-20T10:31:56.000Z,2024-01-20T10:36:55.000Z,US-22 Cadiz Rd / Idlewild Ln / Hobbler Ln,US-22 Cadiz Rd / Wolfs Den Rd,Westbound,5,0.026,0,6.31,40.10803947290204,-81.39248578,40.06734974374382,-81.49619346,Yes
149,218,d23449d2-8438-48db-9748-f9bc07006c41,2024-01-20T23:45:02.000Z,2024-01-21T00:04:00.000Z,OH-168 Tavern Rd,OH-168 Tavern Rd / CR-34 Gingerich Rd,Northbound,19,0.377,0.778,6.53,41.37427538449778,-81.07027106,41.456381179382646,-81.13110295,Yes
150,14,bf48664a-4ae6-4a10-b0cd-afeb79f8c89e,2024-01-20T09:51:04.000Z,2024-01-20T09:54:57.000Z,I-90,I-90,Eastbound,4,0.852,0.047,2.99,41.93865115733042,-80.51621713,41.94306600777789,-80.45896957,Yes
151,212,25d9adf6-9873-4b45-b8e7-f5816c857894,2024-01-20T12:07:55.000Z,2024-01-20T12:26:42.000Z,US-36 / OH-559,US-36,Westbound,19,0.475,0.453,6.39,40.13321738650341,-83.57358916,40.107550058870096,-83.68776768,Yes
152,209,032773a0-9cc2-4e1c-8032-5ecdd4a5946e,2024-01-20T10:02:56.000Z,2024-01-20T10:31:08.000Z,CR-29 Back Massillon Rd / CR-103 Deerfield Ave / Orrville St,CR-29 Back Massillon Rd / OH-57 Wadsworth Rd,Westbound,28,0.277,0.31,6.36,40.85388360225888,-81.64655202,40.86957993777022,-81.7611003,Yes
153,205,8ff05330-8fff-4ec6-8640-b06d524886a8,2024-01-20T05:26:40.000Z,2024-01-20T05:33:40.000Z,US-30 / 4th St,US-30,Westbound,7,1.038,0.391,5.2,40.78092,-82.65604,40.76211999979054,-82.74784047,Yes
154,19,5bbed0df-4f18-4f05-b6ef-c460c28735ee,2024-01-20T09:44:00.000Z,2024-01-20T10:11:56.000Z,CR-29 Back Massillon Rd / OH-57 Wadsworth Rd,CR-29 Back Massillon Rd / CR-103 Deerfield Ave / Orrville St,Eastbound,28,0,0.502,5.94,40.87017243,-81.75824495,40.85533431,-81.65315809,Yes
155,162,d1fe8047-6ff3-43dc-8672-d848987b429c,2024-01-20T10:40:36.000Z,2024-01-20T11:02:41.000Z,Dixie Hwy / Coons Ln,OH-67 Dixie Hwy,Southbound,22,0.666,0.068,5.21,40.64773999787042,-84.13399,40.58002893814981,-84.17571106,Yes
156,185,1eaa8715-929c-4ac8-8e21-348de2475a81,2024-01-20T11:43:41.000Z,2024-01-20T11:46:51.000Z,OH-31 / Moore Rd,OH-31 / CR-299 Osborne Rd,Northbound,3,0.286,0.898,7.02,40.306077061842046,-83.38380532,40.40466003298967,-83.41136,Yes
157,184,a357f400-d5fe-42c1-a06c-6112981c4dbb,2024-01-20T11:27:30.000Z,2024-01-20T11:35:36.000Z,OH-117 / OH-67,OH-117 Bellefontaine Rd / Bowdle Rd,Westbound,8,0.172,0.988,6.56,40.60408644,-83.88301759,40.67735000136384,-83.96141,Yes
158,182,a81dc846-c2f8-425d-8ffc-59f6596de353,2024-01-20T10:59:02.000Z,2024-01-20T11:11:54.000Z,OH-146 / OH-147 Seneca Lake Rd,OH-147 Seneca Lake Rd / CR-25 Mud Run Rd,Eastbound,13,1.02,0.714,5.81,39.82011,-81.44075,39.87947297511966,-81.38315721,Yes
159,23,f510e3bf-2022-47b6-80a6-ccfab50fe9bc,2024-01-20T08:48:43.000Z,2024-01-20T09:03:52.000Z,US-127 Defiance St / Lincoln St,US-127 / Beaver St,Southbound,15,0.25,0.13,6.41,41.58388998,-84.43885003,41.51257971,-84.50779,Yes
160,177,a446a0f3-2152-45ee-9aba-a223b7c5e9b1,2024-01-20T04:24:08.000Z,2024-01-20T04:40:57.000Z,OH-7 / OH-84,OH-7 / Graham Rd / CR-343 Graham Rd,Southbound,17,1.068,0.317,5.46,41.86109,-80.57244,41.78312926038577,-80.57206754,Yes
161,175,4db045ff-dbf7-4a03-aaa6-d7df0acf6d12,2024-01-20T18:41:06.000Z,2024-01-20T18:51:56.000Z,OH-86 Plank Rd / OH-528 Madison Rd,OH-528 Madison Rd,Northbound,11,0.842,0,5.83,41.59581695456903,-81.05118267,41.67897922171978,-81.04486069,Yes
162,106,f8df58f0-40a5-43d6-8e4e-6d64bb30f20f,2024-01-20T05:26:54.000Z,2024-01-20T05:29:52.000Z,OH-126 Ronald Reagan Cross County Hwy Exit 31 / Hunt Rd,OH-126 Ronald Reagan Cross County Hwy,Westbound,3,0.3,0.145,4,39.222569992964296,-84.40651002,39.20545002377112,-84.47300017,Yes
163,35,7084f8d1-b18a-4304-abfd-41b12e591596,2024-01-20T10:06:51.000Z,2024-01-20T10:10:58.000Z,US-35,US-35,Eastbound,4,0.403,1.109,6.51,39.30873941629368,-82.92346871,39.24201950441652,-82.8420495,Yes
164,107,73f077f4-9253-4d2a-8290-89146cfef387,2024-01-20T15:12:58.000Z,2024-01-20T15:30:03.000Z,CR-22 Marks Rd / CR-70 Fenn Rd,CR-22 Marks Rd,Northbound,17,0.086,0.512,5.98,41.17066,-81.87822,41.25725006269404,-81.87819,Yes
165,1,10393fc7-1745-4e4d-8ce0-91fba86a7d53,2024-01-21T00:23:50.000Z,2024-01-21T00:38:41.000Z,OH-4 / CR-193 Kaiser Rd,OH-4 / OH-37,Northbound,15,0.969,0.921,6.45,40.31121430725381,-83.32940157,40.39393000415407,-83.27072,Yes
166,87,010fb9c2-0d67-4148-9010-b7905ae96fd2,2024-01-20T06:06:58.000Z,2024-01-20T06:12:50.000Z,US-35,US-35,Westbound,6,0.227,0.323,5.64,39.18894331908374,-82.7637333,39.23446079469716,-82.83608053,Yes
167,75,57ba915e-68fe-4813-a8c4-b1d003f24f9d,2024-01-20T23:39:06.000Z,2024-01-20T23:54:11.000Z,US-422 Main Market Rd,US-422,Westbound,15,0.915,0.157,4.59,41.38680475871082,-81.17764955,41.38174182426975,-81.26568134,Yes
168,69,c273d46e-b0c9-4cad-9941-2ec51a435984,2024-01-21T02:00:53.000Z,2024-01-21T02:15:56.000Z,CR-129 Wolford Maskill Rd / CR-209 Martin Welch Rd,CR-129 Claibourne Rd / Zook Rd,Northbound,15,0,0.211,4.65,40.32986,-83.35871,40.39576538828397,-83.35139846,Yes
169,75,772df894-13d5-4b21-8185-dd47d3d38683,2024-01-20T19:21:08.000Z,2024-01-20T19:30:01.000Z,US-422,US-422,Westbound,9,0.65,0.729,6.35,41.38220870128776,-81.29456474,41.39008037450502,-81.41800187,Yes
170,98,c90660c1-7ab7-4fc2-ae21-e44e46ba0a09,2024-01-20T07:34:47.000Z,2024-01-20T07:46:44.000Z,OH-203 / Buttermilk Hill Rd,CR-202 Norton Rd / OH-203,Northbound,12,0.298,0,5.97,40.35265028859285,-83.14035018,40.43045458410461,-83.17759264,Yes
171,56,1bd17ab1-7637-4a63-bd19-c411159d5bac,2024-01-20T06:10:06.000Z,2024-01-20T06:12:54.000Z,I-90,I-90,Westbound,3,0.401,0.34,5.3,41.94330190544623,-80.45398097,41.922879686440126,-80.54903073,Yes
172,64,b7e0c722-2770-423e-9e65-23a16e1276cb,2024-01-20T07:00:58.000Z,2024-01-20T07:13:56.000Z,US-23,US-23,Northbound,13,0.739,0.289,5.64,40.46983,-83.07477,40.55150006071792,-83.0742,Yes
173,82,9f30dfe5-8b2c-4cf7-a274-98fc535da972,2024-01-21T00:50:00.000Z,2024-01-21T01:12:56.000Z,US-250 Dover Rd / CR-501 Fredericksburg Rd,CR-501 Fredericksburg Rd / Honeytown Rd,Southbound,23,0,0.257,5.48,40.76363,-81.8959,40.68776641480624,-81.87748855,Yes
174,86,bc8a3983-6b13-4e56-8ecf-c9b31be478e1,2024-01-20T10:56:03.000Z,2024-01-20T11:17:48.000Z,CR-133 Northwest Pkwy / OH-245,CR-133 Northwest Pkwy / Honda Pkwy,Westbound,22,0.023,1.124,5.34,40.24442021129823,-83.40191076,40.27105932912296,-83.49654073,Yes
175,75,bb9585c7-7944-461d-92ca-3c584027b707,2024-01-20T19:03:04.000Z,2024-01-20T19:11:10.000Z,OH-44 Ravenna Rd / US-422,US-422,Westbound,8,0.622,0.608,5.47,41.38396,-81.21242,41.38504124971348,-81.31725546,Yes
176,191,3f7c95a8-0bf4-4e9a-b0dc-ed5ee44d5d5e,2024-01-20T10:12:43.000Z,2024-01-20T10:26:35.000Z,OH-314 Shelby Ontario Rd / OH-314 / 4th St,OH-61 / OH-314,Northbound,14,0.112,0.56,4.99,40.78083074590457,-82.65277029,40.850084840005245,-82.66280097,Yes
177,193,a37df100-c092-475b-89e1-5b80ef00868f,2024-01-20T14:47:31.000Z,2024-01-20T14:50:39.000Z,Dixie Hwy / Coons Ln,OH-67 / Dixie Hwy,Southbound,3,0.73,0.391,5.08,40.64720494985461,-84.13399,40.58099421100285,-84.1748021,Yes
178,206,1e2f69e6-d834-4234-a55b-4f09dd9d25a4,2024-01-20T07:34:03.000Z,2024-01-20T07:39:49.000Z,OH-7 5th Ave / OH-255 Muskingum St / Muskingum St,OH-7,Southbound,6,0.957,0,4.46,39.62273032539087,-80.9118092,39.58919492677695,-80.98115452,Yes
179,93,4a5e7b00-1c21-4d06-b291-d019edd3de9e,2024-01-20T16:05:00.000Z,2024-01-20T16:28:00.000Z,CR-2 Medina Line Rd / CR-75 Fixler Rd,CR-49 River Styx Rd / CR-75 Fixler Rd,Westbound,23,0.011,0.743,5.97,41.08108,-81.68770475,41.08290799615286,-81.79968259,Yes
180,15,a36ce31d-520f-4ae0-8506-985ab108f742,2024-01-20T04:32:35.000Z,2024-01-20T04:51:42.000Z,OH-116 / Saint Marys River Rd,OH-116 / OH-197,Northbound,19,0.325,0.291,5.32,40.564712756333016,-84.4031084,40.64002386949788,-84.41581641,Yes
181,89,9c970e4e-680c-4c58-b355-e7d577a5eec4,2024-01-20T11:54:41.000Z,2024-01-20T12:11:03.000Z,Princeton Rd / Yankee Rd,Princeton Rd,Westbound,16,0,0.306,3.93,39.39146,-84.38424,39.38833001314613,-84.45617025,Yes
182,14,530e485c-ccdd-494d-9f99-696625c6dea2,2024-01-20T06:21:00.000Z,2024-01-20T06:30:57.000Z,I-90,I-90,Eastbound,10,0.771,0.999,5.69,41.82786380827831,-80.76084385,41.87509936619119,-80.67393329,Yes
183,141,51e74296-2115-4f36-bbd2-05df8bffbff9,2024-01-20T10:47:05.000Z,2024-01-20T11:19:05.000Z,CR-4 Smith Rd,CR-4 Smith Rd / CR-31 Vandemark Rd,Westbound,32,0.128,0,5.12,41.13605,-81.90295415,41.13594,-82.00170993,Yes
184,61,14ca6ac0-2d98-4210-adf2-bd010936cfef,2024-01-20T09:33:48.000Z,2024-01-20T09:40:37.000Z,OH-15 / Flickinger Rd,OH-15 / OH-18,Eastbound,7,1.075,0.996,5.35,41.35853817,-84.47254172,41.30838866437546,-84.39815614,Yes
185,139,05f08101-7793-4887-9a00-1d61a3746988,2024-01-20T04:57:10.000Z,2024-01-20T05:08:07.000Z,I-77,I-77  Exit 28 / OH-821 Main St,Northbound,11,0.478,1.096,4.75,39.72031452661498,-81.51735293,39.78150622953062,-81.55370221,Yes
186,152,ba21f00f-baa4-466f-b1f3-0bfca79d9d10,2024-01-20T05:21:04.000Z,2024-01-20T05:44:52.000Z,OH-7 / Sheets Run Dr,OH-7 / Davis Run Rd,Southbound,24,0,1.044,6.36,39.48808968,-81.1013,39.43253183,-81.18500067,Yes
187,24,acd45e9c-8cdd-4c0f-aac2-5bf509c641e5,2024-01-20T11:21:05.000Z,2024-01-20T11:49:04.000Z,CR-4 Smith Rd / OH-301 / OH-301 Spencer Rd,OH-83 Avon Lake Rd / CR-4 Smith Rd,Eastbound,28,0.758,0.305,4.7,41.13674,-82.12281,41.13613186649589,-82.03250918,Yes
188,189,69638072-9f9d-41c3-8117-c311364409a9,2024-01-20T05:39:10.000Z,2024-01-20T05:59:54.000Z,Sweet Potato Ridge Rd / Preble County Line Rd / Sonora Rd,Preble County Line Rd / Lexington-Salem Rd,Southbound,21,0,0.753,6.02,39.8887,-84.48492,39.80166966434862,-84.48296999,Yes
189,19,d460f90e-1ec6-4566-81db-b3f6604c42ad,2024-01-20T12:42:55.000Z,2024-01-20T13:11:56.000Z,CR-29 Back Massillon Rd / OH-57 Wadsworth Rd,CR-29 Back Massillon Rd / CR-103 Deerfield Ave / Orrville St,Eastbound,29,0,0.763,6.2,40.87017243,-81.75824495,40.85412923915239,-81.64889468,Yes
190,210,6b26cd19-f681-441b-acdc-3299e29a737f,2024-01-20T08:46:46.000Z,2024-01-20T08:57:49.000Z,Princeton Rd / Yankee Rd,Princeton Rd / OH-747 Princeton Glendale Rd,Westbound,11,0,0.198,3.83,39.39146,-84.38424,39.38821001275375,-84.45415036,Yes
191,183,97af9ca4-1dcf-4880-9998-e9ef5311ad49,2024-01-20T07:32:55.000Z,2024-01-20T07:47:53.000Z,OH-7 / Morgan St,OH-7 / Sycamore St,Southbound,15,0,0.94,6.34,39.85167,-80.82298,39.77461707923411,-80.86603184,Yes
192,165,577ede8e-5167-41de-9aa7-dddf7dd5c107,2024-01-20T09:21:52.000Z,2024-01-20T09:47:56.000Z,OH-800 Somerton Hwy / Sycamore Ln,OH-800 Chestnut St,Northbound,26,0.722,1.016,5.9,39.911393640077286,-81.13895977,39.979232751349805,-81.18316931,Yes
193,20,969763e6-c7da-47fd-8531-10d3e9f33f81,2024-01-20T10:23:50.000Z,2024-01-20T10:43:49.000Z,OH-67 / Dixie Hwy,Dixie Hwy / Coons Ln,Northbound,20,0.067,0.613,5.04,40.58067,-84.17508,40.64626014,-84.13398,Yes
194,30,352a5a9a-713d-49bb-b557-2d50b4d6ae7f,2024-01-20T18:38:03.000Z,2024-01-20T18:41:56.000Z,OH-306 Chillicothe Rd / Craig Dr,OH-306 Chillicothe Rd / Yorkshire Dr,Southbound,4,0.5,0.64,3.84,41.41601566622751,-81.33818,41.36029986895795,-81.33971333,Yes
195,27,3c399344-068d-40f1-a3ae-c634c2fce08c,2024-01-20T13:11:56.000Z,2024-01-20T13:31:56.000Z,CR-30A Old Lincoln Way / Reedsburg Rd,CR-30A Old Lincoln Way,Eastbound,20,1.005,0.865,3.92,40.80845,-82.10333,40.80174746,-82.0304764,Yes
196,26,d3a745f9-a65f-4fc9-acd1-e9085bc157f1,2024-01-20T09:44:53.000Z,2024-01-20T10:06:07.000Z,I-77,I-77,Northbound,21,0.152,0,5.14,40.19797588873698,-81.55703986,40.26900772233517,-81.54299022,Yes
197,26,d923744f-e220-4734-bb62-7097999d102e,2024-01-20T04:40:57.000Z,2024-01-20T05:04:58.000Z,I-77,I-77,Northbound,24,0.431,0.943,5.9,39.636942285166405,-81.46384184,39.71078420014051,-81.51118579,Yes
198,21,febdbae2-c614-4eb6-b834-802f062ba66d,2024-01-20T06:39:05.000Z,2024-01-20T06:44:06.000Z,I-271,I-271,Northbound,5,0.241,0.401,5.57,41.25015036539616,-81.58756982,41.30400458566431,-81.51714799,Yes
199,22,15158f69-2c38-483a-85d1-05516a6a304e,2024-01-20T22:38:08.000Z,2024-01-20T22:42:02.000Z,I-271  Exit 21 / I-480  Exit 22,I-480  Exit 25C / OH-43 / OH-43 Aurora Rd,Westbound,4,0.447,0.448,3.37,41.362987161681886,-81.51544572,41.41011900702032,-81.50831826,Yes
200,60,3e8995c2-f3d0-477f-9385-f195331fe8ae,2024-01-20T10:49:04.000Z,2024-01-20T10:54:57.000Z,I-80,I-80,Westbound,6,0.597,0.44,5.04,41.24371374760815,-81.08108951,41.24363213,-81.17872621,Yes
201,96,81854ab8-7172-4ac6-86e8-661670c44585,2024-01-20T08:11:04.000Z,2024-01-20T08:27:56.000Z,Odnr Rd,Nimisila Rd / Van Buren Rd,Westbound,17,0,0.091,4.31,40.93959,-81.53231,40.93034046812672,-81.61294463,Yes
202,140,8de8c1a4-0714-493e-ac85-95d9f16a6e88,2024-01-20T06:22:01.000Z,2024-01-20T06:44:02.000Z,US-23 / Keechle Hill Rd,US-23 / Us-23 Access Rd,Northbound,22,0,0.587,5.96,39.14558,-82.97739,39.22781079,-82.98320697,Yes
203,46,c54f3347-8f51-4779-989c-89005664f95b,2024-01-20T09:41:02.000Z,2024-01-20T09:41:48.000Z,US-23,US-23 / Circle Ln,Southbound,1,0.121,0.314,4.12,39.63841895,-82.95630984,39.580829586179306,-82.95315824,Yes
204,229,fa03ada6-006b-49ac-a90a-2edd4b663693,2024-01-20T15:32:14.000Z,2024-01-20T15:34:57.000Z,CR-4 Smith Rd / Bachtell Rd,CR-4 Smith Rd / CR-134 Bryenton Rd,Westbound,3,0.938,0.915,4.31,41.13589,-81.95844053,41.13619057741652,-82.03885755,No
205,103,a7cbe300-0d25-4d14-bb10-3f76ad308a33,2024-01-20T10:26:55.000Z,2024-01-20T10:56:09.000Z,CR-10 Mill St / CR-501 Mill St / CR-2 Clay St,CR-363 Mt Hope Rd / CR-2 Harrison Rd,Eastbound,29,0.965,0.354,4.78,40.67661000614846,-81.87037998,40.69718748579257,-81.78663315,Yes
206,4,d6a99b28-2879-4af0-abe9-22ff940d9e37,2024-01-20T07:44:02.000Z,2024-01-20T07:49:00.000Z,"I-71  Exits 245,246,247A / I-90 Exit 170B / I-490  Exit 1A",I-71  Exit 240 / 154th St,Southbound,5,0.039,0.416,5.3,41.45870551,-81.69644265,41.43925980189157,-81.79051079,Yes
207,111,fddcfb25-90d8-4665-8eb5-f7cc3499a5a5,2024-01-20T10:28:54.000Z,2024-01-20T10:50:38.000Z,OH-119 Boundary St / OH-119 / Ft Rec Minster Rd,OH-119 Western Ave / Washington St,Eastbound,22,0.645,1.319,6.01,40.41866648024159,-84.7588965,40.41960849770928,-84.64650775,Yes
208,5,8769950d-f48a-4c27-b203-2d0ce0229a81,2024-01-20T23:27:00.000Z,2024-01-20T23:28:02.000Z,US-422,US-422  Exit 16 / Harper Rd,Westbound,1,0.409,1.093,3.79,41.38869006125337,-81.39190058,41.40177200296204,-81.45981366,Yes
209,55,8007ab79-2e85-4bea-ace9-0baeb9d3c76e,2024-01-20T10:43:58.000Z,2024-01-20T11:06:56.000Z,CR-97 Greenwich Rd,CR-97 Greenwich Rd,Westbound,23,0.973,1.389,4.75,41.02532471441097,-81.76549741,41.02522,-81.85871781,Yes
210,114,42921b9a-08fc-4bb8-ad03-bfb0b4386b93,2024-01-20T13:21:04.000Z,2024-01-20T13:38:03.000Z,OH-252 River Rd / Emmons Rd,OH-252 Columbia Rd,Southbound,17,0,1.007,6.35,41.27834987,-81.91427002,41.19315347488636,-81.92511127,Yes
211,6,f336e798-ab12-4c25-83f1-2f65ff04983b,2024-01-21T00:11:12.000Z,2024-01-21T00:14:10.000Z,OH-534 / CR-208 Helsley Fusselman Rd,OH-534 Miller Ave,Southbound,3,0.661,0,4.71,41.275558329369865,-80.97199988,41.20988251,-80.97884474,Yes
212,70,de747fc3-3ef8-4b0b-a029-26b5043717f3,2024-01-20T10:47:57.000Z,2024-01-20T11:16:55.000Z,CR-18 Tallmadge Rd,CR-18 Tallmadge Rd,Westbound,29,0.497,0.361,5.07,41.09967,-81.14673541,41.099250004155664,-81.24421022,Yes
213,70,1b267c46-7421-4aff-b499-e8eab7b06936,2024-01-20T14:54:59.000Z,2024-01-20T15:06:07.000Z,CR-18 Tallmadge Rd,CR-18 Tallmadge Rd,Westbound,11,1.121,0.361,4.44,41.09933,-81.15893,41.099250004155664,-81.24421022,Yes
214,233,bc87948e-1845-487c-a0ff-cc85d3763ea3,2024-01-20T11:18:02.000Z,2024-01-20T11:33:59.000Z,CR-2 Medina Line Rd / Wilshire Dr,CR-2 Medina Line Rd / CR-123 Reimer Rd / Reimer Rd,Southbound,16,0.272,0.754,4.31,41.121065572413926,-81.68717874,41.059681987414784,-81.68764345,Yes
215,120,8af94ce7-86fa-45a9-a86d-8ce55e354517,2024-01-20T10:31:08.000Z,2024-01-20T10:56:09.000Z,CR-97 Greenwich Rd,CR-97 Greenwich Rd,Eastbound,25,0,0.817,4.53,41.02523,-81.86084,41.02528064599425,-81.77525809,Yes
216,120,d38c3a99-72e9-4aa7-af67-270dfc973625,2024-01-20T14:51:11.000Z,2024-01-20T14:54:59.000Z,CR-97 Greenwich Rd,CR-97 Greenwich Rd,Eastbound,4,0,1.125,4.84,41.02523,-81.86084,41.02530204652727,-81.77054052,Yes
217,100,5466f0d2-3c4e-47e2-8ba7-896305f358c9,2024-01-20T05:04:46.000Z,2024-01-20T05:18:36.000Z,OH-37 Johnstown-Alexandria Rd,OH-37 / Dent Rd,Northbound,14,0.454,0.65,5.49,40.16365059654963,-82.6944806,40.20707665723683,-82.77929436,Yes
218,44,54bafbf9-1628-4852-a72d-b5f8030130ca,2024-01-20T13:42:44.000Z,2024-01-20T13:50:59.000Z,OH-121 / CR-126 Horatio-New Harrison Rd / Etter Rd,US-127 / OH-121,Southbound,8,0.144,0,5.04,40.16624017,-84.52632007,40.13133541356736,-84.59967332,Yes
219,78,0a5b2bd9-7321-4036-a22b-c37295bcb453,2024-01-20T08:11:50.000Z,2024-01-20T08:16:03.000Z,I-480  Exit 9 / Grayton Rd / OH-17 Brookpark Rd,I-480  Exit 12B / 130th St,Eastbound,4,0.09,0,2.76,41.42124998308197,-81.84078995,41.42024697,-81.7886409,No
220,42,c1c8c8b2-590b-4d53-a548-004d889c72b3,2024-01-20T10:49:54.000Z,2024-01-20T11:19:05.000Z,Bailey Rd / CR-65 Bailey Rd / CR-18 Mahoning Ave,CR-18 Mahoning Ave / Wavecrest Ave,Westbound,29,1.091,0.394,4.92,41.09947,-80.88937,41.09464075400996,-80.98276756,Yes
221,128,f18e9c6f-43e9-4924-8af6-d249d6b73bb0,2024-01-20T10:52:55.000Z,2024-01-20T11:19:05.000Z,CR-52 Bear Swamp Rd / CR-75 Fixler Rd,CR-2 Medina Line Rd / CR-75 Fixler Rd,Eastbound,26,1.054,0.717,5.09,41.08121,-81.78517,41.08107999994538,-81.68770654,Yes
222,70,27cadeb4-db8e-4f47-920b-c9a104ccce43,2024-01-20T14:41:57.000Z,2024-01-20T15:04:06.000Z,CR-18 Tallmadge Rd / CR-136 Jones Rd,CR-18 Tallmadge Rd,Westbound,22,0.153,1.128,6.2,41.09873998553472,-81.01837573,41.099495146193725,-81.13473886,Yes
223,131,ae2020c3-479d-4441-aa0a-162819e1adb4,2024-01-20T23:29:59.000Z,2024-01-20T23:35:05.000Z,I-480,I-480 / Oakleaf Rd,Southbound,5,0.084,0.494,4.36,41.42421980482501,-81.53172883,41.37070384676807,-81.51569058,Yes
224,13,1f9fa7ed-28b7-4dd6-a08a-389de5f16a25,2024-01-20T05:42:09.000Z,2024-01-20T06:04:09.000Z,I-70  Exit 225 / Marion St,I-70  Exit 219 / I-470  Exit 1 / Banfield Rd,Westbound,22,0,0.193,5.37,40.07165,-80.74886,40.06909162812565,-80.84686075,Yes
225,224,d3841419-954d-48fb-906b-e5d4a682fe5a,2024-01-20T09:56:53.000Z,2024-01-20T10:16:56.000Z,CR-30A Lincoln Way / Lincoln Way,CR-30A Pittsburgh Ave / Bauer Rd,Westbound,20,0.605,0.469,5.09,40.79611002,-81.81936006,40.79555453,-81.91549213,Yes
226,75,feaf325a-c24c-4675-9bff-e164fb9b2e6d,2024-01-20T19:30:01.000Z,2024-01-20T19:47:00.000Z,US-422 / US-422 Main Market Rd / Shaw Rd,US-422,Westbound,17,0,0.472,3.74,41.3837307,-81.2004201,41.381393720794414,-81.27031709,Yes
227,14,14cc2c00-24ad-4e45-a433-dd20ba5df5ac,2024-01-20T07:05:59.000Z,2024-01-20T07:10:57.000Z,I-90,I-90,Eastbound,5,0.26,0.999,5.17,41.82911019205558,-80.74971751,41.87509936619119,-80.67393329,Yes
228,14,7a1f6248-87fe-446e-b696-8efcb1c4a018,2024-01-20T09:16:57.000Z,2024-01-20T09:22:51.000Z,I-90,I-90,Eastbound,6,1.152,0.787,3.52,41.87691740998064,-80.67159927,41.90249729852734,-80.61487983,Yes
229,245,54f25f42-2164-417b-bd4a-bd1e670d0626,2024-01-20T08:08:39.000Z,2024-01-20T08:18:37.000Z,Lexington Springmill Rd / Lexington-Springmill Rd / Kingston St,Plymouth St / Sherwood Dr,Southbound,10,1.12,1.051,4.15,40.7478,-82.58989,40.69064804242523,-82.58658157,Yes
230,190,df39bb56-cfe4-4f7e-9942-d286a020ffbc,2024-01-20T10:59:59.000Z,2024-01-20T11:06:08.000Z,Apple Creek Rd / Northeast St,Apple Creek Rd / CR-23 Back Orrville Rd / CR-44 Apple Creek Rd,Southbound,6,0.734,0.444,2.13,40.86088122159227,-81.84258298,40.82926992610999,-81.84232,No
231,180,8c49891d-8c1f-4551-8d66-84c691a6872a,2024-01-20T15:15:56.000Z,2024-01-20T15:26:59.000Z,CR-337 Fish Daum Rd / CR-299 Osborne Rd,OH-31 / CR-299 Osborne Rd,Southbound,11,1.122,1.315,4.53,40.46677,-83.40046,40.405299979728014,-83.4112801,Yes
232,73,d7b3c137-8a83-4c42-9648-459dd1b1f518,2024-01-20T12:24:37.000Z,2024-01-20T12:41:01.000Z,CR-336 Winnemac Rd / CR-343 Yoakum Rd,OH-31 / CR-343 Yoakum Rd,Westbound,16,0.013,1.276,5.62,40.50515959212069,-83.38212347,40.49250910052279,-83.48710237,Yes
233,14,833569d1-8068-4223-9419-baa243a48aaa,2024-01-20T06:30:57.000Z,2024-01-20T06:34:09.000Z,I-90,I-90,Eastbound,3,0.629,0.629,3.89,41.870210628763694,-80.67938135,41.90228207558751,-80.61541853,Yes
234,228,66b12170-066f-4144-ba5d-aeb342d6a10b,2024-01-20T11:25:03.000Z,2024-01-20T11:31:05.000Z,CR-18 Mahoning Ave / CR-18 Tallmadge Rd / Mahoning Rd,CR-18 Tallmadge Rd / John Thomas Rd,Westbound,6,0.368,0.699,4.53,41.09867001,-81.00237007,41.09903000041548,-81.08935006,No
235,206,3d7452ac-659e-450b-9c1c-3745929e7caf,2024-01-20T05:37:12.000Z,2024-01-20T05:52:53.000Z,OH-7 / OH-807,OH-7,Southbound,16,1.311,0.495,3.75,39.39173,-81.21539,39.38262746038639,-81.28167778,Yes
236,186,c66c6e5a-56b2-492f-bdf3-6120d265a62b,2024-01-20T12:03:51.000Z,2024-01-20T12:21:45.000Z,OH-37 / CR-286 Boundary Rd,CR-286 Boundary Rd / CR-299 Osborne Rd,Westbound,18,0.668,0.989,4.7,40.45847407490052,-83.30031464,40.44914842,-83.38893011,Yes
237,7,e9b15ff3-215f-4fb6-b994-0259bd0f31f5,2024-01-20T10:04:02.000Z,2024-01-20T10:16:01.000Z,CR-77 Moreland Rd / CR-501 Fredericksburg Rd,CR-77 Moreland Rd,Westbound,12,0.774,0.608,4.05,40.71103999458266,-81.89174022,40.71196747,-81.96730502,Yes
238,203,e53e00c9-2215-4754-9f2d-394dfc6b304b,2024-01-20T16:18:39.000Z,2024-01-20T16:43:53.000Z,CR-24 Camden College Corner Rd / OH-177,CR-24 Camden College Corner Rd / CR-227,Eastbound,25,0.168,1.266,5.57,39.60413968305362,-84.74553683,39.61790026161179,-84.65173581,Yes
239,70,67289042-9ab9-42ec-ba21-19ba51593d46,2024-01-20T10:49:04.000Z,2024-01-20T11:09:56.000Z,CR-18 Tallmadge Rd / Biltz Rd,CR-18 Tallmadge Rd,Westbound,21,0.743,1.043,4.57,41.09983065082314,-81.2726441,41.10008067008168,-81.35980046,Yes
240,227,b39c3aab-8ba7-4f6b-863a-628a0c44acd0,2024-01-20T06:14:54.000Z,2024-01-20T06:34:59.000Z,US-20 Front St,Holland Rd / US-20 Reynolds Rd / US-20 Conant St,Westbound,20,0.037,1.242,2.96,41.56024568648876,-83.63055915,41.58112341577139,-83.66488027,Yes
241,199,1076e51d-4d57-45be-a97f-d5ae08078d2d,2024-01-20T12:01:04.000Z,2024-01-20T12:19:59.000Z,US-36 / OH-258 Pilling St,US-36 / OH-751,Westbound,19,0,0.332,4.8,40.28093507,-81.5957133,40.28716002045302,-81.68427014,Yes
242,187,641b0be8-edf1-438c-8710-48aab9bcb82c,2024-01-20T17:30:09.000Z,2024-01-20T17:34:02.000Z,CR-8 Wilson Mills Rd / Stephens Way,CR-8 Wilson Mills Rd / Parker Dr,Westbound,4,0.436,1.046,3.62,41.55411,-81.25462011,41.54363943488661,-81.31865499,No
243,231,f333f090-14f2-41ab-9372-d4b2a0a6f733,2024-01-20T15:37:01.000Z,2024-01-20T15:59:16.000Z,CR-2 Medina Line Rd,CR-2 Medina Line Rd / Hatch Rd,Northbound,22,0.151,0.801,4.95,41.02348521798999,-81.68784488,41.09515031879467,-81.68742,Yes
244,71,e554d3c7-a130-446b-babe-5d8249d2c63a,2024-01-20T05:27:11.000Z,2024-01-20T05:32:13.000Z,I-77,I-77,Southbound,5,0.778,0.154,3.78,39.61281888657595,-81.45766975,39.56023179920959,-81.44874574,Yes
245,105,bc70a692-7478-415a-8a2b-d4c37368b0f0,2024-01-20T19:14:57.000Z,2024-01-20T19:20:02.000Z,CR-606 Washington St / Wing Rd,CR-606 Washington St,Westbound,5,1.014,0.834,4.49,41.38820059004901,-81.2697475,41.41586004150081,-81.3478001,Yes
246,43,da6a5386-5701-42b1-ab68-18e022cec154,2024-01-20T07:14:52.000Z,2024-01-20T07:19:57.000Z,I-90,I-90  Exit 223 / OH-45 / OH-45 Center Rd,Westbound,5,0.414,1.396,5.27,41.82814000006767,-80.76515499,41.791360810379096,-80.8477246,Yes
247,159,559e1056-3fc6-490f-a12f-cd2a146c9e3e,2024-01-20T10:31:08.000Z,2024-01-20T10:51:53.000Z,CR-10 Mill St / CR-501 Mill St / CR-2 Clay St,OH-83 / OH-83 Millersburg Rd / CR-1,Westbound,21,0.604,0.171,3.89,40.67677285792415,-81.86996807,40.66911455,-81.94201516,Yes
248,129,54fb674d-7859-4e36-a4cf-db6bbfa69bb3,2024-01-20T11:31:05.000Z,2024-01-20T11:39:54.000Z,I-80,I-80  Exit 218 / I-76  Exit 218 / CR-18 Mahoning Ave,Eastbound,9,1.125,1.428,4.41,41.16450975,-80.90768878,41.12087845037649,-80.84671881,Yes
249,99,377a0943-b20e-4c4c-bcc4-25bb891333d5,2024-01-20T08:26:49.000Z,2024-01-20T08:51:45.000Z,Union Centre Blvd,Union Centre Blvd / Muhlhauser Rd,Eastbound,25,1.048,0.814,3.89,39.34237,-84.48263,39.32380999124248,-84.42775998,Yes
250,39,90567315-7fbf-45d6-aa0c-a75b822deb7a,2024-01-20T22:29:13.000Z,2024-01-20T22:43:00.000Z,I-480  Exit 26A / I-271  Exit 26 / Rockside Rd,I-271,Southbound,14,0,0.852,5.53,41.41329,-81.50752,41.33546196980429,-81.51514535,Yes
251,99,9bd812d8-1095-40d8-8100-124434ec52a2,2024-01-20T10:19:48.000Z,2024-01-20T10:45:59.000Z,Union Centre Blvd,Union Centre Blvd / Muhlhauser Rd,Eastbound,26,0.941,0.756,3.94,39.34295922619757,-84.48471716,39.32420888492135,-84.42905309,Yes
252,154,dc0caa5b-e7d6-4baa-92a4-222d171e6dd6,2024-01-20T13:29:42.000Z,2024-01-20T13:38:46.000Z,CR-252 Lunda Rd / OH-47,CR-252 Lunda Rd / CR-229 Rapp-Dean Rd,Southbound,9,0,1.176,5.47,40.41125,-83.49906,40.33367,-83.52021,Yes
253,93,4c1cb437-2fb5-4c10-bf2a-29a3a27f4ee3,2024-01-20T12:31:05.000Z,2024-01-20T12:31:56.000Z,CR-75 Fixler Rd / Northview Dr,CR-49 River Styx Rd / CR-75 Fixler Rd,Westbound,1,1.036,0.906,4.06,41.08105,-81.72742,41.08288,-81.80482444,Yes
254,88,f255ba28-305f-4a71-b42b-7a2072bcf0c5,2024-01-20T10:15:48.000Z,2024-01-20T10:23:50.000Z,US-30 / CR-12,US-30 / US-68,Eastbound,8,0.158,1.172,5.33,40.8260177,-83.76319485,40.82711,-83.66212807,Yes
255,157,808f999b-48af-4ec2-bcf9-e86c242e02dd,2024-01-20T18:27:44.000Z,2024-01-20T18:46:46.000Z,US-127-TRUCK Dalton Ave,Spring Grove Ave / Colerain Ave,Northbound,19,0.513,0.392,2.54,39.11875931724654,-84.53578401,39.153610034118095,-84.54244999,Yes
256,48,72ee6ad7-4dca-422e-aa2e-97658a6f54c9,2024-01-20T23:48:02.000Z,2024-01-20T23:51:08.000Z,US-422 Main Market Rd / CR-46 Jug St,US-422 Main Market Rd,Eastbound,3,1.03,0.574,3.76,41.38100864,-81.12169712,41.36989538752491,-81.05222946,Yes
257,59,eca16edd-3549-482c-9462-8e6b4f9f6267,2024-01-20T08:06:00.000Z,2024-01-20T08:23:52.000Z,OH-37 Central Ave / US-36 Sunbury Rd / US-36 William St,OH-37,Eastbound,18,0.106,0.728,4.37,40.29771265146773,-83.04657061,40.27454575526929,-82.97032722,Yes
258,137,2227263d-fd1c-4d98-b9a3-049715407e1d,2024-01-20T15:12:58.000Z,2024-01-20T15:25:07.000Z,CR-18 Tallmadge Rd / Rosalind Dr,CR-18 Tallmadge Rd,Eastbound,12,0,0.145,4.44,41.09907,-81.23275,41.09967,-81.14773578,Yes
259,225,9307368d-cba1-44b8-a36c-f983f539f6c5,2024-01-20T08:04:01.000Z,2024-01-20T08:09:57.000Z,Hilliard Blvd / Tonawanda Dr,Hilliard Blvd,Westbound,6,0.551,0.426,3.08,41.46334036049558,-81.87045406,41.45928404,-81.92851276,Yes
260,14,b218ba15-bd0a-47e6-ae35-17cb756ade12,2024-01-20T10:56:57.000Z,2024-01-20T10:59:02.000Z,I-90,I-90,Eastbound,2,0.492,0.412,3.37,41.84675521,-80.70955899,41.88128626052655,-80.66503876,Yes
261,134,e36320d3-072e-4f73-a0f5-ae9fa0a72236,2024-01-20T09:22:51.000Z,2024-01-20T09:47:56.000Z,OH-800 Barnesville Hendrysburg Rd / Harry Dew Rd,OH-800 Barnesville Hendrysburg Rd,Northbound,25,0.198,0.165,3.13,40.00291020051477,-81.17820002,40.039646682118295,-81.1594278,Yes
262,216,ffec36d7-27cb-483e-84e0-73fc2d597f4d,2024-01-20T11:48:49.000Z,2024-01-20T12:03:51.000Z,CR-129 Wolford Maskill Rd / CR-209 Martin Welch Rd,OH-4 / CR-129 Wolford Maskill Rd,Southbound,15,0.131,1.086,3.28,40.32947999309014,-83.35625996,40.28336589942806,-83.3502276,Yes
263,214,537ec9a5-691f-4e73-a98c-a692117dfc97,2024-01-20T10:32:58.000Z,2024-01-20T10:54:07.000Z,CR-70 West Salem Rd / Shawnee Ln,CR-70 Middle St / Diagonal St,Westbound,21,0.098,1.016,4.19,40.98214997339062,-81.91134052,40.98882,-81.98976,Yes
264,130,a5e72cc2-754b-4ddb-869f-1adf76418bcd,2024-01-20T15:35:50.000Z,2024-01-20T15:40:57.000Z,CR-31 Georgetown-Verona Rd / Yohe Rd / CR-34 Euphemia Castine Rd,Mill St,Westbound,5,0.482,0.202,2.91,39.89469902591105,-84.62272739,39.90201,-84.67666353,No
265,104,071ec246-1950-459e-87e7-06ec737a1471,2024-01-20T16:11:50.000Z,2024-01-20T16:25:46.000Z,CR-11 New Paris-Eldorado Rd / CR-31 New Paris-Eldorado Rd / Wolfrey Rd,CR-10 Gettysburg Darke Rd / Lee Rd / CR-31 New Paris-Eldorado Rd,Eastbound,14,0.063,1.157,3.62,39.86533593333641,-84.78749182,39.89425684,-84.74241206,Yes
266,130,203832b9-7b29-4086-9707-e3c38db2baf7,2024-01-20T15:24:36.000Z,2024-01-20T15:25:56.000Z,US-127 / CR-31 Wikel Rd / CR-31 Georgetown-Verona Rd,Mill St,Westbound,1,0.643,0.202,2.75,39.89466999945743,-84.62695003,39.90201,-84.67666353,No
267,176,9a3a3276-ae56-4a57-9c80-a3d22dd0c46e,2024-01-20T10:41:44.000Z,2024-01-20T10:43:49.000Z,OH-81 Ada Rd,OH-81 Ada Rd / Thayer Rd,Eastbound,2,1.126,0.291,2.4,40.75781,-84.06049,40.76390029788194,-84.01726943,Yes
268,12,b071c76a-87b5-45ad-91c9-ed61daf56eb5,2024-01-20T11:16:55.000Z,2024-01-20T11:33:59.000Z,CR-70 Doylestown Rd / Shondel Rd,Cleveland Ave / Collier Dr / Park Dr,Eastbound,17,0,1.154,3.58,40.97996,-81.76443,40.96828,-81.69929002,Yes
269,127,04db3635-85d9-45fd-93cb-2aeac8547622,2024-01-20T10:34:02.000Z,2024-01-20T10:44:55.000Z,Frost Rd,Hudson Aurora Rd,Westbound,11,0.129,0.818,3.78,41.26095408328398,-81.32863412,41.26185,-81.39958306,Yes
270,232,7e9320ed-0fb5-43db-93f4-46fded08505e,2024-01-20T10:49:54.000Z,2024-01-20T11:06:56.000Z,CR-18 Mahoning Ave / Anderson Ct,CR-18 Mahoning Ave,Westbound,17,0,0.454,2.6,41.098,-80.80887,41.100109992598895,-80.85766017,Yes
271,119,031dd820-4c07-4d63-ace9-c20cf70f40d7,2024-01-20T10:41:56.000Z,2024-01-20T11:11:07.000Z,OH-83 / OH-83 Millersburg Rd / CR-1,Water St / CR-2 Clay St,Eastbound,29,0,0.762,3.95,40.66742,-81.94688,40.67500261,-81.87441671,Yes
272,236,2791970d-838c-4893-9fe2-4c10ac4f780d,2024-01-20T04:32:11.000Z,2024-01-20T04:33:08.000Z,OH-59  Exit 5B / Portage Trl,OH-59 / Cuyahoga Falls Ave / Riverside Dr,Westbound,1,0,0.083,1.35,41.13379,-81.48136,41.11651896288584,-81.49159703,Yes
273,50,1e3f4982-4495-49a2-8c70-9224e52dbc74,2024-01-20T11:24:36.000Z,2024-01-20T11:26:42.000Z,OH-4 / CR-129 Wolford Maskill Rd,CR-129 Wolford Maskill Rd / CR-209 Martin Welch Rd,Northbound,2,0,0.123,3.33,40.28291,-83.35015,40.32963002108714,-83.35725015,No
274,241,f43ae21e-f585-40a4-8927-01f66e8c6706,2024-01-20T21:16:31.000Z,2024-01-20T21:18:47.000Z,OH-598 / Middletown Rd,OH-598 / Kile Rd,Northbound,2,0.249,0.697,2.41,40.77297425553404,-82.79212763,40.80830001988896,-82.78732,No
275,50,34b1f346-a038-4e02-9e1c-7f9b05d6ddbc,2024-01-20T11:33:38.000Z,2024-01-20T11:37:49.000Z,OH-4 / CR-129 Wolford Maskill Rd,CR-129 Wolford Maskill Rd / CR-209 Martin Welch Rd,Northbound,4,0.033,0.123,3.3,40.28338212114849,-83.3502303,40.32963002108714,-83.35725015,No
276,54,e232650a-11c0-4361-8e35-cfe15fd201c8,2024-01-20T11:52:47.000Z,2024-01-20T12:03:51.000Z,CR-1 Industrial Pkwy / CR-9 Mitchell Dewitt Rd,CR-1 Industrial Pkwy / Old Industrial Pkwy,Southbound,11,0.242,0,2.6,40.141935212862165,-83.21530083,40.11154929328474,-83.18657153,No
277,50,16083b8f-e18e-4b7a-a632-2b9bb2bcc864,2024-01-21T02:02:47.000Z,2024-01-21T02:11:43.000Z,OH-4 / CR-129 Wolford Maskill Rd,CR-129 Wolford Maskill Rd / CR-209 Martin Welch Rd,Northbound,9,0.033,0,3.18,40.28338212114849,-83.3502303,40.329140223266975,-83.35498011,Yes
278,137,3164c944-faaf-4caf-b06d-2de76c0aa826,2024-01-20T10:56:57.000Z,2024-01-20T11:01:53.000Z,CR-18 Tallmadge Rd / CR-18 Akron Youngstown Rd / Industry Rd,CR-18 Tallmadge Rd,Eastbound,5,0.983,0.425,2.69,41.09823000114489,-81.19372998,41.09958954689228,-81.14247324,No
279,71,1999e23a-2bf0-4f53-a701-b71c970d79e7,2024-01-20T06:07:03.000Z,2024-01-20T06:12:04.000Z,I-77,I-77,Southbound,5,0.162,0.387,3.45,39.70605167887245,-81.50880572,39.66504594,-81.47518899,Yes
280,91,07675ab7-cb4d-477f-a3e0-a3de6b61e318,2024-01-20T09:51:39.000Z,2024-01-20T09:55:32.000Z,County Road 24 / Nolan Pkwy,US-6 / County Road 24,Southbound,4,1.01,0.337,2.46,41.48813668,-84.32548667,41.45370266536181,-84.32508,Yes
281,197,79e9f2ed-6765-46a2-a780-01a6b2e91c13,2024-01-20T08:06:03.000Z,2024-01-20T08:19:04.000Z,OH-237 Mulberry St,OH-237 Prospect Rd,Southbound,13,0.133,0.502,3.45,41.37104922032767,-81.85585519,41.32267656,-81.85776,Yes
282,81,bbf4cff4-31f2-41b0-ad2c-4598344ac8b0,2024-01-20T09:01:03.000Z,2024-01-20T09:16:04.000Z,Hilliard Blvd,Hilliard Blvd / Chairmans Rowe,Westbound,15,0.138,0,2.01,41.45981004481364,-81.92345045,41.44395946445994,-81.95269775,Yes
283,172,65c8be2f-fefd-42c1-9c77-5670d6c98629,2024-01-20T16:53:41.000Z,2024-01-20T17:38:53.000Z,I-75  Exit 14 / Glendale Milford Rd / Vision Way,I-75  Exit 12 / Cooper Ave,Southbound,45,0.578,0.424,1.74,39.25034913,-84.4453463,39.22577477398557,-84.45248523,Yes
284,84,7705039b-0796-4636-97f4-e0c1849659ed,2024-01-20T11:39:32.000Z,2024-01-20T11:40:40.000Z,US-23 / Township Road 24,US-23 / Ch 16,Southbound,1,0.784,0,2.41,41.001601574944175,-83.38694536,40.96722556944606,-83.38195039,Yes
285,36,7ff714c8-d300-43d9-87d5-73d8e8797bcd,2024-01-20T08:06:54.000Z,2024-01-20T08:14:01.000Z,OH-78 / OH-536,OH-78 / Township Road 16,Westbound,7,0,0.668,3.9,39.74663882,-80.98502083,39.75051831658693,-81.05365982,No
286,37,6d75fa60-4715-48a1-aa2d-2087927feef2,2024-01-20T13:40:02.000Z,2024-01-20T13:43:43.000Z,OH-314 / Township Road 87,OH-314 / CR-29,Northbound,4,0,0.782,2.97,40.58535,-82.66204,40.62700843,-82.66308797,No
287,155,877202ce-a96a-4520-b9e0-5bd8daee6efc,2024-01-21T00:12:55.000Z,2024-01-21T00:16:59.000Z,I-271 / I-480,I-480,Westbound,4,0,0.081,2.48,41.40005,-81.50775,41.42485217273103,-81.53366387,Yes
288,90,3107d039-1797-489c-b81b-0313de4baf97,2024-01-20T16:48:42.000Z,2024-01-20T16:54:39.000Z,CR-21 Camden West Elkton Rd / CR-37 Camden West Elkton Rd / CR-37 Free Short Pike,CR-21 Camden West Elkton Rd / Wayne Trace Rd / CR-5 Wayne Trace Rd,Eastbound,6,0.076,1.169,3.28,39.62826,-84.64415,39.60423503,-84.59331301,Yes
289,192,e24c2418-fcb4-4ce4-83a4-ca3922207625,2024-01-20T06:34:07.000Z,2024-01-20T06:44:47.000Z,US-27 Millville Oxford Rd / Stillwell Rd,US-27 Millville Oxford Rd / Mill St,Southbound,11,0.19,0.597,3.94,39.44201636158752,-84.68194854,39.39133136649278,-84.6561618,Yes
290,38,dc56ce42-e81f-4bf1-bb70-928d8290e66b,2024-01-20T11:34:52.000Z,2024-01-20T11:41:04.000Z,OH-11,OH-11,Southbound,6,0.151,0.639,3.43,40.78470737961339,-80.73850053,40.74060620547156,-80.71043541,Yes
291,196,9c359d41-00a0-4d89-a71e-103d47e7738d,2024-01-20T09:51:54.000Z,2024-01-20T09:59:02.000Z,CR-77 Moreland Rd,CR-77 Moreland Rd / CR-501 Fredericksburg Rd,Eastbound,7,0.165,0.968,4.05,40.71200374585178,-81.96928876,40.71101253768683,-81.89317719,Yes
292,38,98e921da-59e2-4965-96ca-85a062bcd4b8,2024-01-20T11:19:59.000Z,2024-01-20T11:26:58.000Z,OH-11  Exit 39 / CR-18 Mahoning Ave / Marcia Dr,OH-11,Southbound,7,0,0.306,3.59,41.08955,-80.7519,41.03849093123308,-80.7425131,Yes
293,207,030c3004-5ef9-44be-849c-8fb1e654bb99,2024-01-20T09:18:58.000Z,2024-01-20T09:44:46.000Z,Union Centre Blvd / Floer Dr / West Chester Towne Center Dr,Union Centre Blvd,Westbound,26,0.263,0.747,3.7,39.324470621080735,-84.43059925,39.34215185609389,-84.48200402,Yes
294,68,9698666b-5877-4a1a-bcf0-8af0426d4209,2024-01-20T11:25:58.000Z,2024-01-20T11:38:41.000Z,Union Centre Blvd / Firebird Dr,Union Centre Blvd / Allen Rd,Eastbound,13,0.102,0.457,3.43,39.341719624221184,-84.48090914,39.32500957579584,-84.43425915,Yes
295,14,8fb95d26-88a9-4ba0-a1df-24c9bc71549d,2024-01-20T12:16:09.000Z,2024-01-20T12:19:07.000Z,I-90  Exit 235 / OH-193 / OH-84,I-90,Eastbound,3,0.412,0.944,3.21,41.88128626052655,-80.66503876,41.90364977151192,-80.61199558,No
296,94,8cf1beca-b25d-420e-aedd-bd671d3c203a,2024-01-20T07:27:43.000Z,2024-01-20T07:32:34.000Z,US-30,US-30,Eastbound,5,0.155,0.661,3.76,40.76184326488205,-82.71832419,40.78097582028754,-82.65466567,No
297,204,290584ac-68e3-453d-b549-035fe216f3fe,2024-01-20T10:41:01.000Z,2024-01-20T10:42:49.000Z,I-75,I-75,Northbound,2,0.159,0.153,2.94,40.37352184,-84.16042311,40.41520904010319,-84.16793207,No
298,16,b1bbb12b-a6ca-4c1a-ab85-6795bbf15600,2024-01-20T14:37:54.000Z,2024-01-20T15:57:51.000Z,I-75  Exit 38 / OH-73 Central Ave / OH-73 2nd St,I-75  Exit 32 / OH-122 / Commerce,Southbound,80,0,0.787,2.66,39.56618,-84.26621,39.53859251169153,-84.29987672,Yes
299,234,07005949-ccc2-422d-8805-565e36317cbc,2024-01-20T23:52:05.000Z,2024-01-20T23:54:11.000Z,US-422 Main Market Rd,US-422 Main Market Rd / CR-1 Rapids Rd,Westbound,2,0,0.277,2.22,41.38198,-81.12472,41.38686422421585,-81.16484467,Yes
300,74,6b552bbc-43e9-4636-be73-f31b50afd3b9,2024-01-20T09:52:34.000Z,2024-01-20T09:55:32.000Z,CR-175 Domersville Rd / Behrens Rd,CR-55 Jewell Rd / CR-175 Domersville Rd,Southbound,3,0.454,0.494,2.16,41.36145938140803,-84.32382896,41.33021171058702,-84.32346409,No
301,83,8d2b70ad-557d-4686-b89d-628ddb78f2cc,2024-01-21T03:04:50.000Z,2024-01-21T03:43:52.000Z,I-71  Exit 28 / OH-48,I-71,Northbound,39,0.624,0.642,2.26,39.38888273,-84.20441477,39.40846391392318,-84.17065478,Yes
302,112,795b97d3-5160-4f55-937b-2672bdb31de8,2024-01-20T14:18:49.000Z,2024-01-20T15:02:38.000Z,"I-75  Exit 24 / OH-129 Butler County Veterans Hwy Exits 25A,25B / Liberty Way",I-75  Exit 29 / OH-63 Hamilton Lebanon Rd,Northbound,44,0.801,1.016,1.64,39.41293093267242,-84.35209944,39.43363109320189,-84.33959938,Yes
303,2,0b4a821e-6a22-47d9-aab5-8e779f5c05ae,2024-01-20T13:36:00.000Z,2024-01-20T13:40:02.000Z,CR-252 Lunda Rd / OH-47,CR-252 Lunda Rd / CR-248 Perkins Rd,Southbound,4,0,1.027,3.27,40.41125,-83.49906,40.36485,-83.51151,Yes
304,71,274b9a97-12b8-4595-bbdc-06bb03c6c79d,2024-01-20T06:34:55.000Z,2024-01-20T06:35:56.000Z,I-77,I-77,Southbound,1,1.065,1.098,2.21,39.53237137,-81.44484742,39.50258897561368,-81.45309928,No
305,109,e469c010-2d7b-4b57-84c3-c09d7fcfd019,2024-01-21T01:09:39.000Z,2024-01-21T01:11:42.000Z,OH-101 / CR-34,OH-101 / Township Road 32,Westbound,2,0.164,0.482,2.02,41.23503991861968,-83.01257564,41.21605793296411,-83.04129461,No
306,72,dcb18bda-b638-4bc1-b24a-61c289bb5fee,2024-01-20T15:46:44.000Z,2024-01-20T15:47:48.000Z,US-40 / US-40 National Rd / Preble County Line Rd,State St,Northbound,1,0.856,1.035,2.31,39.86640181943103,-84.48436191,39.90037904151668,-84.48522244,Yes
307,195,f415f7ab-fa01-4d01-997a-4460255e0c1c,2024-01-20T08:42:55.000Z,2024-01-20T09:04:56.000Z,I-77  Exit 161B / I-490,"I-71  Exits 245,246,247A / I-90 Exit 170B / I-490  Exit 1A",Westbound,22,0.178,0.428,1.39,41.47983,-81.65862226,41.475939637715065,-81.68462272,Yes
308,8,590bb746-9803-4aef-b6c9-00d6ee93c33f,2024-01-20T13:01:48.000Z,2024-01-20T13:02:45.000Z,OH-188 / CR-6 Cedar Hill Rd,OH-188 / Rockmill Rd,Eastbound,1,0.147,0.371,2.42,39.69926483269487,-82.78587618,39.70913999347746,-82.74374985,Yes
309,145,aef2364c-f123-456e-b7ba-600620b6f020,2024-01-20T11:37:49.000Z,2024-01-20T11:39:48.000Z,Union Centre Blvd / Firebird Dr,Union Centre Blvd / OH-747,Eastbound,2,0.102,0.197,1.14,39.341719624221184,-84.48090914,39.34268999223075,-84.46157978,Yes
310,101,21ccd386-2741-472b-a42c-3bb8d1c21c60,2024-01-20T06:56:50.000Z,2024-01-20T06:57:48.000Z,US-23,US-23,Northbound,1,0,1.028,2.15,39.45078068,-82.97207006,39.48174,-82.97115,No
311,97,bd06f800-3c95-4542-8af0-dc15f43a3b22,2024-01-20T12:09:47.000Z,2024-01-20T12:17:57.000Z,US-36 / Mcmahill Rd,US-36 / Bullard-Rutan Rd,Westbound,8,0,0.941,1.99,40.14904428,-83.50913686,40.13990843507251,-83.54302956,Yes
312,9,3294fafa-f8c2-45ab-9d9a-254915f059fd,2024-01-21T03:06:48.000Z,2024-01-21T04:04:48.000Z,I-71  Exit 32 / OH-123,I-71  Exit 28 / OH-48,Southbound,58,0.259,0.903,1.66,39.41230402545269,-84.16303585,39.398593241615146,-84.18631869,Yes
313,135,62eeab73-ba12-43ad-818d-fd3cbe65bb03,2024-01-20T10:54:57.000Z,2024-01-20T10:56:09.000Z,Apple Creek Rd / Northeast St,Apple Creek Rd / CR-29 Rohrer Rd,Southbound,1,0.734,1.063,1.49,40.86088122159227,-81.84258298,40.83893189349856,-81.84245988,No
314,58,517ca46d-1378-4b76-a4a7-1a7deeccc340,2024-01-20T11:02:55.000Z,2024-01-20T11:06:08.000Z,Forest Hills Dr / Smith Rd,Timber Trl / CR-4 Smith Rd,Westbound,3,0.219,0.617,1.51,41.13104002,-81.808781,41.12996073458587,-81.83595089,Yes
315,220,ef79de36-535a-4edb-aba1-cc10c2641ded,2024-01-20T17:09:07.000Z,2024-01-20T17:45:09.000Z,I-71  Exit 209A-B / I-76  Exit 1A / US-224,I-71,Southbound,36,0.371,1.152,1.86,41.02270834689048,-81.91119174,41.00997002,-81.94409995,Yes
316,149,9cd73991-36bd-4a0f-a5ff-3f13fa570ab2,2024-01-21T02:36:07.000Z,2024-01-21T02:36:46.000Z,CR-129 Claibourne Rd / Gandy-Eddy Rd / CR-201 Gandy-Eddy Rd,CR-129 Wolford Maskill Rd / CR-209 Martin Welch Rd,Southbound,1,0.447,1.081,1.7,40.35586632610589,-83.35193911,40.332119624185005,-83.35814259,Yes
317,58,4259a733-a226-4092-90a6-5be4a0c7ecc2,2024-01-20T10:54:07.000Z,2024-01-20T10:59:59.000Z,Forest Hills Dr / Smith Rd,Timber Trl / CR-4 Smith Rd,Westbound,6,0.219,0.617,1.51,41.13104002,-81.808781,41.12996073458587,-81.83595089,Yes
